[
  {
    "city": "Montevideo",
    "city_ascii": "Montevideo",
    "lat": "-34.8836",
    "lng": "-56.1819",
    "country": "Uruguay",
    "iso2": "UY",
    "iso3": "URY",
    "admin_name": "Montevideo",
    "capital": "primary",
    "population": "1719453",
    "id": "1858107000"
  },
  {
    "city": "Salto",
    "city_ascii": "Salto",
    "lat": "-31.3833",
    "lng": "-57.9500",
    "country": "Uruguay",
    "iso2": "UY",
    "iso3": "URY",
    "admin_name": "Salto",
    "capital": "admin",
    "population": "124878",
    "id": "1858575950"
  },
  {
    "city": "Ciudad de la Costa",
    "city_ascii": "Ciudad de la Costa",
    "lat": "-34.8167",
    "lng": "-55.9500",
    "country": "Uruguay",
    "iso2": "UY",
    "iso3": "URY",
    "admin_name": "Canelones",
    "capital": "",
    "population": "112449",
    "id": "1858042396"
  },
  {
    "city": "Maldonado",
    "city_ascii": "Maldonado",
    "lat": "-34.9000",
    "lng": "-54.9500",
    "country": "Uruguay",
    "iso2": "UY",
    "iso3": "URY",
    "admin_name": "Maldonado",
    "capital": "admin",
    "population": "104032",
    "id": "1858958595"
  },
  {
    "city": "Paysandú",
    "city_ascii": "Paysandu",
    "lat": "-32.3214",
    "lng": "-58.0756",
    "country": "Uruguay",
    "iso2": "UY",
    "iso3": "URY",
    "admin_name": "Paysandú",
    "capital": "admin",
    "population": "76429",
    "id": "1858756515"
  },
  {
    "city": "Las Piedras",
    "city_ascii": "Las Piedras",
    "lat": "-34.7167",
    "lng": "-56.2167",
    "country": "Uruguay",
    "iso2": "UY",
    "iso3": "URY",
    "admin_name": "Canelones",
    "capital": "",
    "population": "71268",
    "id": "1858563314"
  },
  {
    "city": "Rivera",
    "city_ascii": "Rivera",
    "lat": "-30.9025",
    "lng": "-55.5506",
    "country": "Uruguay",
    "iso2": "UY",
    "iso3": "URY",
    "admin_name": "Rivera",
    "capital": "admin",
    "population": "64465",
    "id": "1858819782"
  },
  {
    "city": "Tacuarembó",
    "city_ascii": "Tacuarembo",
    "lat": "-31.7333",
    "lng": "-55.9833",
    "country": "Uruguay",
    "iso2": "UY",
    "iso3": "URY",
    "admin_name": "Tacuarembó",
    "capital": "admin",
    "population": "54755",
    "id": "1858952595"
  },
  {
    "city": "Melo",
    "city_ascii": "Melo",
    "lat": "-32.3667",
    "lng": "-54.1833",
    "country": "Uruguay",
    "iso2": "UY",
    "iso3": "URY",
    "admin_name": "Cerro Largo",
    "capital": "admin",
    "population": "51830",
    "id": "1858600801"
  },
  {
    "city": "Mercedes",
    "city_ascii": "Mercedes",
    "lat": "-33.2500",
    "lng": "-58.0333",
    "country": "Uruguay",
    "iso2": "UY",
    "iso3": "URY",
    "admin_name": "Soriano",
    "capital": "admin",
    "population": "41974",
    "id": "1858182538"
  },
  {
    "city": "Artigas",
    "city_ascii": "Artigas",
    "lat": "-30.4667",
    "lng": "-56.4667",
    "country": "Uruguay",
    "iso2": "UY",
    "iso3": "URY",
    "admin_name": "Artigas",
    "capital": "admin",
    "population": "40658",
    "id": "1858646839"
  },
  {
    "city": "Minas",
    "city_ascii": "Minas",
    "lat": "-34.3667",
    "lng": "-55.2333",
    "country": "Uruguay",
    "iso2": "UY",
    "iso3": "URY",
    "admin_name": "Lavalleja",
    "capital": "admin",
    "population": "38446",
    "id": "1858724823"
  },
  {
    "city": "San José",
    "city_ascii": "San Jose",
    "lat": "-34.3333",
    "lng": "-56.7167",
    "country": "Uruguay",
    "iso2": "UY",
    "iso3": "URY",
    "admin_name": "San José",
    "capital": "admin",
    "population": "36747",
    "id": "1858927597"
  },
  {
    "city": "Florida",
    "city_ascii": "Florida",
    "lat": "-34.1000",
    "lng": "-56.2167",
    "country": "Uruguay",
    "iso2": "UY",
    "iso3": "URY",
    "admin_name": "Florida",
    "capital": "admin",
    "population": "33639",
    "id": "1858077099"
  },
  {
    "city": "Durazno",
    "city_ascii": "Durazno",
    "lat": "-33.3667",
    "lng": "-56.5167",
    "country": "Uruguay",
    "iso2": "UY",
    "iso3": "URY",
    "admin_name": "Durazno",
    "capital": "admin",
    "population": "34368",
    "id": "1858006236"
  },
  {
    "city": "Barros Blancos",
    "city_ascii": "Barros Blancos",
    "lat": "-34.7542",
    "lng": "-56.0042",
    "country": "Uruguay",
    "iso2": "UY",
    "iso3": "URY",
    "admin_name": "Canelones",
    "capital": "",
    "population": "31650",
    "id": "1858612587"
  },
  {
    "city": "San Carlos",
    "city_ascii": "San Carlos",
    "lat": "-34.8000",
    "lng": "-54.9167",
    "country": "Uruguay",
    "iso2": "UY",
    "iso3": "URY",
    "admin_name": "Maldonado",
    "capital": "",
    "population": "27471",
    "id": "1858085265"
  },
  {
    "city": "Pando",
    "city_ascii": "Pando",
    "lat": "-34.7167",
    "lng": "-55.9583",
    "country": "Uruguay",
    "iso2": "UY",
    "iso3": "URY",
    "admin_name": "Canelones",
    "capital": "",
    "population": "25949",
    "id": "1858276269"
  },
  {
    "city": "Treinta y Tres",
    "city_ascii": "Treinta y Tres",
    "lat": "-33.2333",
    "lng": "-54.3833",
    "country": "Uruguay",
    "iso2": "UY",
    "iso3": "URY",
    "admin_name": "Treinta y Tres",
    "capital": "admin",
    "population": "25477",
    "id": "1858879204"
  },
  {
    "city": "Colonia del Sacramento",
    "city_ascii": "Colonia del Sacramento",
    "lat": "-34.4714",
    "lng": "-57.8442",
    "country": "Uruguay",
    "iso2": "UY",
    "iso3": "URY",
    "admin_name": "Colonia",
    "capital": "admin",
    "population": "26231",
    "id": "1858338569"
  },
  {
    "city": "Rocha",
    "city_ascii": "Rocha",
    "lat": "-34.4833",
    "lng": "-54.3500",
    "country": "Uruguay",
    "iso2": "UY",
    "iso3": "URY",
    "admin_name": "Rocha",
    "capital": "admin",
    "population": "25422",
    "id": "1858936449"
  },
  {
    "city": "La Paz",
    "city_ascii": "La Paz",
    "lat": "-34.7617",
    "lng": "-56.2233",
    "country": "Uruguay",
    "iso2": "UY",
    "iso3": "URY",
    "admin_name": "Canelones",
    "capital": "",
    "population": "20524",
    "id": "1858113046"
  },
  {
    "city": "Fray Bentos",
    "city_ascii": "Fray Bentos",
    "lat": "-33.1333",
    "lng": "-58.3000",
    "country": "Uruguay",
    "iso2": "UY",
    "iso3": "URY",
    "admin_name": "Río Negro",
    "capital": "admin",
    "population": "24406",
    "id": "1858727525"
  },
  {
    "city": "Bella Unión",
    "city_ascii": "Bella Union",
    "lat": "-30.2500",
    "lng": "-57.5833",
    "country": "Uruguay",
    "iso2": "UY",
    "iso3": "URY",
    "admin_name": "Artigas",
    "capital": "",
    "population": "19100",
    "id": "1858883224"
  },
  {
    "city": "Carmelo",
    "city_ascii": "Carmelo",
    "lat": "-34.0000",
    "lng": "-58.2833",
    "country": "Uruguay",
    "iso2": "UY",
    "iso3": "URY",
    "admin_name": "Colonia",
    "capital": "",
    "population": "18041",
    "id": "1858670999"
  },
  {
    "city": "Canelones",
    "city_ascii": "Canelones",
    "lat": "-34.5167",
    "lng": "-56.2833",
    "country": "Uruguay",
    "iso2": "UY",
    "iso3": "URY",
    "admin_name": "Canelones",
    "capital": "admin",
    "population": "19865",
    "id": "1858741797"
  },
  {
    "city": "Santa Lucía",
    "city_ascii": "Santa Lucia",
    "lat": "-34.4525",
    "lng": "-56.3964",
    "country": "Uruguay",
    "iso2": "UY",
    "iso3": "URY",
    "admin_name": "Canelones",
    "capital": "",
    "population": "16742",
    "id": "1858287723"
  },
  {
    "city": "Dolores",
    "city_ascii": "Dolores",
    "lat": "-33.5333",
    "lng": "-58.2167",
    "country": "Uruguay",
    "iso2": "UY",
    "iso3": "URY",
    "admin_name": "Soriano",
    "capital": "",
    "population": "15753",
    "id": "1858369530"
  },
  {
    "city": "Paso de Carrasco",
    "city_ascii": "Paso de Carrasco",
    "lat": "-34.8714",
    "lng": "-56.0272",
    "country": "Uruguay",
    "iso2": "UY",
    "iso3": "URY",
    "admin_name": "Canelones",
    "capital": "",
    "population": "15908",
    "id": "1858805647"
  },
  {
    "city": "Young",
    "city_ascii": "Young",
    "lat": "-32.7000",
    "lng": "-57.6333",
    "country": "Uruguay",
    "iso2": "UY",
    "iso3": "URY",
    "admin_name": "Río Negro",
    "capital": "",
    "population": "16756",
    "id": "1858448729"
  },
  {
    "city": "Progreso",
    "city_ascii": "Progreso",
    "lat": "-34.6650",
    "lng": "-56.2194",
    "country": "Uruguay",
    "iso2": "UY",
    "iso3": "URY",
    "admin_name": "Canelones",
    "capital": "",
    "population": "16244",
    "id": "1858245447"
  },
  {
    "city": "Libertad",
    "city_ascii": "Libertad",
    "lat": "-34.6333",
    "lng": "-56.6192",
    "country": "Uruguay",
    "iso2": "UY",
    "iso3": "URY",
    "admin_name": "San José",
    "capital": "",
    "population": "11458",
    "id": "1858652953"
  },
  {
    "city": "Nueva Palmira",
    "city_ascii": "Nueva Palmira",
    "lat": "-33.8833",
    "lng": "-58.4167",
    "country": "Uruguay",
    "iso2": "UY",
    "iso3": "URY",
    "admin_name": "Colonia",
    "capital": "",
    "population": "9857",
    "id": "1858193401"
  },
  {
    "city": "Chuy",
    "city_ascii": "Chuy",
    "lat": "-33.6964",
    "lng": "-53.4600",
    "country": "Uruguay",
    "iso2": "UY",
    "iso3": "URY",
    "admin_name": "Rocha",
    "capital": "",
    "population": "9675",
    "id": "1858852364"
  },
  {
    "city": "Salinas",
    "city_ascii": "Salinas",
    "lat": "-34.7833",
    "lng": "-55.8333",
    "country": "Uruguay",
    "iso2": "UY",
    "iso3": "URY",
    "admin_name": "Canelones",
    "capital": "",
    "population": "8626",
    "id": "1858193593"
  },
  {
    "city": "Lascano",
    "city_ascii": "Lascano",
    "lat": "-33.6739",
    "lng": "-54.2075",
    "country": "Uruguay",
    "iso2": "UY",
    "iso3": "URY",
    "admin_name": "Rocha",
    "capital": "",
    "population": "7645",
    "id": "1858593854"
  },
  {
    "city": "Castillos",
    "city_ascii": "Castillos",
    "lat": "-34.1989",
    "lng": "-53.8575",
    "country": "Uruguay",
    "iso2": "UY",
    "iso3": "URY",
    "admin_name": "Rocha",
    "capital": "",
    "population": "7541",
    "id": "1858885344"
  },
  {
    "city": "Ciudad del Plata",
    "city_ascii": "Ciudad del Plata",
    "lat": "-34.7667",
    "lng": "-56.3806",
    "country": "Uruguay",
    "iso2": "UY",
    "iso3": "URY",
    "admin_name": "San José",
    "capital": "",
    "population": "31145",
    "id": "1858720449"
  },
  {
    "city": "El Pinar",
    "city_ascii": "El Pinar",
    "lat": "-34.7972",
    "lng": "-55.9097",
    "country": "Uruguay",
    "iso2": "UY",
    "iso3": "URY",
    "admin_name": "Canelones",
    "capital": "",
    "population": "21091",
    "id": "1858554922"
  },
  {
    "city": "Trinidad",
    "city_ascii": "Trinidad",
    "lat": "-33.5333",
    "lng": "-56.8833",
    "country": "Uruguay",
    "iso2": "UY",
    "iso3": "URY",
    "admin_name": "Flores",
    "capital": "",
    "population": "21429",
    "id": "1858903609"
  },
  {
    "city": "Río Branco",
    "city_ascii": "Rio Branco",
    "lat": "-32.5972",
    "lng": "-53.3833",
    "country": "Uruguay",
    "iso2": "UY",
    "iso3": "URY",
    "admin_name": "Cerro Largo",
    "capital": "",
    "population": "14604",
    "id": "1858289927"
  },
  {
    "city": "Juan L. Lacaze",
    "city_ascii": "Juan L. Lacaze",
    "lat": "-34.4311",
    "lng": "-57.4483",
    "country": "Uruguay",
    "iso2": "UY",
    "iso3": "URY",
    "admin_name": "Colonia",
    "capital": "",
    "population": "12816",
    "id": "1858599610"
  },
  {
    "city": "Paso de los Toros",
    "city_ascii": "Paso de los Toros",
    "lat": "-32.8112",
    "lng": "-56.5086",
    "country": "Uruguay",
    "iso2": "UY",
    "iso3": "URY",
    "admin_name": "Durazno",
    "capital": "",
    "population": "12985",
    "id": "1858768851"
  },
  {
    "city": "Nueva Helvecia",
    "city_ascii": "Nueva Helvecia",
    "lat": "-34.2833",
    "lng": "-57.2000",
    "country": "Uruguay",
    "iso2": "UY",
    "iso3": "URY",
    "admin_name": "Colonia",
    "capital": "",
    "population": "10630",
    "id": "1858393787"
  },
  {
    "city": "Rosario",
    "city_ascii": "Rosario",
    "lat": "-34.3139",
    "lng": "-57.3525",
    "country": "Uruguay",
    "iso2": "UY",
    "iso3": "URY",
    "admin_name": "Colonia",
    "capital": "",
    "population": "9311",
    "id": "1858160603"
  },
  {
    "city": "Colonia Nicolich",
    "city_ascii": "Colonia Nicolich",
    "lat": "-34.8167",
    "lng": "-56.0167",
    "country": "Uruguay",
    "iso2": "UY",
    "iso3": "URY",
    "admin_name": "Canelones",
    "capital": "",
    "population": "9624",
    "id": "1858537250"
  },
  {
    "city": "Punta del Este",
    "city_ascii": "Punta del Este",
    "lat": "-34.9667",
    "lng": "-54.9500",
    "country": "Uruguay",
    "iso2": "UY",
    "iso3": "URY",
    "admin_name": "Maldonado",
    "capital": "",
    "population": "9277",
    "id": "1858267433"
  },
  {
    "city": "Piriápolis",
    "city_ascii": "Piriapolis",
    "lat": "-34.9000",
    "lng": "-55.2833",
    "country": "Uruguay",
    "iso2": "UY",
    "iso3": "URY",
    "admin_name": "Maldonado",
    "capital": "",
    "population": "8830",
    "id": "1858127354"
  },
  {
    "city": "Nuevo Paysandú",
    "city_ascii": "Nuevo Paysandu",
    "lat": "-32.2667",
    "lng": "-58.0667",
    "country": "Uruguay",
    "iso2": "UY",
    "iso3": "URY",
    "admin_name": "Paysandú",
    "capital": "",
    "population": "8578",
    "id": "1858171895"
  },
  {
    "city": "Tranqueras",
    "city_ascii": "Tranqueras",
    "lat": "-31.1833",
    "lng": "-55.7667",
    "country": "Uruguay",
    "iso2": "UY",
    "iso3": "URY",
    "admin_name": "Rivera",
    "capital": "",
    "population": "7235",
    "id": "1858727708"
  },
  {
    "city": "La Paloma",
    "city_ascii": "La Paloma",
    "lat": "-34.6500",
    "lng": "-54.1667",
    "country": "Uruguay",
    "iso2": "UY",
    "iso3": "URY",
    "admin_name": "Rocha",
    "capital": "",
    "population": "3495",
    "id": "1858559267"
  },
  {
    "city": "Vergara",
    "city_ascii": "Vergara",
    "lat": "-32.9500",
    "lng": "-53.9333",
    "country": "Uruguay",
    "iso2": "UY",
    "iso3": "URY",
    "admin_name": "Treinta y Tres",
    "capital": "",
    "population": "3810",
    "id": "1858979569"
  },
  {
    "city": "Baltasar Brum",
    "city_ascii": "Baltasar Brum",
    "lat": "-30.7167",
    "lng": "-57.3333",
    "country": "Uruguay",
    "iso2": "UY",
    "iso3": "URY",
    "admin_name": "Artigas",
    "capital": "",
    "population": "2531",
    "id": "1858039985"
  },
  {
    "city": "Aiguá",
    "city_ascii": "Aigua",
    "lat": "-34.2000",
    "lng": "-54.7500",
    "country": "Uruguay",
    "iso2": "UY",
    "iso3": "URY",
    "admin_name": "Maldonado",
    "capital": "",
    "population": "2692",
    "id": "1858068520"
  },
  {
    "city": "José Batlle y Ordóñez",
    "city_ascii": "Jose Batlle y Ordonez",
    "lat": "-33.4667",
    "lng": "-55.1500",
    "country": "Uruguay",
    "iso2": "UY",
    "iso3": "URY",
    "admin_name": "Lavalleja",
    "capital": "",
    "population": "2203",
    "id": "1858852252"
  }
]