[
  {
    "city": "Pristina",
    "city_ascii": "Pristina",
    "lat": "42.6633",
    "lng": "21.1622",
    "country": "Kosovo",
    "iso2": "XK",
    "iso3": "XKS",
    "admin_name": "Prishtinë",
    "capital": "primary",
    "population": "161751",
    "id": "1901760068"
  },
  {
    "city": "Ferizaj",
    "city_ascii": "Ferizaj",
    "lat": "42.3667",
    "lng": "21.1667",
    "country": "Kosovo",
    "iso2": "XK",
    "iso3": "XKS",
    "admin_name": "Ferizaj",
    "capital": "admin",
    "population": "108610",
    "id": "1901875540"
  },
  {
    "city": "Gjakovë",
    "city_ascii": "Gjakove",
    "lat": "42.3833",
    "lng": "20.4333",
    "country": "Kosovo",
    "iso2": "XK",
    "iso3": "XKS",
    "admin_name": "Gjakovë",
    "capital": "admin",
    "population": "94556",
    "id": "1901089874"
  },
  {
    "city": "Prizren",
    "city_ascii": "Prizren",
    "lat": "42.2128",
    "lng": "20.7392",
    "country": "Kosovo",
    "iso2": "XK",
    "iso3": "XKS",
    "admin_name": "Prizren",
    "capital": "admin",
    "population": "94517",
    "id": "1901360309"
  },
  {
    "city": "Podujevë",
    "city_ascii": "Podujeve",
    "lat": "42.9167",
    "lng": "21.2000",
    "country": "Kosovo",
    "iso2": "XK",
    "iso3": "XKS",
    "admin_name": "Podujevë",
    "capital": "admin",
    "population": "88499",
    "id": "1901550082"
  },
  {
    "city": "Mitrovicë",
    "city_ascii": "Mitrovice",
    "lat": "42.8833",
    "lng": "20.8667",
    "country": "Kosovo",
    "iso2": "XK",
    "iso3": "XKS",
    "admin_name": "",
    "capital": "admin",
    "population": "85360",
    "id": "1901138430"
  },
  {
    "city": "Vushtrri",
    "city_ascii": "Vushtrri",
    "lat": "42.8222",
    "lng": "20.9694",
    "country": "Kosovo",
    "iso2": "XK",
    "iso3": "XKS",
    "admin_name": "Vushtrri",
    "capital": "admin",
    "population": "69870",
    "id": "1901107642"
  },
  {
    "city": "Suharekë",
    "city_ascii": "Suhareke",
    "lat": "42.3800",
    "lng": "20.8219",
    "country": "Kosovo",
    "iso2": "XK",
    "iso3": "XKS",
    "admin_name": "Suharekë",
    "capital": "admin",
    "population": "59722",
    "id": "1901918563"
  },
  {
    "city": "Gllogovc",
    "city_ascii": "Gllogovc",
    "lat": "42.6236",
    "lng": "20.8939",
    "country": "Kosovo",
    "iso2": "XK",
    "iso3": "XKS",
    "admin_name": "Gllogovc",
    "capital": "admin",
    "population": "58531",
    "id": "1901031751"
  },
  {
    "city": "Lipjan",
    "city_ascii": "Lipjan",
    "lat": "42.5300",
    "lng": "21.1386",
    "country": "Kosovo",
    "iso2": "XK",
    "iso3": "XKS",
    "admin_name": "Lipjan",
    "capital": "admin",
    "population": "57605",
    "id": "1901682048"
  },
  {
    "city": "Rahovec",
    "city_ascii": "Rahovec",
    "lat": "42.3994",
    "lng": "20.6547",
    "country": "Kosovo",
    "iso2": "XK",
    "iso3": "XKS",
    "admin_name": "Rahovec",
    "capital": "admin",
    "population": "56208",
    "id": "1901336358"
  },
  {
    "city": "Gjilan",
    "city_ascii": "Gjilan",
    "lat": "42.4647",
    "lng": "21.4669",
    "country": "Kosovo",
    "iso2": "XK",
    "iso3": "XKS",
    "admin_name": "Gjilan",
    "capital": "admin",
    "population": "54239",
    "id": "1901235642"
  },
  {
    "city": "Skenderaj",
    "city_ascii": "Skenderaj",
    "lat": "42.7467",
    "lng": "20.7886",
    "country": "Kosovo",
    "iso2": "XK",
    "iso3": "XKS",
    "admin_name": "Skenderaj",
    "capital": "admin",
    "population": "50858",
    "id": "1901259570"
  },
  {
    "city": "Pejë",
    "city_ascii": "Peje",
    "lat": "42.6603",
    "lng": "20.2917",
    "country": "Kosovo",
    "iso2": "XK",
    "iso3": "XKS",
    "admin_name": "Pejë",
    "capital": "admin",
    "population": "48962",
    "id": "1901339694"
  },
  {
    "city": "Istog",
    "city_ascii": "Istog",
    "lat": "42.7833",
    "lng": "20.4833",
    "country": "Kosovo",
    "iso2": "XK",
    "iso3": "XKS",
    "admin_name": "Istog",
    "capital": "admin",
    "population": "39289",
    "id": "1901248770"
  },
  {
    "city": "Klinë",
    "city_ascii": "Kline",
    "lat": "42.6167",
    "lng": "20.5667",
    "country": "Kosovo",
    "iso2": "XK",
    "iso3": "XKS",
    "admin_name": "Klinë",
    "capital": "admin",
    "population": "38496",
    "id": "1901230162"
  },
  {
    "city": "Kamenicë",
    "city_ascii": "Kamenice",
    "lat": "42.5839",
    "lng": "21.5750",
    "country": "Kosovo",
    "iso2": "XK",
    "iso3": "XKS",
    "admin_name": "Kamenicë",
    "capital": "admin",
    "population": "36085",
    "id": "1901851592"
  },
  {
    "city": "Dragash",
    "city_ascii": "Dragash",
    "lat": "42.0611",
    "lng": "20.6528",
    "country": "Kosovo",
    "iso2": "XK",
    "iso3": "XKS",
    "admin_name": "Dragash",
    "capital": "admin",
    "population": "34827",
    "id": "1901112530"
  },
  {
    "city": "Fushë Kosovë",
    "city_ascii": "Fushe Kosove",
    "lat": "42.6300",
    "lng": "21.1200",
    "country": "Kosovo",
    "iso2": "XK",
    "iso3": "XKS",
    "admin_name": "Fushë Kosovë",
    "capital": "admin",
    "population": "33997",
    "id": "1901134407"
  },
  {
    "city": "Kaçanik",
    "city_ascii": "Kacanik",
    "lat": "42.2467",
    "lng": "21.2553",
    "country": "Kosovo",
    "iso2": "XK",
    "iso3": "XKS",
    "admin_name": "Kaçanik",
    "capital": "admin",
    "population": "33409",
    "id": "1901200321"
  },
  {
    "city": "Shtime",
    "city_ascii": "Shtime",
    "lat": "42.4333",
    "lng": "21.0333",
    "country": "Kosovo",
    "iso2": "XK",
    "iso3": "XKS",
    "admin_name": "Shtime",
    "capital": "admin",
    "population": "27324",
    "id": "1901598505"
  },
  {
    "city": "Leposaviq",
    "city_ascii": "Leposaviq",
    "lat": "43.1000",
    "lng": "20.8000",
    "country": "Kosovo",
    "iso2": "XK",
    "iso3": "XKS",
    "admin_name": "Leposaviq",
    "capital": "admin",
    "population": "18600",
    "id": "1901974597"
  },
  {
    "city": "Zveçan",
    "city_ascii": "Zvecan",
    "lat": "42.9000",
    "lng": "20.8333",
    "country": "Kosovo",
    "iso2": "XK",
    "iso3": "XKS",
    "admin_name": "Zveçan",
    "capital": "admin",
    "population": "16650",
    "id": "1901208362"
  },
  {
    "city": "Zubin Potok",
    "city_ascii": "Zubin Potok",
    "lat": "42.9167",
    "lng": "20.6833",
    "country": "Kosovo",
    "iso2": "XK",
    "iso3": "XKS",
    "admin_name": "Zubin Potok",
    "capital": "admin",
    "population": "15200",
    "id": "1901608808"
  },
  {
    "city": "Shtërpcë",
    "city_ascii": "Shterpce",
    "lat": "42.2333",
    "lng": "21.0167",
    "country": "Kosovo",
    "iso2": "XK",
    "iso3": "XKS",
    "admin_name": "Shtërpcë",
    "capital": "admin",
    "population": "13630",
    "id": "1901828239"
  },
  {
    "city": "Graçanicë",
    "city_ascii": "Gracanice",
    "lat": "42.6000",
    "lng": "21.2000",
    "country": "Kosovo",
    "iso2": "XK",
    "iso3": "XKS",
    "admin_name": "Graçanicë",
    "capital": "admin",
    "population": "10675",
    "id": "1901753443"
  },
  {
    "city": "Hani i Elezit",
    "city_ascii": "Hani i Elezit",
    "lat": "42.1475",
    "lng": "21.2992",
    "country": "Kosovo",
    "iso2": "XK",
    "iso3": "XKS",
    "admin_name": "Hani i Elezit",
    "capital": "admin",
    "population": "9403",
    "id": "1901964789"
  },
  {
    "city": "Novobërdë",
    "city_ascii": "Novoberde",
    "lat": "42.6000",
    "lng": "21.4333",
    "country": "Kosovo",
    "iso2": "XK",
    "iso3": "XKS",
    "admin_name": "Novobërdë",
    "capital": "admin",
    "population": "7121",
    "id": "1901684676"
  },
  {
    "city": "Obiliq",
    "city_ascii": "Obiliq",
    "lat": "42.6900",
    "lng": "21.0778",
    "country": "Kosovo",
    "iso2": "XK",
    "iso3": "XKS",
    "admin_name": "Obiliq",
    "capital": "admin",
    "population": "6864",
    "id": "1901102771"
  },
  {
    "city": "Junik",
    "city_ascii": "Junik",
    "lat": "42.4761",
    "lng": "20.2775",
    "country": "Kosovo",
    "iso2": "XK",
    "iso3": "XKS",
    "admin_name": "Junik",
    "capital": "admin",
    "population": "6084",
    "id": "1901930204"
  },
  {
    "city": "Mamushë",
    "city_ascii": "Mamushe",
    "lat": "42.3167",
    "lng": "20.7167",
    "country": "Kosovo",
    "iso2": "XK",
    "iso3": "XKS",
    "admin_name": "Mamushë",
    "capital": "admin",
    "population": "5507",
    "id": "1901042958"
  },
  {
    "city": "Ranillug",
    "city_ascii": "Ranillug",
    "lat": "42.4920",
    "lng": "21.5590",
    "country": "Kosovo",
    "iso2": "XK",
    "iso3": "XKS",
    "admin_name": "Ranillug",
    "capital": "admin",
    "population": "5800",
    "id": "1901029901"
  },
  {
    "city": "Partesh",
    "city_ascii": "Partesh",
    "lat": "42.4019",
    "lng": "21.4336",
    "country": "Kosovo",
    "iso2": "XK",
    "iso3": "XKS",
    "admin_name": "Partesh",
    "capital": "admin",
    "population": "5300",
    "id": "1901909986"
  },
  {
    "city": "Deçan",
    "city_ascii": "Decan",
    "lat": "42.5333",
    "lng": "20.2833",
    "country": "Kosovo",
    "iso2": "XK",
    "iso3": "XKS",
    "admin_name": "Deçan",
    "capital": "admin",
    "population": "3803",
    "id": "1901189818"
  },
  {
    "city": "Malishevë",
    "city_ascii": "Malisheve",
    "lat": "42.4828",
    "lng": "20.7461",
    "country": "Kosovo",
    "iso2": "XK",
    "iso3": "XKS",
    "admin_name": "Malishevë",
    "capital": "admin",
    "population": "3395",
    "id": "1901597212"
  },
  {
    "city": "Kllokot",
    "city_ascii": "Kllokot",
    "lat": "42.3667",
    "lng": "21.3833",
    "country": "Kosovo",
    "iso2": "XK",
    "iso3": "XKS",
    "admin_name": "Kllokot",
    "capital": "admin",
    "population": "2556",
    "id": "1901445768"
  },
  {
    "city": "Viti",
    "city_ascii": "Viti",
    "lat": "42.3214",
    "lng": "21.3583",
    "country": "Kosovo",
    "iso2": "XK",
    "iso3": "XKS",
    "admin_name": "Viti",
    "capital": "admin",
    "population": "",
    "id": "1901328795"
  },
  {
    "city": "Matiçan",
    "city_ascii": "Matican",
    "lat": "42.6449",
    "lng": "21.1918",
    "country": "Kosovo",
    "iso2": "XK",
    "iso3": "XKS",
    "admin_name": "Prishtinë",
    "capital": "",
    "population": "13876",
    "id": "1901916938"
  },
  {
    "city": "Pozharan",
    "city_ascii": "Pozharan",
    "lat": "42.3648",
    "lng": "21.3372",
    "country": "Kosovo",
    "iso2": "XK",
    "iso3": "XKS",
    "admin_name": "Viti",
    "capital": "",
    "population": "11749",
    "id": "1901243584"
  },
  {
    "city": "Dushanovë",
    "city_ascii": "Dushanove",
    "lat": "42.2347",
    "lng": "20.7091",
    "country": "Kosovo",
    "iso2": "XK",
    "iso3": "XKS",
    "admin_name": "Prizren",
    "capital": "",
    "population": "9398",
    "id": "1901150015"
  },
  {
    "city": "Zhur",
    "city_ascii": "Zhur",
    "lat": "42.1639",
    "lng": "20.6211",
    "country": "Kosovo",
    "iso2": "XK",
    "iso3": "XKS",
    "admin_name": "Prizren",
    "capital": "",
    "population": "8927",
    "id": "1901520274"
  }
]