[
  {
    "city": "Santiago",
    "city_ascii": "Santiago",
    "lat": "-33.4372",
    "lng": "-70.6506",
    "country": "Chile",
    "iso2": "CL",
    "iso3": "CHL",
    "admin_name": "Región Metropolitana",
    "capital": "primary",
    "population": "7171000",
    "id": "1152554349"
  },
  {
    "city": "Concepción",
    "city_ascii": "Concepcion",
    "lat": "-36.8282",
    "lng": "-73.0514",
    "country": "Chile",
    "iso2": "CL",
    "iso3": "CHL",
    "admin_name": "Biobío",
    "capital": "admin",
    "population": "719944",
    "id": "1152838958"
  },
  {
    "city": "Puente Alto",
    "city_ascii": "Puente Alto",
    "lat": "-33.6167",
    "lng": "-70.5667",
    "country": "Chile",
    "iso2": "CL",
    "iso3": "CHL",
    "admin_name": "Región Metropolitana",
    "capital": "minor",
    "population": "573935",
    "id": "1152516346"
  },
  {
    "city": "Maipú",
    "city_ascii": "Maipu",
    "lat": "-33.5167",
    "lng": "-70.7667",
    "country": "Chile",
    "iso2": "CL",
    "iso3": "CHL",
    "admin_name": "Región Metropolitana",
    "capital": "",
    "population": "521627",
    "id": "1152583016"
  },
  {
    "city": "La Florida",
    "city_ascii": "La Florida",
    "lat": "-33.5333",
    "lng": "-70.5833",
    "country": "Chile",
    "iso2": "CL",
    "iso3": "CHL",
    "admin_name": "Región Metropolitana",
    "capital": "",
    "population": "366916",
    "id": "1152939649"
  },
  {
    "city": "Antofagasta",
    "city_ascii": "Antofagasta",
    "lat": "-23.6500",
    "lng": "-70.4000",
    "country": "Chile",
    "iso2": "CL",
    "iso3": "CHL",
    "admin_name": "Antofagasta",
    "capital": "admin",
    "population": "348517",
    "id": "1152734289"
  },
  {
    "city": "Viña del Mar",
    "city_ascii": "Vina del Mar",
    "lat": "-33.0244",
    "lng": "-71.5517",
    "country": "Chile",
    "iso2": "CL",
    "iso3": "CHL",
    "admin_name": "Valparaíso",
    "capital": "",
    "population": "332875",
    "id": "1152898644"
  },
  {
    "city": "San Bernardo",
    "city_ascii": "San Bernardo",
    "lat": "-33.5833",
    "lng": "-70.7000",
    "country": "Chile",
    "iso2": "CL",
    "iso3": "CHL",
    "admin_name": "Región Metropolitana",
    "capital": "minor",
    "population": "301313",
    "id": "1152050361"
  },
  {
    "city": "Valparaíso",
    "city_ascii": "Valparaiso",
    "lat": "-33.0461",
    "lng": "-71.6197",
    "country": "Chile",
    "iso2": "CL",
    "iso3": "CHL",
    "admin_name": "Valparaíso",
    "capital": "admin",
    "population": "296655",
    "id": "1152337970"
  },
  {
    "city": "Temuco",
    "city_ascii": "Temuco",
    "lat": "-38.7333",
    "lng": "-72.6667",
    "country": "Chile",
    "iso2": "CL",
    "iso3": "CHL",
    "admin_name": "Araucanía",
    "capital": "admin",
    "population": "282415",
    "id": "1152318955"
  },
  {
    "city": "Las Condes",
    "city_ascii": "Las Condes",
    "lat": "-33.4117",
    "lng": "-70.5500",
    "country": "Chile",
    "iso2": "CL",
    "iso3": "CHL",
    "admin_name": "Región Metropolitana",
    "capital": "",
    "population": "249893",
    "id": "1152858037"
  },
  {
    "city": "Rancagua",
    "city_ascii": "Rancagua",
    "lat": "-34.1667",
    "lng": "-70.7500",
    "country": "Chile",
    "iso2": "CL",
    "iso3": "CHL",
    "admin_name": "Libertador General Bernardo O’Higgins",
    "capital": "admin",
    "population": "231370",
    "id": "1152672356"
  },
  {
    "city": "Peñalolén",
    "city_ascii": "Penalolen",
    "lat": "-33.4833",
    "lng": "-70.5500",
    "country": "Chile",
    "iso2": "CL",
    "iso3": "CHL",
    "admin_name": "Región Metropolitana",
    "capital": "",
    "population": "216060",
    "id": "1152224242"
  },
  {
    "city": "Quilicura",
    "city_ascii": "Quilicura",
    "lat": "-33.3667",
    "lng": "-70.7333",
    "country": "Chile",
    "iso2": "CL",
    "iso3": "CHL",
    "admin_name": "Región Metropolitana",
    "capital": "",
    "population": "210410",
    "id": "1152402180"
  },
  {
    "city": "Talca",
    "city_ascii": "Talca",
    "lat": "-35.4269",
    "lng": "-71.6656",
    "country": "Chile",
    "iso2": "CL",
    "iso3": "CHL",
    "admin_name": "Maule",
    "capital": "admin",
    "population": "206069",
    "id": "1152736946"
  },
  {
    "city": "Coquimbo",
    "city_ascii": "Coquimbo",
    "lat": "-29.9531",
    "lng": "-71.3433",
    "country": "Chile",
    "iso2": "CL",
    "iso3": "CHL",
    "admin_name": "Coquimbo",
    "capital": "minor",
    "population": "204068",
    "id": "1152038253"
  },
  {
    "city": "Arica",
    "city_ascii": "Arica",
    "lat": "-18.4667",
    "lng": "-70.3167",
    "country": "Chile",
    "iso2": "CL",
    "iso3": "CHL",
    "admin_name": "Arica y Parinacota",
    "capital": "admin",
    "population": "202131",
    "id": "1152531089"
  },
  {
    "city": "La Serena",
    "city_ascii": "La Serena",
    "lat": "-29.9000",
    "lng": "-71.2500",
    "country": "Chile",
    "iso2": "CL",
    "iso3": "CHL",
    "admin_name": "Coquimbo",
    "capital": "admin",
    "population": "195382",
    "id": "1152155065"
  },
  {
    "city": "Iquique",
    "city_ascii": "Iquique",
    "lat": "-20.2167",
    "lng": "-70.1500",
    "country": "Chile",
    "iso2": "CL",
    "iso3": "CHL",
    "admin_name": "Tarapacá",
    "capital": "admin",
    "population": "188003",
    "id": "1152234625"
  },
  {
    "city": "El Bosque",
    "city_ascii": "El Bosque",
    "lat": "-33.5667",
    "lng": "-70.6750",
    "country": "Chile",
    "iso2": "CL",
    "iso3": "CHL",
    "admin_name": "Región Metropolitana",
    "capital": "",
    "population": "175594",
    "id": "1152734764"
  },
  {
    "city": "La Pintana",
    "city_ascii": "La Pintana",
    "lat": "-33.5833",
    "lng": "-70.6333",
    "country": "Chile",
    "iso2": "CL",
    "iso3": "CHL",
    "admin_name": "Región Metropolitana",
    "capital": "",
    "population": "177335",
    "id": "1152999558"
  },
  {
    "city": "Puerto Montt",
    "city_ascii": "Puerto Montt",
    "lat": "-41.4667",
    "lng": "-72.9333",
    "country": "Chile",
    "iso2": "CL",
    "iso3": "CHL",
    "admin_name": "Los Lagos",
    "capital": "admin",
    "population": "169736",
    "id": "1152443957"
  },
  {
    "city": "Chillán",
    "city_ascii": "Chillan",
    "lat": "-36.6067",
    "lng": "-72.1033",
    "country": "Chile",
    "iso2": "CL",
    "iso3": "CHL",
    "admin_name": "Ñuble",
    "capital": "admin",
    "population": "164270",
    "id": "1152082093"
  },
  {
    "city": "Calama",
    "city_ascii": "Calama",
    "lat": "-22.4667",
    "lng": "-68.9333",
    "country": "Chile",
    "iso2": "CL",
    "iso3": "CHL",
    "admin_name": "Antofagasta",
    "capital": "minor",
    "population": "157575",
    "id": "1152168074"
  },
  {
    "city": "Talcahuano",
    "city_ascii": "Talcahuano",
    "lat": "-36.7167",
    "lng": "-73.1219",
    "country": "Chile",
    "iso2": "CL",
    "iso3": "CHL",
    "admin_name": "Biobío",
    "capital": "",
    "population": "147831",
    "id": "1152023044"
  },
  {
    "city": "Copiapó",
    "city_ascii": "Copiapo",
    "lat": "-27.3664",
    "lng": "-70.3331",
    "country": "Chile",
    "iso2": "CL",
    "iso3": "CHL",
    "admin_name": "Atacama",
    "capital": "admin",
    "population": "150804",
    "id": "1152406965"
  },
  {
    "city": "Valdivia",
    "city_ascii": "Valdivia",
    "lat": "-39.8139",
    "lng": "-73.2458",
    "country": "Chile",
    "iso2": "CL",
    "iso3": "CHL",
    "admin_name": "Los Ríos",
    "capital": "admin",
    "population": "150048",
    "id": "1152201132"
  },
  {
    "city": "Quilpué",
    "city_ascii": "Quilpue",
    "lat": "-33.0500",
    "lng": "-71.4500",
    "country": "Chile",
    "iso2": "CL",
    "iso3": "CHL",
    "admin_name": "Valparaíso",
    "capital": "minor",
    "population": "147991",
    "id": "1152063222"
  },
  {
    "city": "Osorno",
    "city_ascii": "Osorno",
    "lat": "-40.5725",
    "lng": "-73.1353",
    "country": "Chile",
    "iso2": "CL",
    "iso3": "CHL",
    "admin_name": "Los Lagos",
    "capital": "minor",
    "population": "147460",
    "id": "1152866014"
  },
  {
    "city": "Colina",
    "city_ascii": "Colina",
    "lat": "-33.2017",
    "lng": "-70.6703",
    "country": "Chile",
    "iso2": "CL",
    "iso3": "CHL",
    "admin_name": "Región Metropolitana",
    "capital": "minor",
    "population": "146207",
    "id": "1152944896"
  },
  {
    "city": "Los Ángeles",
    "city_ascii": "Los Angeles",
    "lat": "-37.4667",
    "lng": "-72.3500",
    "country": "Chile",
    "iso2": "CL",
    "iso3": "CHL",
    "admin_name": "Biobío",
    "capital": "minor",
    "population": "143023",
    "id": "1152810305"
  },
  {
    "city": "Renca",
    "city_ascii": "Renca",
    "lat": "-33.4000",
    "lng": "-70.7167",
    "country": "Chile",
    "iso2": "CL",
    "iso3": "CHL",
    "admin_name": "Región Metropolitana",
    "capital": "",
    "population": "133518",
    "id": "1152882154"
  },
  {
    "city": "Curicó",
    "city_ascii": "Curico",
    "lat": "-34.9833",
    "lng": "-71.2333",
    "country": "Chile",
    "iso2": "CL",
    "iso3": "CHL",
    "admin_name": "Maule",
    "capital": "minor",
    "population": "136954",
    "id": "1152564798"
  },
  {
    "city": "Conchalí",
    "city_ascii": "Conchali",
    "lat": "-33.3833",
    "lng": "-70.6750",
    "country": "Chile",
    "iso2": "CL",
    "iso3": "CHL",
    "admin_name": "Región Metropolitana",
    "capital": "",
    "population": "133256",
    "id": "1152123561"
  },
  {
    "city": "Villa Alemana",
    "city_ascii": "Villa Alemana",
    "lat": "-33.0422",
    "lng": "-71.3733",
    "country": "Chile",
    "iso2": "CL",
    "iso3": "CHL",
    "admin_name": "Valparaíso",
    "capital": "",
    "population": "125140",
    "id": "1152839066"
  },
  {
    "city": "La Granja",
    "city_ascii": "La Granja",
    "lat": "-33.5333",
    "lng": "-70.6250",
    "country": "Chile",
    "iso2": "CL",
    "iso3": "CHL",
    "admin_name": "Región Metropolitana",
    "capital": "",
    "population": "116571",
    "id": "1152785745"
  },
  {
    "city": "Melipilla",
    "city_ascii": "Melipilla",
    "lat": "-33.6253",
    "lng": "-71.2711",
    "country": "Chile",
    "iso2": "CL",
    "iso3": "CHL",
    "admin_name": "Región Metropolitana",
    "capital": "minor",
    "population": "123627",
    "id": "1152483678"
  },
  {
    "city": "Punta Arenas",
    "city_ascii": "Punta Arenas",
    "lat": "-53.1667",
    "lng": "-70.9333",
    "country": "Chile",
    "iso2": "CL",
    "iso3": "CHL",
    "admin_name": "Magallanes y de la Antártica Chilena",
    "capital": "admin",
    "population": "123403",
    "id": "1152262933"
  },
  {
    "city": "Coronel",
    "city_ascii": "Coronel",
    "lat": "-37.0167",
    "lng": "-73.2167",
    "country": "Chile",
    "iso2": "CL",
    "iso3": "CHL",
    "admin_name": "Biobío",
    "capital": "",
    "population": "116262",
    "id": "1152234834"
  },
  {
    "city": "Espejo",
    "city_ascii": "Espejo",
    "lat": "-33.5167",
    "lng": "-70.6917",
    "country": "Chile",
    "iso2": "CL",
    "iso3": "CHL",
    "admin_name": "Región Metropolitana",
    "capital": "",
    "population": "98804",
    "id": "1152487376"
  },
  {
    "city": "Alto Hospicio",
    "city_ascii": "Alto Hospicio",
    "lat": "-20.2500",
    "lng": "-70.1167",
    "country": "Chile",
    "iso2": "CL",
    "iso3": "CHL",
    "admin_name": "Tarapacá",
    "capital": "",
    "population": "108375",
    "id": "1152536354"
  },
  {
    "city": "Lo Barnechea",
    "city_ascii": "Lo Barnechea",
    "lat": "-33.3500",
    "lng": "-70.5167",
    "country": "Chile",
    "iso2": "CL",
    "iso3": "CHL",
    "admin_name": "Región Metropolitana",
    "capital": "",
    "population": "105833",
    "id": "1152490874"
  },
  {
    "city": "San Ramón",
    "city_ascii": "San Ramon",
    "lat": "-33.5333",
    "lng": "-70.6417",
    "country": "Chile",
    "iso2": "CL",
    "iso3": "CHL",
    "admin_name": "Región Metropolitana",
    "capital": "",
    "population": "94906",
    "id": "1152877656"
  },
  {
    "city": "San Joaquín",
    "city_ascii": "San Joaquin",
    "lat": "-33.4792",
    "lng": "-70.6413",
    "country": "Chile",
    "iso2": "CL",
    "iso3": "CHL",
    "admin_name": "Región Metropolitana",
    "capital": "",
    "population": "94492",
    "id": "1152095800"
  },
  {
    "city": "La Reina",
    "city_ascii": "La Reina",
    "lat": "-33.4500",
    "lng": "-70.5500",
    "country": "Chile",
    "iso2": "CL",
    "iso3": "CHL",
    "admin_name": "Región Metropolitana",
    "capital": "",
    "population": "92787",
    "id": "1152154801"
  },
  {
    "city": "Los Cerrillos",
    "city_ascii": "Los Cerrillos",
    "lat": "-33.5000",
    "lng": "-70.7167",
    "country": "Chile",
    "iso2": "CL",
    "iso3": "CHL",
    "admin_name": "Región Metropolitana",
    "capital": "",
    "population": "89520",
    "id": "1152504242"
  },
  {
    "city": "Coyhaique",
    "city_ascii": "Coyhaique",
    "lat": "-45.5667",
    "lng": "-72.0667",
    "country": "Chile",
    "iso2": "CL",
    "iso3": "CHL",
    "admin_name": "Aysén",
    "capital": "admin",
    "population": "61210",
    "id": "1152541137"
  },
  {
    "city": "Placilla de Peñuelas",
    "city_ascii": "Placilla de Penuelas",
    "lat": "-33.1156",
    "lng": "-71.5678",
    "country": "Chile",
    "iso2": "CL",
    "iso3": "CHL",
    "admin_name": "Valparaíso",
    "capital": "",
    "population": "39344",
    "id": "1152562274"
  },
  {
    "city": "Buin",
    "city_ascii": "Buin",
    "lat": "-33.7333",
    "lng": "-70.7333",
    "country": "Chile",
    "iso2": "CL",
    "iso3": "CHL",
    "admin_name": "Región Metropolitana",
    "capital": "",
    "population": "96614",
    "id": "1152114001"
  },
  {
    "city": "Peñaflor",
    "city_ascii": "Penaflor",
    "lat": "-33.6167",
    "lng": "-70.9167",
    "country": "Chile",
    "iso2": "CL",
    "iso3": "CHL",
    "admin_name": "Región Metropolitana",
    "capital": "",
    "population": "90201",
    "id": "1152857586"
  },
  {
    "city": "Chiguayante",
    "city_ascii": "Chiguayante",
    "lat": "-36.9167",
    "lng": "-73.0167",
    "country": "Chile",
    "iso2": "CL",
    "iso3": "CHL",
    "admin_name": "Biobío",
    "capital": "",
    "population": "85863",
    "id": "1152693546"
  },
  {
    "city": "San Antonio",
    "city_ascii": "San Antonio",
    "lat": "-33.5933",
    "lng": "-71.6217",
    "country": "Chile",
    "iso2": "CL",
    "iso3": "CHL",
    "admin_name": "Valparaíso",
    "capital": "minor",
    "population": "86239",
    "id": "1152830501"
  },
  {
    "city": "Padre Hurtado",
    "city_ascii": "Padre Hurtado",
    "lat": "-33.5667",
    "lng": "-70.8333",
    "country": "Chile",
    "iso2": "CL",
    "iso3": "CHL",
    "admin_name": "Región Metropolitana",
    "capital": "",
    "population": "76219",
    "id": "1152529252"
  },
  {
    "city": "Ovalle",
    "city_ascii": "Ovalle",
    "lat": "-30.6000",
    "lng": "-71.2000",
    "country": "Chile",
    "iso2": "CL",
    "iso3": "CHL",
    "admin_name": "Coquimbo",
    "capital": "minor",
    "population": "75864",
    "id": "1152767334"
  },
  {
    "city": "Linares",
    "city_ascii": "Linares",
    "lat": "-35.8500",
    "lng": "-71.6000",
    "country": "Chile",
    "iso2": "CL",
    "iso3": "CHL",
    "admin_name": "Maule",
    "capital": "minor",
    "population": "73602",
    "id": "1152783281"
  },
  {
    "city": "Quillota",
    "city_ascii": "Quillota",
    "lat": "-32.8667",
    "lng": "-71.2500",
    "country": "Chile",
    "iso2": "CL",
    "iso3": "CHL",
    "admin_name": "Valparaíso",
    "capital": "minor",
    "population": "73261",
    "id": "1152185579"
  },
  {
    "city": "Padre Las Casas",
    "city_ascii": "Padre Las Casas",
    "lat": "-38.7667",
    "lng": "-72.6000",
    "country": "Chile",
    "iso2": "CL",
    "iso3": "CHL",
    "admin_name": "Araucanía",
    "capital": "",
    "population": "72892",
    "id": "1152058226"
  },
  {
    "city": "San Felipe",
    "city_ascii": "San Felipe",
    "lat": "-32.7500",
    "lng": "-70.7239",
    "country": "Chile",
    "iso2": "CL",
    "iso3": "CHL",
    "admin_name": "Valparaíso",
    "capital": "minor",
    "population": "64120",
    "id": "1152329463"
  },
  {
    "city": "Los Andes",
    "city_ascii": "Los Andes",
    "lat": "-32.8333",
    "lng": "-70.6167",
    "country": "Chile",
    "iso2": "CL",
    "iso3": "CHL",
    "admin_name": "Valparaíso",
    "capital": "minor",
    "population": "59388",
    "id": "1152833598"
  },
  {
    "city": "San Fernando",
    "city_ascii": "San Fernando",
    "lat": "-34.5833",
    "lng": "-70.9833",
    "country": "Chile",
    "iso2": "CL",
    "iso3": "CHL",
    "admin_name": "Libertador General Bernardo O’Higgins",
    "capital": "minor",
    "population": "58367",
    "id": "1152802349"
  },
  {
    "city": "Talagante",
    "city_ascii": "Talagante",
    "lat": "-33.6667",
    "lng": "-70.8667",
    "country": "Chile",
    "iso2": "CL",
    "iso3": "CHL",
    "admin_name": "Región Metropolitana",
    "capital": "minor",
    "population": "56990",
    "id": "1152696612"
  },
  {
    "city": "Rengo",
    "city_ascii": "Rengo",
    "lat": "-34.4167",
    "lng": "-70.8667",
    "country": "Chile",
    "iso2": "CL",
    "iso3": "CHL",
    "admin_name": "Libertador General Bernardo O’Higgins",
    "capital": "",
    "population": "55757",
    "id": "1152408592"
  },
  {
    "city": "Villarrica",
    "city_ascii": "Villarrica",
    "lat": "-39.2667",
    "lng": "-72.2167",
    "country": "Chile",
    "iso2": "CL",
    "iso3": "CHL",
    "admin_name": "Araucanía",
    "capital": "",
    "population": "55478",
    "id": "1152280288"
  },
  {
    "city": "La Calera",
    "city_ascii": "La Calera",
    "lat": "-32.7867",
    "lng": "-71.1972",
    "country": "Chile",
    "iso2": "CL",
    "iso3": "CHL",
    "admin_name": "Valparaíso",
    "capital": "",
    "population": "50554",
    "id": "1152388166"
  },
  {
    "city": "Paine",
    "city_ascii": "Paine",
    "lat": "-33.8167",
    "lng": "-70.7500",
    "country": "Chile",
    "iso2": "CL",
    "iso3": "CHL",
    "admin_name": "Región Metropolitana",
    "capital": "",
    "population": "50028",
    "id": "1152629158"
  },
  {
    "city": "Angol",
    "city_ascii": "Angol",
    "lat": "-37.8000",
    "lng": "-72.7167",
    "country": "Chile",
    "iso2": "CL",
    "iso3": "CHL",
    "admin_name": "Araucanía",
    "capital": "minor",
    "population": "48608",
    "id": "1152404762"
  },
  {
    "city": "Penco",
    "city_ascii": "Penco",
    "lat": "-36.7333",
    "lng": "-72.9833",
    "country": "Chile",
    "iso2": "CL",
    "iso3": "CHL",
    "admin_name": "Biobío",
    "capital": "",
    "population": "47367",
    "id": "1152993969"
  },
  {
    "city": "Vallenar",
    "city_ascii": "Vallenar",
    "lat": "-28.5708",
    "lng": "-70.7581",
    "country": "Chile",
    "iso2": "CL",
    "iso3": "CHL",
    "admin_name": "Atacama",
    "capital": "minor",
    "population": "45298",
    "id": "1152000009"
  },
  {
    "city": "San Vicente de Tagua Tagua",
    "city_ascii": "San Vicente de Tagua Tagua",
    "lat": "-34.4394",
    "lng": "-71.0761",
    "country": "Chile",
    "iso2": "CL",
    "iso3": "CHL",
    "admin_name": "Libertador General Bernardo O’Higgins",
    "capital": "",
    "population": "44046",
    "id": "1152003173"
  },
  {
    "city": "Limache",
    "city_ascii": "Limache",
    "lat": "-33.0167",
    "lng": "-71.2667",
    "country": "Chile",
    "iso2": "CL",
    "iso3": "CHL",
    "admin_name": "Valparaíso",
    "capital": "",
    "population": "43999",
    "id": "1152056672"
  },
  {
    "city": "Lota",
    "city_ascii": "Lota",
    "lat": "-37.0833",
    "lng": "-73.1667",
    "country": "Chile",
    "iso2": "CL",
    "iso3": "CHL",
    "admin_name": "Biobío",
    "capital": "",
    "population": "43272",
    "id": "1152978276"
  },
  {
    "city": "San Clemente",
    "city_ascii": "San Clemente",
    "lat": "-35.5500",
    "lng": "-71.4833",
    "country": "Chile",
    "iso2": "CL",
    "iso3": "CHL",
    "admin_name": "Maule",
    "capital": "",
    "population": "43269",
    "id": "1152025924"
  },
  {
    "city": "Machalí",
    "city_ascii": "Machali",
    "lat": "-34.1825",
    "lng": "-70.6514",
    "country": "Chile",
    "iso2": "CL",
    "iso3": "CHL",
    "admin_name": "Libertador General Bernardo O’Higgins",
    "capital": "",
    "population": "42572",
    "id": "1152901401"
  },
  {
    "city": "Alerce",
    "city_ascii": "Alerce",
    "lat": "-41.4000",
    "lng": "-72.9333",
    "country": "Chile",
    "iso2": "CL",
    "iso3": "CHL",
    "admin_name": "Los Lagos",
    "capital": "",
    "population": "42267",
    "id": "1152663651"
  },
  {
    "city": "Tomé",
    "city_ascii": "Tome",
    "lat": "-36.6167",
    "lng": "-72.9500",
    "country": "Chile",
    "iso2": "CL",
    "iso3": "CHL",
    "admin_name": "Biobío",
    "capital": "",
    "population": "42312",
    "id": "1152166653"
  },
  {
    "city": "Constitución",
    "city_ascii": "Constitucion",
    "lat": "-35.3333",
    "lng": "-72.4167",
    "country": "Chile",
    "iso2": "CL",
    "iso3": "CHL",
    "admin_name": "Maule",
    "capital": "",
    "population": "41207",
    "id": "1152065066"
  },
  {
    "city": "Cauquenes",
    "city_ascii": "Cauquenes",
    "lat": "-35.9667",
    "lng": "-72.3500",
    "country": "Chile",
    "iso2": "CL",
    "iso3": "CHL",
    "admin_name": "Maule",
    "capital": "minor",
    "population": "40441",
    "id": "1152787999"
  },
  {
    "city": "Molina",
    "city_ascii": "Molina",
    "lat": "-35.1144",
    "lng": "-71.2825",
    "country": "Chile",
    "iso2": "CL",
    "iso3": "CHL",
    "admin_name": "Maule",
    "capital": "",
    "population": "40329",
    "id": "1152236505"
  },
  {
    "city": "Parral",
    "city_ascii": "Parral",
    "lat": "-36.1500",
    "lng": "-71.8333",
    "country": "Chile",
    "iso2": "CL",
    "iso3": "CHL",
    "admin_name": "Maule",
    "capital": "",
    "population": "39404",
    "id": "1152767087"
  },
  {
    "city": "Ancud",
    "city_ascii": "Ancud",
    "lat": "-41.8667",
    "lng": "-73.8333",
    "country": "Chile",
    "iso2": "CL",
    "iso3": "CHL",
    "admin_name": "Los Lagos",
    "capital": "",
    "population": "38991",
    "id": "1152760614"
  },
  {
    "city": "Maule",
    "city_ascii": "Maule",
    "lat": "-35.5333",
    "lng": "-71.7000",
    "country": "Chile",
    "iso2": "CL",
    "iso3": "CHL",
    "admin_name": "Maule",
    "capital": "",
    "population": "38270",
    "id": "1152958152"
  },
  {
    "city": "Lampa",
    "city_ascii": "Lampa",
    "lat": "-33.2833",
    "lng": "-70.9000",
    "country": "Chile",
    "iso2": "CL",
    "iso3": "CHL",
    "admin_name": "Región Metropolitana",
    "capital": "",
    "population": "37599",
    "id": "1152360918"
  },
  {
    "city": "Isla de Maipo",
    "city_ascii": "Isla de Maipo",
    "lat": "-33.7500",
    "lng": "-70.9000",
    "country": "Chile",
    "iso2": "CL",
    "iso3": "CHL",
    "admin_name": "Región Metropolitana",
    "capital": "",
    "population": "36219",
    "id": "1152656260"
  },
  {
    "city": "Santa Cruz",
    "city_ascii": "Santa Cruz",
    "lat": "-34.6372",
    "lng": "-71.3631",
    "country": "Chile",
    "iso2": "CL",
    "iso3": "CHL",
    "admin_name": "Libertador General Bernardo O’Higgins",
    "capital": "",
    "population": "34914",
    "id": "1152821821"
  },
  {
    "city": "Victoria",
    "city_ascii": "Victoria",
    "lat": "-38.2333",
    "lng": "-72.3333",
    "country": "Chile",
    "iso2": "CL",
    "iso3": "CHL",
    "admin_name": "Araucanía",
    "capital": "",
    "population": "34890",
    "id": "1152078114"
  },
  {
    "city": "Cañete",
    "city_ascii": "Canete",
    "lat": "-37.7994",
    "lng": "-73.3953",
    "country": "Chile",
    "iso2": "CL",
    "iso3": "CHL",
    "admin_name": "Biobío",
    "capital": "",
    "population": "34537",
    "id": "1152180527"
  },
  {
    "city": "Lautaro",
    "city_ascii": "Lautaro",
    "lat": "-38.5167",
    "lng": "-72.4500",
    "country": "Chile",
    "iso2": "CL",
    "iso3": "CHL",
    "admin_name": "Araucanía",
    "capital": "",
    "population": "34268",
    "id": "1152700530"
  },
  {
    "city": "Castro",
    "city_ascii": "Castro",
    "lat": "-42.4667",
    "lng": "-73.8000",
    "country": "Chile",
    "iso2": "CL",
    "iso3": "CHL",
    "admin_name": "Los Lagos",
    "capital": "minor",
    "population": "33417",
    "id": "1152445107"
  },
  {
    "city": "Chimbarongo",
    "city_ascii": "Chimbarongo",
    "lat": "-34.7089",
    "lng": "-71.0431",
    "country": "Chile",
    "iso2": "CL",
    "iso3": "CHL",
    "admin_name": "Libertador General Bernardo O’Higgins",
    "capital": "",
    "population": "33446",
    "id": "1152212161"
  },
  {
    "city": "Concón",
    "city_ascii": "Concon",
    "lat": "-32.9167",
    "lng": "-71.5167",
    "country": "Chile",
    "iso2": "CL",
    "iso3": "CHL",
    "admin_name": "Valparaíso",
    "capital": "",
    "population": "32273",
    "id": "1152523682"
  },
  {
    "city": "Curanilahue",
    "city_ascii": "Curanilahue",
    "lat": "-37.4764",
    "lng": "-73.3444",
    "country": "Chile",
    "iso2": "CL",
    "iso3": "CHL",
    "admin_name": "Biobío",
    "capital": "",
    "population": "32288",
    "id": "1152226096"
  },
  {
    "city": "Quintero",
    "city_ascii": "Quintero",
    "lat": "-32.7833",
    "lng": "-71.5333",
    "country": "Chile",
    "iso2": "CL",
    "iso3": "CHL",
    "admin_name": "Valparaíso",
    "capital": "",
    "population": "31923",
    "id": "1152270732"
  },
  {
    "city": "Nueva Imperial",
    "city_ascii": "Nueva Imperial",
    "lat": "-38.7433",
    "lng": "-72.9500",
    "country": "Chile",
    "iso2": "CL",
    "iso3": "CHL",
    "admin_name": "Araucanía",
    "capital": "",
    "population": "31632",
    "id": "1152277064"
  },
  {
    "city": "Graneros",
    "city_ascii": "Graneros",
    "lat": "-34.0647",
    "lng": "-70.7264",
    "country": "Chile",
    "iso2": "CL",
    "iso3": "CHL",
    "admin_name": "Libertador General Bernardo O’Higgins",
    "capital": "",
    "population": "30320",
    "id": "1152651446"
  },
  {
    "city": "San Javier",
    "city_ascii": "San Javier",
    "lat": "-35.5924",
    "lng": "-71.7353",
    "country": "Chile",
    "iso2": "CL",
    "iso3": "CHL",
    "admin_name": "Maule",
    "capital": "",
    "population": "29017",
    "id": "1152644283"
  },
  {
    "city": "Pucón",
    "city_ascii": "Pucon",
    "lat": "-39.2767",
    "lng": "-71.9744",
    "country": "Chile",
    "iso2": "CL",
    "iso3": "CHL",
    "admin_name": "Araucanía",
    "capital": "",
    "population": "28923",
    "id": "1152377330"
  },
  {
    "city": "Longaví",
    "city_ascii": "Longavi",
    "lat": "-35.9667",
    "lng": "-71.6833",
    "country": "Chile",
    "iso2": "CL",
    "iso3": "CHL",
    "admin_name": "Maule",
    "capital": "",
    "population": "28499",
    "id": "1152122275"
  },
  {
    "city": "Cabrero",
    "city_ascii": "Cabrero",
    "lat": "-37.0333",
    "lng": "-72.4000",
    "country": "Chile",
    "iso2": "CL",
    "iso3": "CHL",
    "admin_name": "Biobío",
    "capital": "",
    "population": "27595",
    "id": "1152020950"
  },
  {
    "city": "Mulchén",
    "city_ascii": "Mulchen",
    "lat": "-37.7167",
    "lng": "-72.2333",
    "country": "Chile",
    "iso2": "CL",
    "iso3": "CHL",
    "admin_name": "Biobío",
    "capital": "",
    "population": "27557",
    "id": "1152030121"
  },
  {
    "city": "Teno",
    "city_ascii": "Teno",
    "lat": "-34.8667",
    "lng": "-71.1833",
    "country": "Chile",
    "iso2": "CL",
    "iso3": "CHL",
    "admin_name": "Maule",
    "capital": "",
    "population": "27532",
    "id": "1152981256"
  },
  {
    "city": "Chillán Viejo",
    "city_ascii": "Chillan Viejo",
    "lat": "-36.6229",
    "lng": "-72.1317",
    "country": "Chile",
    "iso2": "CL",
    "iso3": "CHL",
    "admin_name": "Ñuble",
    "capital": "",
    "population": "27359",
    "id": "1152645198"
  },
  {
    "city": "La Unión",
    "city_ascii": "La Union",
    "lat": "-40.2833",
    "lng": "-73.0833",
    "country": "Chile",
    "iso2": "CL",
    "iso3": "CHL",
    "admin_name": "Los Ríos",
    "capital": "minor",
    "population": "26517",
    "id": "1152649834"
  },
  {
    "city": "Nacimiento",
    "city_ascii": "Nacimiento",
    "lat": "-37.5000",
    "lng": "-72.6667",
    "country": "Chile",
    "iso2": "CL",
    "iso3": "CHL",
    "admin_name": "Biobío",
    "capital": "",
    "population": "26523",
    "id": "1152525394"
  },
  {
    "city": "El Monte",
    "city_ascii": "El Monte",
    "lat": "-33.6833",
    "lng": "-71.0167",
    "country": "Chile",
    "iso2": "CL",
    "iso3": "CHL",
    "admin_name": "Región Metropolitana",
    "capital": "",
    "population": "26459",
    "id": "1152684387"
  },
  {
    "city": "Puerto Varas",
    "city_ascii": "Puerto Varas",
    "lat": "-41.3167",
    "lng": "-72.9833",
    "country": "Chile",
    "iso2": "CL",
    "iso3": "CHL",
    "admin_name": "Los Lagos",
    "capital": "",
    "population": "26172",
    "id": "1152560692"
  },
  {
    "city": "Requínoa",
    "city_ascii": "Requinoa",
    "lat": "-34.2786",
    "lng": "-70.8117",
    "country": "Chile",
    "iso2": "CL",
    "iso3": "CHL",
    "admin_name": "Libertador General Bernardo O’Higgins",
    "capital": "",
    "population": "26089",
    "id": "1152583421"
  },
  {
    "city": "Carahue",
    "city_ascii": "Carahue",
    "lat": "-38.7089",
    "lng": "-73.1647",
    "country": "Chile",
    "iso2": "CL",
    "iso3": "CHL",
    "admin_name": "Araucanía",
    "capital": "",
    "population": "25696",
    "id": "1152919462"
  },
  {
    "city": "Salamanca",
    "city_ascii": "Salamanca",
    "lat": "-31.7667",
    "lng": "-70.9667",
    "country": "Chile",
    "iso2": "CL",
    "iso3": "CHL",
    "admin_name": "Coquimbo",
    "capital": "",
    "population": "25326",
    "id": "1152804087"
  },
  {
    "city": "Vicuña",
    "city_ascii": "Vicuna",
    "lat": "-30.0333",
    "lng": "-70.7167",
    "country": "Chile",
    "iso2": "CL",
    "iso3": "CHL",
    "admin_name": "Coquimbo",
    "capital": "",
    "population": "25085",
    "id": "1152771899"
  },
  {
    "city": "Las Cabras",
    "city_ascii": "Las Cabras",
    "lat": "-34.2917",
    "lng": "-71.3097",
    "country": "Chile",
    "iso2": "CL",
    "iso3": "CHL",
    "admin_name": "Libertador General Bernardo O’Higgins",
    "capital": "",
    "population": "24640",
    "id": "1152883984"
  },
  {
    "city": "Tocopilla",
    "city_ascii": "Tocopilla",
    "lat": "-22.0964",
    "lng": "-70.2000",
    "country": "Chile",
    "iso2": "CL",
    "iso3": "CHL",
    "admin_name": "Antofagasta",
    "capital": "minor",
    "population": "24460",
    "id": "1152050254"
  },
  {
    "city": "Curacaví",
    "city_ascii": "Curacavi",
    "lat": "-33.4000",
    "lng": "-71.1500",
    "country": "Chile",
    "iso2": "CL",
    "iso3": "CHL",
    "admin_name": "Región Metropolitana",
    "capital": "",
    "population": "24298",
    "id": "1152178936"
  },
  {
    "city": "Quellón",
    "city_ascii": "Quellon",
    "lat": "-43.0992",
    "lng": "-73.5961",
    "country": "Chile",
    "iso2": "CL",
    "iso3": "CHL",
    "admin_name": "Los Lagos",
    "capital": "",
    "population": "23992",
    "id": "1152502358"
  },
  {
    "city": "Lebu",
    "city_ascii": "Lebu",
    "lat": "-37.6000",
    "lng": "-73.6667",
    "country": "Chile",
    "iso2": "CL",
    "iso3": "CHL",
    "admin_name": "Biobío",
    "capital": "minor",
    "population": "23722",
    "id": "1152064207"
  },
  {
    "city": "Collipulli",
    "city_ascii": "Collipulli",
    "lat": "-37.9500",
    "lng": "-72.4333",
    "country": "Chile",
    "iso2": "CL",
    "iso3": "CHL",
    "admin_name": "Araucanía",
    "capital": "",
    "population": "23321",
    "id": "1152908869"
  },
  {
    "city": "Cartagena",
    "city_ascii": "Cartagena",
    "lat": "-33.5425",
    "lng": "-71.5958",
    "country": "Chile",
    "iso2": "CL",
    "iso3": "CHL",
    "admin_name": "Valparaíso",
    "capital": "",
    "population": "22738",
    "id": "1152675574"
  },
  {
    "city": "Llaillay",
    "city_ascii": "Llaillay",
    "lat": "-32.8403",
    "lng": "-70.9483",
    "country": "Chile",
    "iso2": "CL",
    "iso3": "CHL",
    "admin_name": "Valparaíso",
    "capital": "",
    "population": "22659",
    "id": "1152335361"
  },
  {
    "city": "Vilcún",
    "city_ascii": "Vilcun",
    "lat": "-38.6500",
    "lng": "-72.2333",
    "country": "Chile",
    "iso2": "CL",
    "iso3": "CHL",
    "admin_name": "Araucanía",
    "capital": "",
    "population": "22499",
    "id": "1152236518"
  },
  {
    "city": "La Cruz",
    "city_ascii": "La Cruz",
    "lat": "-32.8281",
    "lng": "-71.1761",
    "country": "Chile",
    "iso2": "CL",
    "iso3": "CHL",
    "admin_name": "Valparaíso",
    "capital": "",
    "population": "22098",
    "id": "1152948474"
  },
  {
    "city": "Laja",
    "city_ascii": "Laja",
    "lat": "-37.2667",
    "lng": "-72.7000",
    "country": "Chile",
    "iso2": "CL",
    "iso3": "CHL",
    "admin_name": "Biobío",
    "capital": "",
    "population": "22288",
    "id": "1152499154"
  },
  {
    "city": "Pitrufquén",
    "city_ascii": "Pitrufquen",
    "lat": "-38.9833",
    "lng": "-72.6500",
    "country": "Chile",
    "iso2": "CL",
    "iso3": "CHL",
    "admin_name": "Araucanía",
    "capital": "",
    "population": "21981",
    "id": "1152964744"
  },
  {
    "city": "Freire",
    "city_ascii": "Freire",
    "lat": "-38.9558",
    "lng": "-72.6256",
    "country": "Chile",
    "iso2": "CL",
    "iso3": "CHL",
    "admin_name": "Araucanía",
    "capital": "",
    "population": "21890",
    "id": "1152013724"
  },
  {
    "city": "Casablanca",
    "city_ascii": "Casablanca",
    "lat": "-33.3167",
    "lng": "-71.4167",
    "country": "Chile",
    "iso2": "CL",
    "iso3": "CHL",
    "admin_name": "Región Metropolitana",
    "capital": "",
    "population": "21874",
    "id": "1152471983"
  },
  {
    "city": "Nogales",
    "city_ascii": "Nogales",
    "lat": "-32.7350",
    "lng": "-71.2025",
    "country": "Chile",
    "iso2": "CL",
    "iso3": "CHL",
    "admin_name": "Valparaíso",
    "capital": "",
    "population": "21856",
    "id": "1152042866"
  },
  {
    "city": "Puerto Natales",
    "city_ascii": "Puerto Natales",
    "lat": "-51.7333",
    "lng": "-72.5167",
    "country": "Chile",
    "iso2": "CL",
    "iso3": "CHL",
    "admin_name": "Magallanes y de la Antártica Chilena",
    "capital": "minor",
    "population": "21477",
    "id": "1152225106"
  },
  {
    "city": "Loncoche",
    "city_ascii": "Loncoche",
    "lat": "-39.3667",
    "lng": "-72.6333",
    "country": "Chile",
    "iso2": "CL",
    "iso3": "CHL",
    "admin_name": "Araucanía",
    "capital": "",
    "population": "21458",
    "id": "1152864736"
  },
  {
    "city": "Los Vilos",
    "city_ascii": "Los Vilos",
    "lat": "-31.9167",
    "lng": "-71.5167",
    "country": "Chile",
    "iso2": "CL",
    "iso3": "CHL",
    "admin_name": "Coquimbo",
    "capital": "",
    "population": "21382",
    "id": "1152593219"
  },
  {
    "city": "Hualqui",
    "city_ascii": "Hualqui",
    "lat": "-36.9600",
    "lng": "-72.9300",
    "country": "Chile",
    "iso2": "CL",
    "iso3": "CHL",
    "admin_name": "Biobío",
    "capital": "",
    "population": "20968",
    "id": "1152533945"
  },
  {
    "city": "Purranque",
    "city_ascii": "Purranque",
    "lat": "-40.9167",
    "lng": "-73.1667",
    "country": "Chile",
    "iso2": "CL",
    "iso3": "CHL",
    "admin_name": "Los Lagos",
    "capital": "",
    "population": "20949",
    "id": "1152468662"
  },
  {
    "city": "Illapel",
    "city_ascii": "Illapel",
    "lat": "-31.6333",
    "lng": "-71.1667",
    "country": "Chile",
    "iso2": "CL",
    "iso3": "CHL",
    "admin_name": "Coquimbo",
    "capital": "minor",
    "population": "20751",
    "id": "1152446656"
  },
  {
    "city": "Bulnes",
    "city_ascii": "Bulnes",
    "lat": "-36.7333",
    "lng": "-72.3000",
    "country": "Chile",
    "iso2": "CL",
    "iso3": "CHL",
    "admin_name": "Ñuble",
    "capital": "",
    "population": "20595",
    "id": "1152653950"
  },
  {
    "city": "Yumbel",
    "city_ascii": "Yumbel",
    "lat": "-37.1333",
    "lng": "-72.5333",
    "country": "Chile",
    "iso2": "CL",
    "iso3": "CHL",
    "admin_name": "Biobío",
    "capital": "",
    "population": "20034",
    "id": "1152526139"
  },
  {
    "city": "Pichidegua",
    "city_ascii": "Pichidegua",
    "lat": "-34.3586",
    "lng": "-71.2831",
    "country": "Chile",
    "iso2": "CL",
    "iso3": "CHL",
    "admin_name": "Libertador General Bernardo O’Higgins",
    "capital": "",
    "population": "19714",
    "id": "1152025661"
  },
  {
    "city": "Los Álamos",
    "city_ascii": "Los Alamos",
    "lat": "-37.6272",
    "lng": "-73.4619",
    "country": "Chile",
    "iso2": "CL",
    "iso3": "CHL",
    "admin_name": "Biobío",
    "capital": "",
    "population": "19494",
    "id": "1152738427"
  },
  {
    "city": "Frutillar Alto",
    "city_ascii": "Frutillar Alto",
    "lat": "-41.1228",
    "lng": "-73.0581",
    "country": "Chile",
    "iso2": "CL",
    "iso3": "CHL",
    "admin_name": "Los Lagos",
    "capital": "",
    "population": "19400",
    "id": "1152452605"
  },
  {
    "city": "Cabildo",
    "city_ascii": "Cabildo",
    "lat": "-32.4275",
    "lng": "-71.0664",
    "country": "Chile",
    "iso2": "CL",
    "iso3": "CHL",
    "admin_name": "Valparaíso",
    "capital": "",
    "population": "19388",
    "id": "1152995057"
  },
  {
    "city": "La Ligua",
    "city_ascii": "La Ligua",
    "lat": "-32.4500",
    "lng": "-71.2167",
    "country": "Chile",
    "iso2": "CL",
    "iso3": "CHL",
    "admin_name": "Valparaíso",
    "capital": "minor",
    "population": "19127",
    "id": "1152826056"
  },
  {
    "city": "Paillaco",
    "city_ascii": "Paillaco",
    "lat": "-40.0667",
    "lng": "-72.8833",
    "country": "Chile",
    "iso2": "CL",
    "iso3": "CHL",
    "admin_name": "Los Ríos",
    "capital": "",
    "population": "19088",
    "id": "1152131985"
  },
  {
    "city": "Doñihue",
    "city_ascii": "Donihue",
    "lat": "-34.2261",
    "lng": "-70.9650",
    "country": "Chile",
    "iso2": "CL",
    "iso3": "CHL",
    "admin_name": "Libertador General Bernardo O’Higgins",
    "capital": "",
    "population": "18764",
    "id": "1152472682"
  },
  {
    "city": "Retiro",
    "city_ascii": "Retiro",
    "lat": "-36.0333",
    "lng": "-71.7667",
    "country": "Chile",
    "iso2": "CL",
    "iso3": "CHL",
    "admin_name": "Maule",
    "capital": "",
    "population": "18754",
    "id": "1152001329"
  },
  {
    "city": "Los Lagos",
    "city_ascii": "Los Lagos",
    "lat": "-39.8500",
    "lng": "-72.8333",
    "country": "Chile",
    "iso2": "CL",
    "iso3": "CHL",
    "admin_name": "Los Ríos",
    "capital": "",
    "population": "18733",
    "id": "1152340454"
  },
  {
    "city": "Calera de Tango",
    "city_ascii": "Calera de Tango",
    "lat": "-33.6302",
    "lng": "-70.7616",
    "country": "Chile",
    "iso2": "CL",
    "iso3": "CHL",
    "admin_name": "Región Metropolitana",
    "capital": "",
    "population": "18235",
    "id": "1152670034"
  },
  {
    "city": "Hijuelas",
    "city_ascii": "Hijuelas",
    "lat": "-32.7986",
    "lng": "-71.1439",
    "country": "Chile",
    "iso2": "CL",
    "iso3": "CHL",
    "admin_name": "Valparaíso",
    "capital": "",
    "population": "17988",
    "id": "1152290187"
  },
  {
    "city": "Coltauco",
    "city_ascii": "Coltauco",
    "lat": "-34.3000",
    "lng": "-71.1000",
    "country": "Chile",
    "iso2": "CL",
    "iso3": "CHL",
    "admin_name": "Libertador General Bernardo O’Higgins",
    "capital": "",
    "population": "17918",
    "id": "1152000004"
  },
  {
    "city": "Arauco",
    "city_ascii": "Arauco",
    "lat": "-37.2500",
    "lng": "-73.3167",
    "country": "Chile",
    "iso2": "CL",
    "iso3": "CHL",
    "admin_name": "Biobío",
    "capital": "",
    "population": "17597",
    "id": "1152468620"
  },
  {
    "city": "Colbún",
    "city_ascii": "Colbun",
    "lat": "-35.7000",
    "lng": "-71.4167",
    "country": "Chile",
    "iso2": "CL",
    "iso3": "CHL",
    "admin_name": "Maule",
    "capital": "",
    "population": "17619",
    "id": "1152103340"
  },
  {
    "city": "Sagrada Familia",
    "city_ascii": "Sagrada Familia",
    "lat": "-35.0000",
    "lng": "-71.3833",
    "country": "Chile",
    "iso2": "CL",
    "iso3": "CHL",
    "admin_name": "Maule",
    "capital": "",
    "population": "17569",
    "id": "1152799480"
  },
  {
    "city": "Puerto Aysén",
    "city_ascii": "Puerto Aysen",
    "lat": "-45.4000",
    "lng": "-72.6833",
    "country": "Chile",
    "iso2": "CL",
    "iso3": "CHL",
    "admin_name": "Aysén",
    "capital": "minor",
    "population": "17441",
    "id": "1152158570"
  },
  {
    "city": "Traiguén",
    "city_ascii": "Traiguen",
    "lat": "-38.2500",
    "lng": "-72.6833",
    "country": "Chile",
    "iso2": "CL",
    "iso3": "CHL",
    "admin_name": "Araucanía",
    "capital": "",
    "population": "17164",
    "id": "1152501347"
  },
  {
    "city": "San Esteban",
    "city_ascii": "San Esteban",
    "lat": "-32.7992",
    "lng": "-70.5803",
    "country": "Chile",
    "iso2": "CL",
    "iso3": "CHL",
    "admin_name": "Valparaíso",
    "capital": "",
    "population": "17090",
    "id": "1152059779"
  },
  {
    "city": "Batuco",
    "city_ascii": "Batuco",
    "lat": "-33.2308",
    "lng": "-70.8089",
    "country": "Chile",
    "iso2": "CL",
    "iso3": "CHL",
    "admin_name": "Región Metropolitana",
    "capital": "",
    "population": "16784",
    "id": "1152375054"
  },
  {
    "city": "Río Bueno",
    "city_ascii": "Rio Bueno",
    "lat": "-40.3167",
    "lng": "-72.9667",
    "country": "Chile",
    "iso2": "CL",
    "iso3": "CHL",
    "admin_name": "Los Ríos",
    "capital": "",
    "population": "16909",
    "id": "1152938619"
  },
  {
    "city": "Yerbas Buenas",
    "city_ascii": "Yerbas Buenas",
    "lat": "-35.7500",
    "lng": "-71.5667",
    "country": "Chile",
    "iso2": "CL",
    "iso3": "CHL",
    "admin_name": "Maule",
    "capital": "",
    "population": "16738",
    "id": "1152448482"
  },
  {
    "city": "Pirque",
    "city_ascii": "Pirque",
    "lat": "-33.6333",
    "lng": "-70.5500",
    "country": "Chile",
    "iso2": "CL",
    "iso3": "CHL",
    "admin_name": "Región Metropolitana",
    "capital": "",
    "population": "16565",
    "id": "1152296541"
  },
  {
    "city": "Curacautín",
    "city_ascii": "Curacautin",
    "lat": "-38.4333",
    "lng": "-71.8833",
    "country": "Chile",
    "iso2": "CL",
    "iso3": "CHL",
    "admin_name": "Araucanía",
    "capital": "",
    "population": "16418",
    "id": "1152761176"
  },
  {
    "city": "Llanquihue",
    "city_ascii": "Llanquihue",
    "lat": "-41.2581",
    "lng": "-73.0086",
    "country": "Chile",
    "iso2": "CL",
    "iso3": "CHL",
    "admin_name": "Los Lagos",
    "capital": "",
    "population": "16249",
    "id": "1152498352"
  },
  {
    "city": "Caldera",
    "city_ascii": "Caldera",
    "lat": "-27.0667",
    "lng": "-70.8333",
    "country": "Chile",
    "iso2": "CL",
    "iso3": "CHL",
    "admin_name": "Atacama",
    "capital": "",
    "population": "16150",
    "id": "1152916235"
  },
  {
    "city": "Los Muermos",
    "city_ascii": "Los Muermos",
    "lat": "-41.4000",
    "lng": "-73.4833",
    "country": "Chile",
    "iso2": "CL",
    "iso3": "CHL",
    "admin_name": "Los Lagos",
    "capital": "",
    "population": "16132",
    "id": "1152894778"
  },
  {
    "city": "Calbuco",
    "city_ascii": "Calbuco",
    "lat": "-41.7667",
    "lng": "-73.1333",
    "country": "Chile",
    "iso2": "CL",
    "iso3": "CHL",
    "admin_name": "Los Lagos",
    "capital": "",
    "population": "15903",
    "id": "1152875669"
  },
  {
    "city": "Coelemu",
    "city_ascii": "Coelemu",
    "lat": "-36.4878",
    "lng": "-72.7028",
    "country": "Chile",
    "iso2": "CL",
    "iso3": "CHL",
    "admin_name": "Ñuble",
    "capital": "",
    "population": "15711",
    "id": "1152096905"
  },
  {
    "city": "Cunco",
    "city_ascii": "Cunco",
    "lat": "-38.9167",
    "lng": "-72.0333",
    "country": "Chile",
    "iso2": "CL",
    "iso3": "CHL",
    "admin_name": "Araucanía",
    "capital": "",
    "population": "15628",
    "id": "1152535744"
  },
  {
    "city": "Olmué",
    "city_ascii": "Olmue",
    "lat": "-32.9953",
    "lng": "-71.1856",
    "country": "Chile",
    "iso2": "CL",
    "iso3": "CHL",
    "admin_name": "Valparaíso",
    "capital": "",
    "population": "15611",
    "id": "1152762974"
  },
  {
    "city": "Maullín",
    "city_ascii": "Maullin",
    "lat": "-41.6167",
    "lng": "-73.6000",
    "country": "Chile",
    "iso2": "CL",
    "iso3": "CHL",
    "admin_name": "Los Lagos",
    "capital": "",
    "population": "15580",
    "id": "1152172124"
  },
  {
    "city": "Teodoro Schmidt",
    "city_ascii": "Teodoro Schmidt",
    "lat": "-38.9949",
    "lng": "-73.0894",
    "country": "Chile",
    "iso2": "CL",
    "iso3": "CHL",
    "admin_name": "Araucanía",
    "capital": "",
    "population": "15504",
    "id": "1152001741"
  },
  {
    "city": "Nancagua",
    "city_ascii": "Nancagua",
    "lat": "-34.6667",
    "lng": "-71.2167",
    "country": "Chile",
    "iso2": "CL",
    "iso3": "CHL",
    "admin_name": "Libertador General Bernardo O’Higgins",
    "capital": "",
    "population": "15409",
    "id": "1152511353"
  },
  {
    "city": "Putaendo",
    "city_ascii": "Putaendo",
    "lat": "-32.6278",
    "lng": "-70.7167",
    "country": "Chile",
    "iso2": "CL",
    "iso3": "CHL",
    "admin_name": "Valparaíso",
    "capital": "",
    "population": "15361",
    "id": "1152325898"
  },
  {
    "city": "Bellavista",
    "city_ascii": "Bellavista",
    "lat": "-34.9333",
    "lng": "-71.3167",
    "country": "Chile",
    "iso2": "CL",
    "iso3": "CHL",
    "admin_name": "Maule",
    "capital": "",
    "population": "15187",
    "id": "1152249017"
  },
  {
    "city": "Chépica",
    "city_ascii": "Chepica",
    "lat": "-34.7333",
    "lng": "-71.2833",
    "country": "Chile",
    "iso2": "CL",
    "iso3": "CHL",
    "admin_name": "Libertador General Bernardo O’Higgins",
    "capital": "",
    "population": "15037",
    "id": "1152611232"
  },
  {
    "city": "Tiltil",
    "city_ascii": "Tiltil",
    "lat": "-33.0817",
    "lng": "-70.9278",
    "country": "Chile",
    "iso2": "CL",
    "iso3": "CHL",
    "admin_name": "Región Metropolitana",
    "capital": "",
    "population": "14755",
    "id": "1152063956"
  },
  {
    "city": "Río Negro",
    "city_ascii": "Rio Negro",
    "lat": "-40.7833",
    "lng": "-73.2000",
    "country": "Chile",
    "iso2": "CL",
    "iso3": "CHL",
    "admin_name": "Los Lagos",
    "capital": "",
    "population": "14732",
    "id": "1152537804"
  },
  {
    "city": "Villa Alegre",
    "city_ascii": "Villa Alegre",
    "lat": "-35.6667",
    "lng": "-71.7500",
    "country": "Chile",
    "iso2": "CL",
    "iso3": "CHL",
    "admin_name": "Maule",
    "capital": "",
    "population": "14695",
    "id": "1152729852"
  },
  {
    "city": "Santa María",
    "city_ascii": "Santa Maria",
    "lat": "-32.7469",
    "lng": "-70.6597",
    "country": "Chile",
    "iso2": "CL",
    "iso3": "CHL",
    "admin_name": "Valparaíso",
    "capital": "",
    "population": "14452",
    "id": "1152248168"
  },
  {
    "city": "Peumo",
    "city_ascii": "Peumo",
    "lat": "-34.3961",
    "lng": "-71.1694",
    "country": "Chile",
    "iso2": "CL",
    "iso3": "CHL",
    "admin_name": "Libertador General Bernardo O’Higgins",
    "capital": "",
    "population": "14313",
    "id": "1152229023"
  },
  {
    "city": "Tierra Amarilla",
    "city_ascii": "Tierra Amarilla",
    "lat": "-27.4822",
    "lng": "-70.2658",
    "country": "Chile",
    "iso2": "CL",
    "iso3": "CHL",
    "admin_name": "Atacama",
    "capital": "",
    "population": "14019",
    "id": "1152576362"
  },
  {
    "city": "Gorbea",
    "city_ascii": "Gorbea",
    "lat": "-39.1000",
    "lng": "-72.6833",
    "country": "Chile",
    "iso2": "CL",
    "iso3": "CHL",
    "admin_name": "Araucanía",
    "capital": "",
    "population": "13990",
    "id": "1152299665"
  },
  {
    "city": "Diego de Almagro",
    "city_ascii": "Diego de Almagro",
    "lat": "-26.3911",
    "lng": "-70.0458",
    "country": "Chile",
    "iso2": "CL",
    "iso3": "CHL",
    "admin_name": "Atacama",
    "capital": "",
    "population": "13925",
    "id": "1152585849"
  },
  {
    "city": "Futrono",
    "city_ascii": "Futrono",
    "lat": "-40.1333",
    "lng": "-72.4000",
    "country": "Chile",
    "iso2": "CL",
    "iso3": "CHL",
    "admin_name": "Los Ríos",
    "capital": "",
    "population": "13736",
    "id": "1152738108"
  },
  {
    "city": "Combarbalá",
    "city_ascii": "Combarbala",
    "lat": "-31.1833",
    "lng": "-71.0000",
    "country": "Chile",
    "iso2": "CL",
    "iso3": "CHL",
    "admin_name": "Coquimbo",
    "capital": "",
    "population": "13605",
    "id": "1152896722"
  },
  {
    "city": "Chañaral",
    "city_ascii": "Chanaral",
    "lat": "-26.3444",
    "lng": "-70.6219",
    "country": "Chile",
    "iso2": "CL",
    "iso3": "CHL",
    "admin_name": "Atacama",
    "capital": "minor",
    "population": "13543",
    "id": "1152993625"
  },
  {
    "city": "Tucapel",
    "city_ascii": "Tucapel",
    "lat": "-37.2833",
    "lng": "-71.9500",
    "country": "Chile",
    "iso2": "CL",
    "iso3": "CHL",
    "admin_name": "Biobío",
    "capital": "",
    "population": "13427",
    "id": "1152537993"
  },
  {
    "city": "El Tabo",
    "city_ascii": "El Tabo",
    "lat": "-33.4586",
    "lng": "-71.6619",
    "country": "Chile",
    "iso2": "CL",
    "iso3": "CHL",
    "admin_name": "Valparaíso",
    "capital": "",
    "population": "13286",
    "id": "1152719676"
  },
  {
    "city": "Santa Bárbara",
    "city_ascii": "Santa Barbara",
    "lat": "-37.6706",
    "lng": "-72.0214",
    "country": "Chile",
    "iso2": "CL",
    "iso3": "CHL",
    "admin_name": "Biobío",
    "capital": "",
    "population": "13405",
    "id": "1152827647"
  },
  {
    "city": "Calle Larga",
    "city_ascii": "Calle Larga",
    "lat": "-32.8831",
    "lng": "-70.6486",
    "country": "Chile",
    "iso2": "CL",
    "iso3": "CHL",
    "admin_name": "Valparaíso",
    "capital": "",
    "population": "13366",
    "id": "1152509615"
  },
  {
    "city": "San José de Maipo",
    "city_ascii": "San Jose de Maipo",
    "lat": "-33.6833",
    "lng": "-70.3333",
    "country": "Chile",
    "iso2": "CL",
    "iso3": "CHL",
    "admin_name": "Región Metropolitana",
    "capital": "",
    "population": "13376",
    "id": "1152128380"
  },
  {
    "city": "Olivar Bajo",
    "city_ascii": "Olivar Bajo",
    "lat": "-34.2330",
    "lng": "-70.8830",
    "country": "Chile",
    "iso2": "CL",
    "iso3": "CHL",
    "admin_name": "Libertador General Bernardo O’Higgins",
    "capital": "",
    "population": "13033",
    "id": "1152427692"
  },
  {
    "city": "Frutillar",
    "city_ascii": "Frutillar",
    "lat": "-41.1258",
    "lng": "-73.0605",
    "country": "Chile",
    "iso2": "CL",
    "iso3": "CHL",
    "admin_name": "Los Lagos",
    "capital": "",
    "population": "12876",
    "id": "1152151773"
  },
  {
    "city": "Purén",
    "city_ascii": "Puren",
    "lat": "-38.0319",
    "lng": "-73.0728",
    "country": "Chile",
    "iso2": "CL",
    "iso3": "CHL",
    "admin_name": "Araucanía",
    "capital": "",
    "population": "12868",
    "id": "1152043737"
  },
  {
    "city": "Pichilemu",
    "city_ascii": "Pichilemu",
    "lat": "-34.3919",
    "lng": "-72.0139",
    "country": "Chile",
    "iso2": "CL",
    "iso3": "CHL",
    "admin_name": "Libertador General Bernardo O’Higgins",
    "capital": "minor",
    "population": "12776",
    "id": "1152498637"
  },
  {
    "city": "San Francisco de Mostazal",
    "city_ascii": "San Francisco de Mostazal",
    "lat": "-33.9799",
    "lng": "-70.7122",
    "country": "Chile",
    "iso2": "CL",
    "iso3": "CHL",
    "admin_name": "Libertador General Bernardo O’Higgins",
    "capital": "",
    "population": "12719",
    "id": "1152382411"
  },
  {
    "city": "Quirihue",
    "city_ascii": "Quirihue",
    "lat": "-36.2833",
    "lng": "-72.5333",
    "country": "Chile",
    "iso2": "CL",
    "iso3": "CHL",
    "admin_name": "Ñuble",
    "capital": "",
    "population": "12562",
    "id": "1152146130"
  },
  {
    "city": "Codegua",
    "city_ascii": "Codegua",
    "lat": "-34.0347",
    "lng": "-70.6686",
    "country": "Chile",
    "iso2": "CL",
    "iso3": "CHL",
    "admin_name": "Libertador General Bernardo O’Higgins",
    "capital": "",
    "population": "12495",
    "id": "1152476133"
  },
  {
    "city": "Quinta de Tilcoco",
    "city_ascii": "Quinta de Tilcoco",
    "lat": "-34.3547",
    "lng": "-70.9636",
    "country": "Chile",
    "iso2": "CL",
    "iso3": "CHL",
    "admin_name": "Libertador General Bernardo O’Higgins",
    "capital": "",
    "population": "12379",
    "id": "1152072609"
  },
  {
    "city": "Rinconada de Malloa",
    "city_ascii": "Rinconada de Malloa",
    "lat": "-34.4464",
    "lng": "-70.9458",
    "country": "Chile",
    "iso2": "CL",
    "iso3": "CHL",
    "admin_name": "Libertador General Bernardo O’Higgins",
    "capital": "",
    "population": "12342",
    "id": "1152964612"
  },
  {
    "city": "Galvarino",
    "city_ascii": "Galvarino",
    "lat": "-38.4000",
    "lng": "-72.7833",
    "country": "Chile",
    "iso2": "CL",
    "iso3": "CHL",
    "admin_name": "Araucanía",
    "capital": "",
    "population": "11996",
    "id": "1152385949"
  },
  {
    "city": "Palmilla",
    "city_ascii": "Palmilla",
    "lat": "-34.6042",
    "lng": "-71.3583",
    "country": "Chile",
    "iso2": "CL",
    "iso3": "CHL",
    "admin_name": "Libertador General Bernardo O’Higgins",
    "capital": "",
    "population": "11844",
    "id": "1152157193"
  },
  {
    "city": "Lumaco",
    "city_ascii": "Lumaco",
    "lat": "-38.1500",
    "lng": "-72.9167",
    "country": "Chile",
    "iso2": "CL",
    "iso3": "CHL",
    "admin_name": "Araucanía",
    "capital": "",
    "population": "11405",
    "id": "1152525115"
  },
  {
    "city": "El Quisco",
    "city_ascii": "El Quisco",
    "lat": "-33.3913",
    "lng": "-71.6929",
    "country": "Chile",
    "iso2": "CL",
    "iso3": "CHL",
    "admin_name": "Valparaíso",
    "capital": "",
    "population": "11329",
    "id": "1152280245"
  },
  {
    "city": "Nueva Toltén",
    "city_ascii": "Nueva Tolten",
    "lat": "-39.1786",
    "lng": "-73.1656",
    "country": "Chile",
    "iso2": "CL",
    "iso3": "CHL",
    "admin_name": "Araucanía",
    "capital": "",
    "population": "11216",
    "id": "1152563189"
  },
  {
    "city": "Chicureo Abajo",
    "city_ascii": "Chicureo Abajo",
    "lat": "-33.2833",
    "lng": "-70.6333",
    "country": "Chile",
    "iso2": "CL",
    "iso3": "CHL",
    "admin_name": "Región Metropolitana",
    "capital": "",
    "population": "10975",
    "id": "1152232267"
  },
  {
    "city": "Panguipulli",
    "city_ascii": "Panguipulli",
    "lat": "-39.6444",
    "lng": "-72.3306",
    "country": "Chile",
    "iso2": "CL",
    "iso3": "CHL",
    "admin_name": "Araucanía",
    "capital": "",
    "population": "11091",
    "id": "1152158717"
  },
  {
    "city": "Andacollo",
    "city_ascii": "Andacollo",
    "lat": "-30.2303",
    "lng": "-71.0858",
    "country": "Chile",
    "iso2": "CL",
    "iso3": "CHL",
    "admin_name": "Coquimbo",
    "capital": "",
    "population": "11044",
    "id": "1152597504"
  },
  {
    "city": "Punitaqui",
    "city_ascii": "Punitaqui",
    "lat": "-30.9000",
    "lng": "-71.2667",
    "country": "Chile",
    "iso2": "CL",
    "iso3": "CHL",
    "admin_name": "Coquimbo",
    "capital": "",
    "population": "10956",
    "id": "1152111575"
  },
  {
    "city": "Yungay",
    "city_ascii": "Yungay",
    "lat": "-37.1194",
    "lng": "-72.0189",
    "country": "Chile",
    "iso2": "CL",
    "iso3": "CHL",
    "admin_name": "Ñuble",
    "capital": "",
    "population": "10884",
    "id": "1152990591"
  },
  {
    "city": "Peralillo",
    "city_ascii": "Peralillo",
    "lat": "-34.4875",
    "lng": "-71.4917",
    "country": "Chile",
    "iso2": "CL",
    "iso3": "CHL",
    "admin_name": "Libertador General Bernardo O’Higgins",
    "capital": "",
    "population": "10682",
    "id": "1152486574"
  },
  {
    "city": "Pinto",
    "city_ascii": "Pinto",
    "lat": "-36.7000",
    "lng": "-71.9000",
    "country": "Chile",
    "iso2": "CL",
    "iso3": "CHL",
    "admin_name": "Ñuble",
    "capital": "",
    "population": "10595",
    "id": "1152171336"
  },
  {
    "city": "Huachipato",
    "city_ascii": "Huachipato",
    "lat": "-36.7481",
    "lng": "-73.0986",
    "country": "Chile",
    "iso2": "CL",
    "iso3": "CHL",
    "admin_name": "Biobío",
    "capital": "",
    "population": "9665",
    "id": "1152109016"
  },
  {
    "city": "Cholchol",
    "city_ascii": "Cholchol",
    "lat": "-38.6000",
    "lng": "-72.8333",
    "country": "Chile",
    "iso2": "CL",
    "iso3": "CHL",
    "admin_name": "Araucanía",
    "capital": "",
    "population": "10382",
    "id": "1152052150"
  },
  {
    "city": "María Pinto",
    "city_ascii": "Maria Pinto",
    "lat": "-33.5167",
    "lng": "-71.1167",
    "country": "Chile",
    "iso2": "CL",
    "iso3": "CHL",
    "admin_name": "Región Metropolitana",
    "capital": "",
    "population": "10343",
    "id": "1152556156"
  },
  {
    "city": "Lonquimay",
    "city_ascii": "Lonquimay",
    "lat": "-38.4333",
    "lng": "-71.2333",
    "country": "Chile",
    "iso2": "CL",
    "iso3": "CHL",
    "admin_name": "Araucanía",
    "capital": "",
    "population": "10251",
    "id": "1152602801"
  },
  {
    "city": "Algarrobo",
    "city_ascii": "Algarrobo",
    "lat": "-33.3911",
    "lng": "-71.6928",
    "country": "Chile",
    "iso2": "CL",
    "iso3": "CHL",
    "admin_name": "Valparaíso",
    "capital": "",
    "population": "10217",
    "id": "1152829157"
  },
  {
    "city": "San Pablo",
    "city_ascii": "San Pablo",
    "lat": "-40.4000",
    "lng": "-73.0167",
    "country": "Chile",
    "iso2": "CL",
    "iso3": "CHL",
    "admin_name": "Los Lagos",
    "capital": "",
    "population": "10162",
    "id": "1152590185"
  },
  {
    "city": "Taltal",
    "city_ascii": "Taltal",
    "lat": "-25.4000",
    "lng": "-70.4700",
    "country": "Chile",
    "iso2": "CL",
    "iso3": "CHL",
    "admin_name": "Antofagasta",
    "capital": "",
    "population": "10018",
    "id": "1152265576"
  },
  {
    "city": "Lago Ranco",
    "city_ascii": "Lago Ranco",
    "lat": "-40.3167",
    "lng": "-72.5000",
    "country": "Chile",
    "iso2": "CL",
    "iso3": "CHL",
    "admin_name": "Los Ríos",
    "capital": "",
    "population": "9896",
    "id": "1152909758"
  },
  {
    "city": "Renaico",
    "city_ascii": "Renaico",
    "lat": "-37.6667",
    "lng": "-72.5833",
    "country": "Chile",
    "iso2": "CL",
    "iso3": "CHL",
    "admin_name": "Araucanía",
    "capital": "",
    "population": "9850",
    "id": "1152989264"
  },
  {
    "city": "San Pedro",
    "city_ascii": "San Pedro",
    "lat": "-33.8944",
    "lng": "-71.4558",
    "country": "Chile",
    "iso2": "CL",
    "iso3": "CHL",
    "admin_name": "Región Metropolitana",
    "capital": "",
    "population": "9726",
    "id": "1152749736"
  },
  {
    "city": "Tirúa",
    "city_ascii": "Tirua",
    "lat": "-38.3414",
    "lng": "-73.4911",
    "country": "Chile",
    "iso2": "CL",
    "iso3": "CHL",
    "admin_name": "Biobío",
    "capital": "",
    "population": "9644",
    "id": "1152214241"
  },
  {
    "city": "Rauco",
    "city_ascii": "Rauco",
    "lat": "-34.9167",
    "lng": "-71.3167",
    "country": "Chile",
    "iso2": "CL",
    "iso3": "CHL",
    "admin_name": "Maule",
    "capital": "",
    "population": "9543",
    "id": "1152798030"
  },
  {
    "city": "Negrete",
    "city_ascii": "Negrete",
    "lat": "-37.5833",
    "lng": "-72.5333",
    "country": "Chile",
    "iso2": "CL",
    "iso3": "CHL",
    "admin_name": "Biobío",
    "capital": "",
    "population": "9394",
    "id": "1152930662"
  },
  {
    "city": "Curepto",
    "city_ascii": "Curepto",
    "lat": "-35.0833",
    "lng": "-72.0167",
    "country": "Chile",
    "iso2": "CL",
    "iso3": "CHL",
    "admin_name": "Maule",
    "capital": "",
    "population": "9380",
    "id": "1152721174"
  },
  {
    "city": "Hualañe",
    "city_ascii": "Hualane",
    "lat": "-34.9765",
    "lng": "-71.8048",
    "country": "Chile",
    "iso2": "CL",
    "iso3": "CHL",
    "admin_name": "Maule",
    "capital": "",
    "population": "9303",
    "id": "1152879287"
  },
  {
    "city": "Lo Miranda",
    "city_ascii": "Lo Miranda",
    "lat": "-34.1900",
    "lng": "-70.8900",
    "country": "Chile",
    "iso2": "CL",
    "iso3": "CHL",
    "admin_name": "Libertador General Bernardo O’Higgins",
    "capital": "",
    "population": "9000",
    "id": "1152468313"
  },
  {
    "city": "Pozo Almonte",
    "city_ascii": "Pozo Almonte",
    "lat": "-20.2667",
    "lng": "-69.8000",
    "country": "Chile",
    "iso2": "CL",
    "iso3": "CHL",
    "admin_name": "Tarapacá",
    "capital": "minor",
    "population": "9277",
    "id": "1152924094"
  },
  {
    "city": "Mejillones",
    "city_ascii": "Mejillones",
    "lat": "-23.1000",
    "lng": "-70.4500",
    "country": "Chile",
    "iso2": "CL",
    "iso3": "CHL",
    "admin_name": "Antofagasta",
    "capital": "",
    "population": "9218",
    "id": "1152559509"
  },
  {
    "city": "Puerto Octay",
    "city_ascii": "Puerto Octay",
    "lat": "-40.9667",
    "lng": "-72.9000",
    "country": "Chile",
    "iso2": "CL",
    "iso3": "CHL",
    "admin_name": "Los Lagos",
    "capital": "",
    "population": "8999",
    "id": "1152604525"
  },
  {
    "city": "Huasco",
    "city_ascii": "Huasco",
    "lat": "-28.4664",
    "lng": "-71.2192",
    "country": "Chile",
    "iso2": "CL",
    "iso3": "CHL",
    "admin_name": "Atacama",
    "capital": "",
    "population": "8977",
    "id": "1152643675"
  },
  {
    "city": "Florida",
    "city_ascii": "Florida",
    "lat": "-36.8167",
    "lng": "-72.6667",
    "country": "Chile",
    "iso2": "CL",
    "iso3": "CHL",
    "admin_name": "Biobío",
    "capital": "",
    "population": "8916",
    "id": "1152800195"
  },
  {
    "city": "Lanco",
    "city_ascii": "Lanco",
    "lat": "-39.4500",
    "lng": "-72.7833",
    "country": "Chile",
    "iso2": "CL",
    "iso3": "CHL",
    "admin_name": "Araucanía",
    "capital": "",
    "population": "8521",
    "id": "1152703909"
  },
  {
    "city": "Oficina María Elena",
    "city_ascii": "Oficina Maria Elena",
    "lat": "-22.3451",
    "lng": "-69.6615",
    "country": "Chile",
    "iso2": "CL",
    "iso3": "CHL",
    "admin_name": "Antofagasta",
    "capital": "",
    "population": "6457",
    "id": "1152876089"
  },
  {
    "city": "Chonchi",
    "city_ascii": "Chonchi",
    "lat": "-42.6219",
    "lng": "-73.7742",
    "country": "Chile",
    "iso2": "CL",
    "iso3": "CHL",
    "admin_name": "Los Lagos",
    "capital": "",
    "population": "5632",
    "id": "1152428145"
  },
  {
    "city": "Cochrane",
    "city_ascii": "Cochrane",
    "lat": "-47.2547",
    "lng": "-72.5750",
    "country": "Chile",
    "iso2": "CL",
    "iso3": "CHL",
    "admin_name": "Aysén",
    "capital": "minor",
    "population": "2789",
    "id": "1152054657"
  },
  {
    "city": "Puerto Williams",
    "city_ascii": "Puerto Williams",
    "lat": "-54.9333",
    "lng": "-67.6167",
    "country": "Chile",
    "iso2": "CL",
    "iso3": "CHL",
    "admin_name": "Magallanes y de la Antártica Chilena",
    "capital": "minor",
    "population": "1646",
    "id": "1152455279"
  },
  {
    "city": "Canela Baja",
    "city_ascii": "Canela Baja",
    "lat": "-31.3989",
    "lng": "-71.4561",
    "country": "Chile",
    "iso2": "CL",
    "iso3": "CHL",
    "admin_name": "Coquimbo",
    "capital": "",
    "population": "9182",
    "id": "1152763006"
  },
  {
    "city": "Chanco",
    "city_ascii": "Chanco",
    "lat": "-36.2667",
    "lng": "-72.7167",
    "country": "Chile",
    "iso2": "CL",
    "iso3": "CHL",
    "admin_name": "Ñuble",
    "capital": "",
    "population": "9003",
    "id": "1152038330"
  },
  {
    "city": "Rocas de Santo Domingo",
    "city_ascii": "Rocas de Santo Domingo",
    "lat": "-33.6358",
    "lng": "-71.6281",
    "country": "Chile",
    "iso2": "CL",
    "iso3": "CHL",
    "admin_name": "Valparaíso",
    "capital": "",
    "population": "8860",
    "id": "1152451543"
  },
  {
    "city": "Toltén",
    "city_ascii": "Tolten",
    "lat": "-39.2166",
    "lng": "-73.2123",
    "country": "Chile",
    "iso2": "CL",
    "iso3": "CHL",
    "admin_name": "Araucanía",
    "capital": "",
    "population": "2293",
    "id": "1152450943"
  },
  {
    "city": "Villa O’Higgins",
    "city_ascii": "Villa O'Higgins",
    "lat": "-48.4683",
    "lng": "-72.5600",
    "country": "Chile",
    "iso2": "CL",
    "iso3": "CHL",
    "admin_name": "Aysén",
    "capital": "",
    "population": "612",
    "id": "1152709181"
  },
  {
    "city": "Toconao",
    "city_ascii": "Toconao",
    "lat": "-23.1903",
    "lng": "-68.0050",
    "country": "Chile",
    "iso2": "CL",
    "iso3": "CHL",
    "admin_name": "Antofagasta",
    "capital": "",
    "population": "378",
    "id": "1152732862"
  },
  {
    "city": "Cuya",
    "city_ascii": "Cuya",
    "lat": "-19.1597",
    "lng": "-70.1794",
    "country": "Chile",
    "iso2": "CL",
    "iso3": "CHL",
    "admin_name": "Tarapacá",
    "capital": "",
    "population": "20",
    "id": "1152944039"
  },
  {
    "city": "Chuquicamata",
    "city_ascii": "Chuquicamata",
    "lat": "-22.3169",
    "lng": "-68.9301",
    "country": "Chile",
    "iso2": "CL",
    "iso3": "CHL",
    "admin_name": "Antofagasta",
    "capital": "",
    "population": "0",
    "id": "1152468996"
  },
  {
    "city": "Lagunas",
    "city_ascii": "Lagunas",
    "lat": "-20.9829",
    "lng": "-69.6833",
    "country": "Chile",
    "iso2": "CL",
    "iso3": "CHL",
    "admin_name": "Tarapacá",
    "capital": "",
    "population": "10",
    "id": "1152360178"
  }
]