[
  {
    "city": "Douala",
    "city_ascii": "Douala",
    "lat": "4.0500",
    "lng": "9.7000",
    "country": "Cameroon",
    "iso2": "CM",
    "iso3": "CMR",
    "admin_name": "Littoral",
    "capital": "admin",
    "population": "5768400",
    "id": "1120494607"
  },
  {
    "city": "Yaoundé",
    "city_ascii": "Yaounde",
    "lat": "3.8667",
    "lng": "11.5167",
    "country": "Cameroon",
    "iso2": "CM",
    "iso3": "CMR",
    "admin_name": "Centre",
    "capital": "primary",
    "population": "2440462",
    "id": "1120298240"
  },
  {
    "city": "Bamenda",
    "city_ascii": "Bamenda",
    "lat": "5.9614",
    "lng": "10.1517",
    "country": "Cameroon",
    "iso2": "CM",
    "iso3": "CMR",
    "admin_name": "North-West",
    "capital": "admin",
    "population": "2000000",
    "id": "1120909610"
  },
  {
    "city": "Bafoussam",
    "city_ascii": "Bafoussam",
    "lat": "5.4667",
    "lng": "10.4167",
    "country": "Cameroon",
    "iso2": "CM",
    "iso3": "CMR",
    "admin_name": "Ouest",
    "capital": "admin",
    "population": "1146000",
    "id": "1120435460"
  },
  {
    "city": "Garoua",
    "city_ascii": "Garoua",
    "lat": "9.3000",
    "lng": "13.4000",
    "country": "Cameroon",
    "iso2": "CM",
    "iso3": "CMR",
    "admin_name": "Nord",
    "capital": "admin",
    "population": "600000",
    "id": "1120803808"
  },
  {
    "city": "Maroua",
    "city_ascii": "Maroua",
    "lat": "10.5971",
    "lng": "14.3157",
    "country": "Cameroon",
    "iso2": "CM",
    "iso3": "CMR",
    "admin_name": "Extrême-Nord",
    "capital": "admin",
    "population": "319941",
    "id": "1120956931"
  },
  {
    "city": "Limbe",
    "city_ascii": "Limbe",
    "lat": "4.0167",
    "lng": "9.2167",
    "country": "Cameroon",
    "iso2": "CM",
    "iso3": "CMR",
    "admin_name": "South-West",
    "capital": "",
    "population": "212474",
    "id": "1120635273"
  },
  {
    "city": "Ngaoundéré",
    "city_ascii": "Ngaoundere",
    "lat": "7.3167",
    "lng": "13.5833",
    "country": "Cameroon",
    "iso2": "CM",
    "iso3": "CMR",
    "admin_name": "Adamaoua",
    "capital": "admin",
    "population": "189800",
    "id": "1120011020"
  },
  {
    "city": "Loum",
    "city_ascii": "Loum",
    "lat": "4.7180",
    "lng": "9.7300",
    "country": "Cameroon",
    "iso2": "CM",
    "iso3": "CMR",
    "admin_name": "Littoral",
    "capital": "",
    "population": "177429",
    "id": "1120110128"
  },
  {
    "city": "Kumba",
    "city_ascii": "Kumba",
    "lat": "4.6333",
    "lng": "9.4500",
    "country": "Cameroon",
    "iso2": "CM",
    "iso3": "CMR",
    "admin_name": "South-West",
    "capital": "",
    "population": "144268",
    "id": "1120492761"
  },
  {
    "city": "Bibémi",
    "city_ascii": "Bibemi",
    "lat": "9.3167",
    "lng": "13.8833",
    "country": "Cameroon",
    "iso2": "CM",
    "iso3": "CMR",
    "admin_name": "Nord",
    "capital": "",
    "population": "133191",
    "id": "1120285705"
  },
  {
    "city": "Buea",
    "city_ascii": "Buea",
    "lat": "4.1667",
    "lng": "9.2333",
    "country": "Cameroon",
    "iso2": "CM",
    "iso3": "CMR",
    "admin_name": "South-West",
    "capital": "admin",
    "population": "131325",
    "id": "1120497849"
  },
  {
    "city": "Kumbo",
    "city_ascii": "Kumbo",
    "lat": "6.2000",
    "lng": "10.6600",
    "country": "Cameroon",
    "iso2": "CM",
    "iso3": "CMR",
    "admin_name": "North-West",
    "capital": "",
    "population": "125486",
    "id": "1120679288"
  },
  {
    "city": "Edéa",
    "city_ascii": "Edea",
    "lat": "3.8000",
    "lng": "10.1333",
    "country": "Cameroon",
    "iso2": "CM",
    "iso3": "CMR",
    "admin_name": "Littoral",
    "capital": "",
    "population": "122300",
    "id": "1120546542"
  },
  {
    "city": "Nkongsamba",
    "city_ascii": "Nkongsamba",
    "lat": "4.9500",
    "lng": "9.9333",
    "country": "Cameroon",
    "iso2": "CM",
    "iso3": "CMR",
    "admin_name": "Littoral",
    "capital": "",
    "population": "117063",
    "id": "1120972098"
  },
  {
    "city": "Kousséri",
    "city_ascii": "Kousseri",
    "lat": "12.0833",
    "lng": "15.0333",
    "country": "Cameroon",
    "iso2": "CM",
    "iso3": "CMR",
    "admin_name": "Extrême-Nord",
    "capital": "",
    "population": "101246",
    "id": "1120996697"
  },
  {
    "city": "Bertoua",
    "city_ascii": "Bertoua",
    "lat": "4.5833",
    "lng": "13.6833",
    "country": "Cameroon",
    "iso2": "CM",
    "iso3": "CMR",
    "admin_name": "Est",
    "capital": "admin",
    "population": "88462",
    "id": "1120406967"
  },
  {
    "city": "Ébolowa",
    "city_ascii": "Ebolowa",
    "lat": "2.9167",
    "lng": "11.1500",
    "country": "Cameroon",
    "iso2": "CM",
    "iso3": "CMR",
    "admin_name": "Sud",
    "capital": "admin",
    "population": "87875",
    "id": "1120924207"
  },
  {
    "city": "Bogo",
    "city_ascii": "Bogo",
    "lat": "10.7361",
    "lng": "14.6108",
    "country": "Cameroon",
    "iso2": "CM",
    "iso3": "CMR",
    "admin_name": "Extrême-Nord",
    "capital": "",
    "population": "95230",
    "id": "1120371347"
  },
  {
    "city": "Bafang",
    "city_ascii": "Bafang",
    "lat": "5.1500",
    "lng": "10.1833",
    "country": "Cameroon",
    "iso2": "CM",
    "iso3": "CMR",
    "admin_name": "Ouest",
    "capital": "",
    "population": "93145",
    "id": "1120889812"
  },
  {
    "city": "Foumban",
    "city_ascii": "Foumban",
    "lat": "5.7167",
    "lng": "10.9167",
    "country": "Cameroon",
    "iso2": "CM",
    "iso3": "CMR",
    "admin_name": "Ouest",
    "capital": "",
    "population": "92673",
    "id": "1120088650"
  },
  {
    "city": "Widekum",
    "city_ascii": "Widekum",
    "lat": "5.8717",
    "lng": "9.7706",
    "country": "Cameroon",
    "iso2": "CM",
    "iso3": "CMR",
    "admin_name": "North-West",
    "capital": "",
    "population": "86822",
    "id": "1120813839"
  },
  {
    "city": "Maga",
    "city_ascii": "Maga",
    "lat": "10.8500",
    "lng": "14.9333",
    "country": "Cameroon",
    "iso2": "CM",
    "iso3": "CMR",
    "admin_name": "Extrême-Nord",
    "capital": "",
    "population": "85100",
    "id": "1120666970"
  },
  {
    "city": "Guider",
    "city_ascii": "Guider",
    "lat": "9.9342",
    "lng": "13.9486",
    "country": "Cameroon",
    "iso2": "CM",
    "iso3": "CMR",
    "admin_name": "Nord",
    "capital": "",
    "population": "84647",
    "id": "1120662630"
  },
  {
    "city": "Bafut",
    "city_ascii": "Bafut",
    "lat": "6.0833",
    "lng": "10.1000",
    "country": "Cameroon",
    "iso2": "CM",
    "iso3": "CMR",
    "admin_name": "North-West",
    "capital": "",
    "population": "80305",
    "id": "1120828506"
  },
  {
    "city": "Mbalmayo",
    "city_ascii": "Mbalmayo",
    "lat": "3.5167",
    "lng": "11.5000",
    "country": "Cameroon",
    "iso2": "CM",
    "iso3": "CMR",
    "admin_name": "Centre",
    "capital": "",
    "population": "80206",
    "id": "1120049681"
  },
  {
    "city": "Meïganga",
    "city_ascii": "Meiganga",
    "lat": "6.5300",
    "lng": "14.3700",
    "country": "Cameroon",
    "iso2": "CM",
    "iso3": "CMR",
    "admin_name": "Adamaoua",
    "capital": "",
    "population": "80100",
    "id": "1120789508"
  },
  {
    "city": "Eséka",
    "city_ascii": "Eseka",
    "lat": "3.6500",
    "lng": "10.7667",
    "country": "Cameroon",
    "iso2": "CM",
    "iso3": "CMR",
    "admin_name": "Centre",
    "capital": "",
    "population": "79500",
    "id": "1120064220"
  },
  {
    "city": "Dschang",
    "city_ascii": "Dschang",
    "lat": "5.4500",
    "lng": "10.0667",
    "country": "Cameroon",
    "iso2": "CM",
    "iso3": "CMR",
    "admin_name": "Ouest",
    "capital": "",
    "population": "76524",
    "id": "1120569504"
  },
  {
    "city": "Tibati",
    "city_ascii": "Tibati",
    "lat": "6.4667",
    "lng": "12.6333",
    "country": "Cameroon",
    "iso2": "CM",
    "iso3": "CMR",
    "admin_name": "Adamaoua",
    "capital": "",
    "population": "72081",
    "id": "1120299131"
  },
  {
    "city": "Melong",
    "city_ascii": "Melong",
    "lat": "5.1211",
    "lng": "9.9528",
    "country": "Cameroon",
    "iso2": "CM",
    "iso3": "CMR",
    "admin_name": "Littoral",
    "capital": "",
    "population": "71189",
    "id": "1120198694"
  },
  {
    "city": "Bafia",
    "city_ascii": "Bafia",
    "lat": "4.7500",
    "lng": "11.2167",
    "country": "Cameroon",
    "iso2": "CM",
    "iso3": "CMR",
    "admin_name": "Centre",
    "capital": "",
    "population": "69270",
    "id": "1120310806"
  },
  {
    "city": "Wum",
    "city_ascii": "Wum",
    "lat": "6.3833",
    "lng": "10.0667",
    "country": "Cameroon",
    "iso2": "CM",
    "iso3": "CMR",
    "admin_name": "North-West",
    "capital": "",
    "population": "68836",
    "id": "1120557987"
  },
  {
    "city": "Sangmélima",
    "city_ascii": "Sangmelima",
    "lat": "2.9333",
    "lng": "11.9833",
    "country": "Cameroon",
    "iso2": "CM",
    "iso3": "CMR",
    "admin_name": "Sud",
    "capital": "",
    "population": "64227",
    "id": "1120387598"
  },
  {
    "city": "Kribi",
    "city_ascii": "Kribi",
    "lat": "2.9350",
    "lng": "9.9100",
    "country": "Cameroon",
    "iso2": "CM",
    "iso3": "CMR",
    "admin_name": "Sud",
    "capital": "",
    "population": "60000",
    "id": "1120360100"
  },
  {
    "city": "Foumbot",
    "city_ascii": "Foumbot",
    "lat": "5.5000",
    "lng": "10.6333",
    "country": "Cameroon",
    "iso2": "CM",
    "iso3": "CMR",
    "admin_name": "Ouest",
    "capital": "",
    "population": "57367",
    "id": "1120775025"
  },
  {
    "city": "Baham",
    "city_ascii": "Baham",
    "lat": "5.3333",
    "lng": "10.4000",
    "country": "Cameroon",
    "iso2": "CM",
    "iso3": "CMR",
    "admin_name": "Ouest",
    "capital": "",
    "population": "51500",
    "id": "1120072101"
  },
  {
    "city": "Mbouda",
    "city_ascii": "Mbouda",
    "lat": "5.6333",
    "lng": "10.2500",
    "country": "Cameroon",
    "iso2": "CM",
    "iso3": "CMR",
    "admin_name": "Ouest",
    "capital": "",
    "population": "49313",
    "id": "1120195491"
  },
  {
    "city": "Yagoua",
    "city_ascii": "Yagoua",
    "lat": "10.3428",
    "lng": "15.2406",
    "country": "Cameroon",
    "iso2": "CM",
    "iso3": "CMR",
    "admin_name": "Extrême-Nord",
    "capital": "",
    "population": "41957",
    "id": "1120388576"
  },
  {
    "city": "Obala",
    "city_ascii": "Obala",
    "lat": "4.1667",
    "lng": "11.5333",
    "country": "Cameroon",
    "iso2": "CM",
    "iso3": "CMR",
    "admin_name": "Centre",
    "capital": "",
    "population": "37888",
    "id": "1120045790"
  },
  {
    "city": "Bamendjou",
    "city_ascii": "Bamendjou",
    "lat": "5.4000",
    "lng": "10.3167",
    "country": "Cameroon",
    "iso2": "CM",
    "iso3": "CMR",
    "admin_name": "Ouest",
    "capital": "",
    "population": "37547",
    "id": "1120189135"
  },
  {
    "city": "Monatélé",
    "city_ascii": "Monatele",
    "lat": "4.2667",
    "lng": "11.2000",
    "country": "Cameroon",
    "iso2": "CM",
    "iso3": "CMR",
    "admin_name": "Centre",
    "capital": "",
    "population": "36933",
    "id": "1120594177"
  },
  {
    "city": "Mamfe",
    "city_ascii": "Mamfe",
    "lat": "5.7667",
    "lng": "9.2833",
    "country": "Cameroon",
    "iso2": "CM",
    "iso3": "CMR",
    "admin_name": "South-West",
    "capital": "",
    "population": "36500",
    "id": "1120298819"
  },
  {
    "city": "Baba I",
    "city_ascii": "Baba I",
    "lat": "6.0622",
    "lng": "10.4903",
    "country": "Cameroon",
    "iso2": "CM",
    "iso3": "CMR",
    "admin_name": "North-West",
    "capital": "",
    "population": "35000",
    "id": "1120222398"
  },
  {
    "city": "Ngaoundal",
    "city_ascii": "Ngaoundal",
    "lat": "6.5000",
    "lng": "13.2667",
    "country": "Cameroon",
    "iso2": "CM",
    "iso3": "CMR",
    "admin_name": "Adamaoua",
    "capital": "",
    "population": "34971",
    "id": "1120312039"
  },
  {
    "city": "Biwong",
    "city_ascii": "Biwong",
    "lat": "3.1333",
    "lng": "11.1500",
    "country": "Cameroon",
    "iso2": "CM",
    "iso3": "CMR",
    "admin_name": "Sud",
    "capital": "",
    "population": "34374",
    "id": "1120534976"
  },
  {
    "city": "Batouri",
    "city_ascii": "Batouri",
    "lat": "4.4333",
    "lng": "14.3667",
    "country": "Cameroon",
    "iso2": "CM",
    "iso3": "CMR",
    "admin_name": "Est",
    "capital": "",
    "population": "33594",
    "id": "1120380999"
  },
  {
    "city": "Messaména",
    "city_ascii": "Messamena",
    "lat": "3.7333",
    "lng": "12.8333",
    "country": "Cameroon",
    "iso2": "CM",
    "iso3": "CMR",
    "admin_name": "Est",
    "capital": "",
    "population": "32282",
    "id": "1120403736"
  },
  {
    "city": "Mbanga",
    "city_ascii": "Mbanga",
    "lat": "4.5092",
    "lng": "9.5681",
    "country": "Cameroon",
    "iso2": "CM",
    "iso3": "CMR",
    "admin_name": "Littoral",
    "capital": "",
    "population": "29732",
    "id": "1120507574"
  },
  {
    "city": "Nanga Eboko",
    "city_ascii": "Nanga Eboko",
    "lat": "4.6708",
    "lng": "12.3731",
    "country": "Cameroon",
    "iso2": "CM",
    "iso3": "CMR",
    "admin_name": "Centre",
    "capital": "",
    "population": "29814",
    "id": "1120540405"
  },
  {
    "city": "Manjo",
    "city_ascii": "Manjo",
    "lat": "4.8500",
    "lng": "9.8167",
    "country": "Cameroon",
    "iso2": "CM",
    "iso3": "CMR",
    "admin_name": "Littoral",
    "capital": "",
    "population": "29683",
    "id": "1120935317"
  },
  {
    "city": "Figuil",
    "city_ascii": "Figuil",
    "lat": "9.7667",
    "lng": "13.9667",
    "country": "Cameroon",
    "iso2": "CM",
    "iso3": "CMR",
    "admin_name": "Nord",
    "capital": "",
    "population": "29399",
    "id": "1120977247"
  },
  {
    "city": "Pitoa",
    "city_ascii": "Pitoa",
    "lat": "9.3833",
    "lng": "13.5333",
    "country": "Cameroon",
    "iso2": "CM",
    "iso3": "CMR",
    "admin_name": "Nord",
    "capital": "",
    "population": "28636",
    "id": "1120762308"
  },
  {
    "city": "Lagdo",
    "city_ascii": "Lagdo",
    "lat": "9.0500",
    "lng": "13.7333",
    "country": "Cameroon",
    "iso2": "CM",
    "iso3": "CMR",
    "admin_name": "Nord",
    "capital": "",
    "population": "28239",
    "id": "1120762160"
  },
  {
    "city": "Nguti",
    "city_ascii": "Nguti",
    "lat": "5.3167",
    "lng": "9.4167",
    "country": "Cameroon",
    "iso2": "CM",
    "iso3": "CMR",
    "admin_name": "South-West",
    "capital": "",
    "population": "27151",
    "id": "1120701627"
  },
  {
    "city": "Bamessi",
    "city_ascii": "Bamessi",
    "lat": "6.0333",
    "lng": "10.5792",
    "country": "Cameroon",
    "iso2": "CM",
    "iso3": "CMR",
    "admin_name": "North-West",
    "capital": "",
    "population": "26802",
    "id": "1120836103"
  },
  {
    "city": "Kalfou",
    "city_ascii": "Kalfou",
    "lat": "10.2833",
    "lng": "14.9333",
    "country": "Cameroon",
    "iso2": "CM",
    "iso3": "CMR",
    "admin_name": "Extrême-Nord",
    "capital": "",
    "population": "26223",
    "id": "1120297396"
  },
  {
    "city": "Yokadouma",
    "city_ascii": "Yokadouma",
    "lat": "3.5167",
    "lng": "15.0500",
    "country": "Cameroon",
    "iso2": "CM",
    "iso3": "CMR",
    "admin_name": "Est",
    "capital": "",
    "population": "24430",
    "id": "1120416546"
  },
  {
    "city": "Touboro",
    "city_ascii": "Touboro",
    "lat": "7.7708",
    "lng": "15.3567",
    "country": "Cameroon",
    "iso2": "CM",
    "iso3": "CMR",
    "admin_name": "Nord",
    "capital": "",
    "population": "23196",
    "id": "1120000456"
  },
  {
    "city": "Ayos",
    "city_ascii": "Ayos",
    "lat": "3.9069",
    "lng": "12.5272",
    "country": "Cameroon",
    "iso2": "CM",
    "iso3": "CMR",
    "admin_name": "Centre",
    "capital": "",
    "population": "22899",
    "id": "1120902688"
  },
  {
    "city": "Garoua Boulaï",
    "city_ascii": "Garoua Boulai",
    "lat": "5.8833",
    "lng": "14.5500",
    "country": "Cameroon",
    "iso2": "CM",
    "iso3": "CMR",
    "admin_name": "Est",
    "capital": "",
    "population": "22882",
    "id": "1120290274"
  },
  {
    "city": "Bélabo",
    "city_ascii": "Belabo",
    "lat": "4.9333",
    "lng": "13.3000",
    "country": "Cameroon",
    "iso2": "CM",
    "iso3": "CMR",
    "admin_name": "Est",
    "capital": "",
    "population": "22553",
    "id": "1120106572"
  },
  {
    "city": "Mbandjok",
    "city_ascii": "Mbandjok",
    "lat": "4.4500",
    "lng": "11.9000",
    "country": "Cameroon",
    "iso2": "CM",
    "iso3": "CMR",
    "admin_name": "Centre",
    "capital": "",
    "population": "21841",
    "id": "1120826552"
  },
  {
    "city": "Akonolinga",
    "city_ascii": "Akonolinga",
    "lat": "3.7667",
    "lng": "12.2500",
    "country": "Cameroon",
    "iso2": "CM",
    "iso3": "CMR",
    "admin_name": "Centre",
    "capital": "",
    "population": "21299",
    "id": "1120103788"
  },
  {
    "city": "Bambalang",
    "city_ascii": "Bambalang",
    "lat": "5.8867",
    "lng": "10.5331",
    "country": "Cameroon",
    "iso2": "CM",
    "iso3": "CMR",
    "admin_name": "North-West",
    "capital": "",
    "population": "20863",
    "id": "1120261303"
  },
  {
    "city": "Kekem",
    "city_ascii": "Kekem",
    "lat": "5.1667",
    "lng": "10.0333",
    "country": "Cameroon",
    "iso2": "CM",
    "iso3": "CMR",
    "admin_name": "Ouest",
    "capital": "",
    "population": "20579",
    "id": "1120134625"
  },
  {
    "city": "Bamumkumbit",
    "city_ascii": "Bamumkumbit",
    "lat": "5.8167",
    "lng": "10.4167",
    "country": "Cameroon",
    "iso2": "CM",
    "iso3": "CMR",
    "admin_name": "Ouest",
    "capital": "",
    "population": "20000",
    "id": "1120980462"
  },
  {
    "city": "Nkoteng",
    "city_ascii": "Nkoteng",
    "lat": "4.5167",
    "lng": "12.0333",
    "country": "Cameroon",
    "iso2": "CM",
    "iso3": "CMR",
    "admin_name": "Centre",
    "capital": "",
    "population": "20100",
    "id": "1120935035"
  },
  {
    "city": "Abong Mbang",
    "city_ascii": "Abong Mbang",
    "lat": "3.9833",
    "lng": "13.1667",
    "country": "Cameroon",
    "iso2": "CM",
    "iso3": "CMR",
    "admin_name": "Est",
    "capital": "",
    "population": "18700",
    "id": "1120726386"
  },
  {
    "city": "Bafanji",
    "city_ascii": "Bafanji",
    "lat": "5.8361",
    "lng": "10.4000",
    "country": "Cameroon",
    "iso2": "CM",
    "iso3": "CMR",
    "admin_name": "North-West",
    "capital": "",
    "population": "17890",
    "id": "1120039159"
  },
  {
    "city": "Diang",
    "city_ascii": "Diang",
    "lat": "4.5833",
    "lng": "13.3500",
    "country": "Cameroon",
    "iso2": "CM",
    "iso3": "CMR",
    "admin_name": "Est",
    "capital": "",
    "population": "15795",
    "id": "1120665597"
  },
  {
    "city": "Ngoulemakong",
    "city_ascii": "Ngoulemakong",
    "lat": "3.0833",
    "lng": "11.4333",
    "country": "Cameroon",
    "iso2": "CM",
    "iso3": "CMR",
    "admin_name": "Sud",
    "capital": "",
    "population": "14675",
    "id": "1120215656"
  },
  {
    "city": "Bamessing",
    "city_ascii": "Bamessing",
    "lat": "5.9847",
    "lng": "10.3603",
    "country": "Cameroon",
    "iso2": "CM",
    "iso3": "CMR",
    "admin_name": "North-West",
    "capital": "",
    "population": "12726",
    "id": "1120344122"
  },
  {
    "city": "Ngou",
    "city_ascii": "Ngou",
    "lat": "5.2000",
    "lng": "10.3833",
    "country": "Cameroon",
    "iso2": "CM",
    "iso3": "CMR",
    "admin_name": "Ouest",
    "capital": "",
    "population": "12000",
    "id": "1120597405"
  },
  {
    "city": "Tefam",
    "city_ascii": "Tefam",
    "lat": "5.2667",
    "lng": "10.4667",
    "country": "Cameroon",
    "iso2": "CM",
    "iso3": "CMR",
    "admin_name": "Ouest",
    "capital": "",
    "population": "12000",
    "id": "1120869867"
  },
  {
    "city": "Mfou",
    "city_ascii": "Mfou",
    "lat": "3.9600",
    "lng": "11.9300",
    "country": "Cameroon",
    "iso2": "CM",
    "iso3": "CMR",
    "admin_name": "Centre",
    "capital": "",
    "population": "10533",
    "id": "1120739101"
  },
  {
    "city": "Balikumbat",
    "city_ascii": "Balikumbat",
    "lat": "5.8928",
    "lng": "10.3597",
    "country": "Cameroon",
    "iso2": "CM",
    "iso3": "CMR",
    "admin_name": "North-West",
    "capital": "",
    "population": "10163",
    "id": "1120000865"
  },
  {
    "city": "Olamzé",
    "city_ascii": "Olamze",
    "lat": "2.2167",
    "lng": "11.0833",
    "country": "Cameroon",
    "iso2": "CM",
    "iso3": "CMR",
    "admin_name": "Sud",
    "capital": "",
    "population": "8518",
    "id": "1120708879"
  },
  {
    "city": "Kontcha",
    "city_ascii": "Kontcha",
    "lat": "7.9667",
    "lng": "12.2333",
    "country": "Cameroon",
    "iso2": "CM",
    "iso3": "CMR",
    "admin_name": "Adamaoua",
    "capital": "",
    "population": "8018",
    "id": "1120016766"
  },
  {
    "city": "Aiyomojok",
    "city_ascii": "Aiyomojok",
    "lat": "5.7504",
    "lng": "8.9833",
    "country": "Cameroon",
    "iso2": "CM",
    "iso3": "CMR",
    "admin_name": "South-West",
    "capital": "",
    "population": "5798",
    "id": "1120658014"
  }
]