[
  {
    "city": "Manama",
    "city_ascii": "Manama",
    "lat": "26.2250",
    "lng": "50.5775",
    "country": "Bahrain",
    "iso2": "BH",
    "iso3": "BHR",
    "admin_name": "Al ‘Āşimah",
    "capital": "primary",
    "population": "436000",
    "id": "1048989486"
  },
  {
    "city": "Al Muḩarraq",
    "city_ascii": "Al Muharraq",
    "lat": "26.2500",
    "lng": "50.6167",
    "country": "Bahrain",
    "iso2": "BH",
    "iso3": "BHR",
    "admin_name": "Al Muḩarraq",
    "capital": "",
    "population": "75000",
    "id": "1048992336"
  },
  {
    "city": "Jidd Ḩafş",
    "city_ascii": "Jidd Hafs",
    "lat": "26.2190",
    "lng": "50.5380",
    "country": "Bahrain",
    "iso2": "BH",
    "iso3": "BHR",
    "admin_name": "Al ‘Āşimah",
    "capital": "",
    "population": "44769",
    "id": "1048383141"
  },
  {
    "city": "Madīnat Ḩamad",
    "city_ascii": "Madinat Hamad",
    "lat": "26.1128",
    "lng": "50.5139",
    "country": "Bahrain",
    "iso2": "BH",
    "iso3": "BHR",
    "admin_name": "Ash Shamālīyah",
    "capital": "",
    "population": "52700",
    "id": "1048909146"
  },
  {
    "city": "Madīnat ‘Īsá",
    "city_ascii": "Madinat `Isa",
    "lat": "26.1736",
    "lng": "50.5478",
    "country": "Bahrain",
    "iso2": "BH",
    "iso3": "BHR",
    "admin_name": "Al Janūbīyah",
    "capital": "",
    "population": "40000",
    "id": "1048219300"
  },
  {
    "city": "Sitrah",
    "city_ascii": "Sitrah",
    "lat": "26.1200",
    "lng": "50.6500",
    "country": "Bahrain",
    "iso2": "BH",
    "iso3": "BHR",
    "admin_name": "Al ‘Āşimah",
    "capital": "",
    "population": "20000",
    "id": "1048449399"
  },
  {
    "city": "Al Hamalah",
    "city_ascii": "Al Hamalah",
    "lat": "26.1497",
    "lng": "50.4653",
    "country": "Bahrain",
    "iso2": "BH",
    "iso3": "BHR",
    "admin_name": "Ash Shamālīyah",
    "capital": "",
    "population": "18000",
    "id": "1048095735"
  },
  {
    "city": "Ad Dirāz",
    "city_ascii": "Ad Diraz",
    "lat": "26.2186",
    "lng": "50.4756",
    "country": "Bahrain",
    "iso2": "BH",
    "iso3": "BHR",
    "admin_name": "Ash Shamālīyah",
    "capital": "",
    "population": "18000",
    "id": "1048063693"
  },
  {
    "city": "Al Mālikīyah",
    "city_ascii": "Al Malikiyah",
    "lat": "26.1008",
    "lng": "50.4878",
    "country": "Bahrain",
    "iso2": "BH",
    "iso3": "BHR",
    "admin_name": "Ash Shamālīyah",
    "capital": "",
    "population": "14800",
    "id": "1048201058"
  },
  {
    "city": "Karrānah",
    "city_ascii": "Karranah",
    "lat": "26.2306",
    "lng": "50.5108",
    "country": "Bahrain",
    "iso2": "BH",
    "iso3": "BHR",
    "admin_name": "Ash Shamālīyah",
    "capital": "",
    "population": "12000",
    "id": "1048633318"
  }
]