[
  {
    "city": "Delhi",
    "city_ascii": "Delhi",
    "lat": "28.6100",
    "lng": "77.2300",
    "country": "India",
    "iso2": "IN",
    "iso3": "IND",
    "admin_name": "Delhi",
    "capital": "admin",
    "population": "32226000",
    "id": "1356872604"
  },
  {
    "city": "Mumbai",
    "city_ascii": "Mumbai",
    "lat": "19.0761",
    "lng": "72.8775",
    "country": "India",
    "iso2": "IN",
    "iso3": "IND",
    "admin_name": "Mahārāshtra",
    "capital": "admin",
    "population": "24973000",
    "id": "1356226629"
  },
  {
    "city": "Kolkāta",
    "city_ascii": "Kolkata",
    "lat": "22.5675",
    "lng": "88.3700",
    "country": "India",
    "iso2": "IN",
    "iso3": "IND",
    "admin_name": "West Bengal",
    "capital": "admin",
    "population": "18502000",
    "id": "1356060520"
  },
  {
    "city": "Bangalore",
    "city_ascii": "Bangalore",
    "lat": "12.9789",
    "lng": "77.5917",
    "country": "India",
    "iso2": "IN",
    "iso3": "IND",
    "admin_name": "Karnātaka",
    "capital": "admin",
    "population": "15386000",
    "id": "1356410365"
  },
  {
    "city": "Chennai",
    "city_ascii": "Chennai",
    "lat": "13.0825",
    "lng": "80.2750",
    "country": "India",
    "iso2": "IN",
    "iso3": "IND",
    "admin_name": "Tamil Nādu",
    "capital": "admin",
    "population": "12395000",
    "id": "1356374944"
  },
  {
    "city": "Hyderābād",
    "city_ascii": "Hyderabad",
    "lat": "17.3850",
    "lng": "78.4867",
    "country": "India",
    "iso2": "IN",
    "iso3": "IND",
    "admin_name": "Telangāna",
    "capital": "admin",
    "population": "10494000",
    "id": "1356871768"
  },
  {
    "city": "Pune",
    "city_ascii": "Pune",
    "lat": "18.5203",
    "lng": "73.8567",
    "country": "India",
    "iso2": "IN",
    "iso3": "IND",
    "admin_name": "Mahārāshtra",
    "capital": "",
    "population": "8231000",
    "id": "1356081074"
  },
  {
    "city": "Ahmedabad",
    "city_ascii": "Ahmedabad",
    "lat": "23.0300",
    "lng": "72.5800",
    "country": "India",
    "iso2": "IN",
    "iso3": "IND",
    "admin_name": "Gujarāt",
    "capital": "minor",
    "population": "8009000",
    "id": "1356304381"
  },
  {
    "city": "Sūrat",
    "city_ascii": "Surat",
    "lat": "21.1702",
    "lng": "72.8311",
    "country": "India",
    "iso2": "IN",
    "iso3": "IND",
    "admin_name": "Gujarāt",
    "capital": "",
    "population": "6538000",
    "id": "1356758738"
  },
  {
    "city": "Prayagraj",
    "city_ascii": "Prayagraj",
    "lat": "25.4358",
    "lng": "81.8464",
    "country": "India",
    "iso2": "IN",
    "iso3": "IND",
    "admin_name": "Uttar Pradesh",
    "capital": "",
    "population": "5954391",
    "id": "1356718332"
  },
  {
    "city": "Lucknow",
    "city_ascii": "Lucknow",
    "lat": "26.8500",
    "lng": "80.9500",
    "country": "India",
    "iso2": "IN",
    "iso3": "IND",
    "admin_name": "Uttar Pradesh",
    "capital": "admin",
    "population": "3382000",
    "id": "1356891790"
  },
  {
    "city": "Jaipur",
    "city_ascii": "Jaipur",
    "lat": "26.9000",
    "lng": "75.8000",
    "country": "India",
    "iso2": "IN",
    "iso3": "IND",
    "admin_name": "Rājasthān",
    "capital": "admin",
    "population": "3073350",
    "id": "1356293537"
  },
  {
    "city": "Cawnpore",
    "city_ascii": "Cawnpore",
    "lat": "26.4499",
    "lng": "80.3319",
    "country": "India",
    "iso2": "IN",
    "iso3": "IND",
    "admin_name": "Uttar Pradesh",
    "capital": "",
    "population": "2701324",
    "id": "1356575238"
  },
  {
    "city": "Mirzāpur",
    "city_ascii": "Mirzapur",
    "lat": "25.1460",
    "lng": "82.5690",
    "country": "India",
    "iso2": "IN",
    "iso3": "IND",
    "admin_name": "Uttar Pradesh",
    "capital": "",
    "population": "2496970",
    "id": "1356427908"
  },
  {
    "city": "Nāgpur",
    "city_ascii": "Nagpur",
    "lat": "21.1497",
    "lng": "79.0806",
    "country": "India",
    "iso2": "IN",
    "iso3": "IND",
    "admin_name": "Mahārāshtra",
    "capital": "admin",
    "population": "2405665",
    "id": "1356365743"
  },
  {
    "city": "Ghāziābād",
    "city_ascii": "Ghaziabad",
    "lat": "28.6700",
    "lng": "77.4200",
    "country": "India",
    "iso2": "IN",
    "iso3": "IND",
    "admin_name": "Uttar Pradesh",
    "capital": "",
    "population": "2375820",
    "id": "1356691871"
  },
  {
    "city": "Vadodara",
    "city_ascii": "Vadodara",
    "lat": "22.3000",
    "lng": "73.2000",
    "country": "India",
    "iso2": "IN",
    "iso3": "IND",
    "admin_name": "Gujarāt",
    "capital": "",
    "population": "2065771",
    "id": "1356705249"
  },
  {
    "city": "Vishākhapatnam",
    "city_ascii": "Vishakhapatnam",
    "lat": "17.7042",
    "lng": "83.2978",
    "country": "India",
    "iso2": "IN",
    "iso3": "IND",
    "admin_name": "Andhra Pradesh",
    "capital": "",
    "population": "2035922",
    "id": "1356692563"
  },
  {
    "city": "Indore",
    "city_ascii": "Indore",
    "lat": "22.7167",
    "lng": "75.8472",
    "country": "India",
    "iso2": "IN",
    "iso3": "IND",
    "admin_name": "Madhya Pradesh",
    "capital": "",
    "population": "1994397",
    "id": "1356402812"
  },
  {
    "city": "Thāne",
    "city_ascii": "Thane",
    "lat": "19.1972",
    "lng": "72.9722",
    "country": "India",
    "iso2": "IN",
    "iso3": "IND",
    "admin_name": "Mahārāshtra",
    "capital": "",
    "population": "1886941",
    "id": "1356681152"
  },
  {
    "city": "Bhopāl",
    "city_ascii": "Bhopal",
    "lat": "23.2500",
    "lng": "77.4167",
    "country": "India",
    "iso2": "IN",
    "iso3": "IND",
    "admin_name": "Madhya Pradesh",
    "capital": "admin",
    "population": "1798218",
    "id": "1356734039"
  },
  {
    "city": "Chinchvad",
    "city_ascii": "Chinchvad",
    "lat": "18.6186",
    "lng": "73.8037",
    "country": "India",
    "iso2": "IN",
    "iso3": "IND",
    "admin_name": "Mahārāshtra",
    "capital": "",
    "population": "1729320",
    "id": "1356475483"
  },
  {
    "city": "Patna",
    "city_ascii": "Patna",
    "lat": "25.6000",
    "lng": "85.1000",
    "country": "India",
    "iso2": "IN",
    "iso3": "IND",
    "admin_name": "Bihār",
    "capital": "admin",
    "population": "1684222",
    "id": "1356821429"
  },
  {
    "city": "Bilāspur",
    "city_ascii": "Bilaspur",
    "lat": "22.0900",
    "lng": "82.1500",
    "country": "India",
    "iso2": "IN",
    "iso3": "IND",
    "admin_name": "Chhattīsgarh",
    "capital": "",
    "population": "1625502",
    "id": "1356820491"
  },
  {
    "city": "Ludhiāna",
    "city_ascii": "Ludhiana",
    "lat": "30.9100",
    "lng": "75.8500",
    "country": "India",
    "iso2": "IN",
    "iso3": "IND",
    "admin_name": "Punjab",
    "capital": "",
    "population": "1618879",
    "id": "1356929498"
  },
  {
    "city": "Āgra",
    "city_ascii": "Agra",
    "lat": "27.1800",
    "lng": "78.0200",
    "country": "India",
    "iso2": "IN",
    "iso3": "IND",
    "admin_name": "Uttar Pradesh",
    "capital": "",
    "population": "1585704",
    "id": "1356187395"
  },
  {
    "city": "Agwār",
    "city_ascii": "Agwar",
    "lat": "27.1800",
    "lng": "78.0200",
    "country": "India",
    "iso2": "IN",
    "iso3": "IND",
    "admin_name": "Uttar Pradesh",
    "capital": "",
    "population": "1585705",
    "id": "1356151564"
  },
  {
    "city": "Madurai",
    "city_ascii": "Madurai",
    "lat": "9.9252",
    "lng": "78.1198",
    "country": "India",
    "iso2": "IN",
    "iso3": "IND",
    "admin_name": "Tamil Nādu",
    "capital": "minor",
    "population": "1561129",
    "id": "1356257289"
  },
  {
    "city": "Jamshedpur",
    "city_ascii": "Jamshedpur",
    "lat": "22.7925",
    "lng": "86.1842",
    "country": "India",
    "iso2": "IN",
    "iso3": "IND",
    "admin_name": "Jhārkhand",
    "capital": "",
    "population": "1558000",
    "id": "1356501259"
  },
  {
    "city": "Nāsik",
    "city_ascii": "Nasik",
    "lat": "20.0000",
    "lng": "73.7800",
    "country": "India",
    "iso2": "IN",
    "iso3": "IND",
    "admin_name": "Mahārāshtra",
    "capital": "",
    "population": "1486053",
    "id": "1356562598"
  },
  {
    "city": "Farīdābād",
    "city_ascii": "Faridabad",
    "lat": "28.4167",
    "lng": "77.3000",
    "country": "India",
    "iso2": "IN",
    "iso3": "IND",
    "admin_name": "Haryāna",
    "capital": "",
    "population": "1404653",
    "id": "1356013205"
  },
  {
    "city": "Aurangābād",
    "city_ascii": "Aurangabad",
    "lat": "19.8800",
    "lng": "75.3200",
    "country": "India",
    "iso2": "IN",
    "iso3": "IND",
    "admin_name": "Mahārāshtra",
    "capital": "",
    "population": "1371330",
    "id": "1356840670"
  },
  {
    "city": "Rājkot",
    "city_ascii": "Rajkot",
    "lat": "22.3000",
    "lng": "70.7833",
    "country": "India",
    "iso2": "IN",
    "iso3": "IND",
    "admin_name": "Gujarāt",
    "capital": "",
    "population": "1335397",
    "id": "1356317190"
  },
  {
    "city": "Meerut",
    "city_ascii": "Meerut",
    "lat": "28.9800",
    "lng": "77.7100",
    "country": "India",
    "iso2": "IN",
    "iso3": "IND",
    "admin_name": "Uttar Pradesh",
    "capital": "",
    "population": "1305429",
    "id": "1356390476"
  },
  {
    "city": "Jabalpur",
    "city_ascii": "Jabalpur",
    "lat": "23.1667",
    "lng": "79.9333",
    "country": "India",
    "iso2": "IN",
    "iso3": "IND",
    "admin_name": "Madhya Pradesh",
    "capital": "",
    "population": "1267564",
    "id": "1356115460"
  },
  {
    "city": "Kalamboli",
    "city_ascii": "Kalamboli",
    "lat": "19.2333",
    "lng": "73.1333",
    "country": "India",
    "iso2": "IN",
    "iso3": "IND",
    "admin_name": "Mahārāshtra",
    "capital": "",
    "population": "1246381",
    "id": "1356537020"
  },
  {
    "city": "Vasai",
    "city_ascii": "Vasai",
    "lat": "19.4700",
    "lng": "72.8000",
    "country": "India",
    "iso2": "IN",
    "iso3": "IND",
    "admin_name": "Mahārāshtra",
    "capital": "",
    "population": "1222390",
    "id": "1356707797"
  },
  {
    "city": "Najafgarh",
    "city_ascii": "Najafgarh",
    "lat": "28.6092",
    "lng": "76.9798",
    "country": "India",
    "iso2": "IN",
    "iso3": "IND",
    "admin_name": "Delhi",
    "capital": "",
    "population": "1203180",
    "id": "1356180206"
  },
  {
    "city": "Vārānasi",
    "city_ascii": "Varanasi",
    "lat": "25.3189",
    "lng": "83.0128",
    "country": "India",
    "iso2": "IN",
    "iso3": "IND",
    "admin_name": "Uttar Pradesh",
    "capital": "",
    "population": "1198491",
    "id": "1356145782"
  },
  {
    "city": "Srīnagar",
    "city_ascii": "Srinagar",
    "lat": "34.0900",
    "lng": "74.7900",
    "country": "India",
    "iso2": "IN",
    "iso3": "IND",
    "admin_name": "Jammu and Kashmīr",
    "capital": "admin",
    "population": "1180570",
    "id": "1356442950"
  },
  {
    "city": "Dhanbād",
    "city_ascii": "Dhanbad",
    "lat": "23.7998",
    "lng": "86.4305",
    "country": "India",
    "iso2": "IN",
    "iso3": "IND",
    "admin_name": "Jhārkhand",
    "capital": "",
    "population": "1162472",
    "id": "1356103392"
  },
  {
    "city": "Amritsar",
    "city_ascii": "Amritsar",
    "lat": "31.6400",
    "lng": "74.8600",
    "country": "India",
    "iso2": "IN",
    "iso3": "IND",
    "admin_name": "Punjab",
    "capital": "",
    "population": "1132383",
    "id": "1356926507"
  },
  {
    "city": "Alīgarh",
    "city_ascii": "Aligarh",
    "lat": "27.8800",
    "lng": "78.0800",
    "country": "India",
    "iso2": "IN",
    "iso3": "IND",
    "admin_name": "Uttar Pradesh",
    "capital": "",
    "population": "1131160",
    "id": "1356076391"
  },
  {
    "city": "Guwāhāti",
    "city_ascii": "Guwahati",
    "lat": "26.1722",
    "lng": "91.7458",
    "country": "India",
    "iso2": "IN",
    "iso3": "IND",
    "admin_name": "Assam",
    "capital": "",
    "population": "1116267",
    "id": "1356593800"
  },
  {
    "city": "Hāora",
    "city_ascii": "Haora",
    "lat": "22.5800",
    "lng": "88.3294",
    "country": "India",
    "iso2": "IN",
    "iso3": "IND",
    "admin_name": "West Bengal",
    "capital": "",
    "population": "1077075",
    "id": "1356986516"
  },
  {
    "city": "Rānchi",
    "city_ascii": "Ranchi",
    "lat": "23.3600",
    "lng": "85.3300",
    "country": "India",
    "iso2": "IN",
    "iso3": "IND",
    "admin_name": "Jhārkhand",
    "capital": "admin",
    "population": "1073440",
    "id": "1356110588"
  },
  {
    "city": "Gwalior",
    "city_ascii": "Gwalior",
    "lat": "26.2215",
    "lng": "78.1780",
    "country": "India",
    "iso2": "IN",
    "iso3": "IND",
    "admin_name": "Madhya Pradesh",
    "capital": "",
    "population": "1069276",
    "id": "1356363967"
  },
  {
    "city": "Vijayavāda",
    "city_ascii": "Vijayawada",
    "lat": "16.5193",
    "lng": "80.6305",
    "country": "India",
    "iso2": "IN",
    "iso3": "IND",
    "admin_name": "Andhra Pradesh",
    "capital": "",
    "population": "1048240",
    "id": "1356807575"
  },
  {
    "city": "Chandīgarh",
    "city_ascii": "Chandigarh",
    "lat": "30.7500",
    "lng": "76.7800",
    "country": "India",
    "iso2": "IN",
    "iso3": "IND",
    "admin_name": "Chandīgarh",
    "capital": "admin",
    "population": "1055450",
    "id": "1356739179"
  },
  {
    "city": "Jodhpur",
    "city_ascii": "Jodhpur",
    "lat": "26.2800",
    "lng": "73.0200",
    "country": "India",
    "iso2": "IN",
    "iso3": "IND",
    "admin_name": "Rājasthān",
    "capital": "",
    "population": "1033918",
    "id": "1356727084"
  },
  {
    "city": "Raipur",
    "city_ascii": "Raipur",
    "lat": "21.2500",
    "lng": "81.6300",
    "country": "India",
    "iso2": "IN",
    "iso3": "IND",
    "admin_name": "Chhattīsgarh",
    "capital": "admin",
    "population": "1010087",
    "id": "1356374983"
  },
  {
    "city": "Kota",
    "city_ascii": "Kota",
    "lat": "25.1800",
    "lng": "75.8300",
    "country": "India",
    "iso2": "IN",
    "iso3": "IND",
    "admin_name": "Rājasthān",
    "capital": "",
    "population": "1001694",
    "id": "1356820310"
  },
  {
    "city": "New Delhi",
    "city_ascii": "New Delhi",
    "lat": "28.6139",
    "lng": "77.2090",
    "country": "India",
    "iso2": "IN",
    "iso3": "IND",
    "admin_name": "Delhi",
    "capital": "primary",
    "population": "249998",
    "id": "1356215164"
  },
  {
    "city": "Bareilly",
    "city_ascii": "Bareilly",
    "lat": "28.3640",
    "lng": "79.4150",
    "country": "India",
    "iso2": "IN",
    "iso3": "IND",
    "admin_name": "Uttar Pradesh",
    "capital": "",
    "population": "1000000",
    "id": "1356698199"
  },
  {
    "city": "Coimbatore",
    "city_ascii": "Coimbatore",
    "lat": "11.0168",
    "lng": "76.9558",
    "country": "India",
    "iso2": "IN",
    "iso3": "IND",
    "admin_name": "Tamil Nādu",
    "capital": "",
    "population": "959823",
    "id": "1356999503"
  },
  {
    "city": "Solāpur",
    "city_ascii": "Solapur",
    "lat": "17.6800",
    "lng": "75.9200",
    "country": "India",
    "iso2": "IN",
    "iso3": "IND",
    "admin_name": "Mahārāshtra",
    "capital": "",
    "population": "951558",
    "id": "1356314385"
  },
  {
    "city": "Trichinopoly",
    "city_ascii": "Trichinopoly",
    "lat": "10.7903",
    "lng": "78.7047",
    "country": "India",
    "iso2": "IN",
    "iso3": "IND",
    "admin_name": "Tamil Nādu",
    "capital": "",
    "population": "916857",
    "id": "1356884472"
  },
  {
    "city": "Morādābād",
    "city_ascii": "Moradabad",
    "lat": "28.8389",
    "lng": "78.7769",
    "country": "India",
    "iso2": "IN",
    "iso3": "IND",
    "admin_name": "Uttar Pradesh",
    "capital": "",
    "population": "887871",
    "id": "1356269375"
  },
  {
    "city": "Tiruppūr",
    "city_ascii": "Tiruppur",
    "lat": "11.1085",
    "lng": "77.3411",
    "country": "India",
    "iso2": "IN",
    "iso3": "IND",
    "admin_name": "Tamil Nādu",
    "capital": "",
    "population": "877778",
    "id": "1356539761"
  },
  {
    "city": "Gurgaon",
    "city_ascii": "Gurgaon",
    "lat": "28.4560",
    "lng": "77.0290",
    "country": "India",
    "iso2": "IN",
    "iso3": "IND",
    "admin_name": "Haryāna",
    "capital": "",
    "population": "876824",
    "id": "1356836043"
  },
  {
    "city": "Jalandhar",
    "city_ascii": "Jalandhar",
    "lat": "31.2569",
    "lng": "75.4432",
    "country": "India",
    "iso2": "IN",
    "iso3": "IND",
    "admin_name": "Punjab",
    "capital": "",
    "population": "873725",
    "id": "1356494816"
  },
  {
    "city": "Kālkāji Devi",
    "city_ascii": "Kalkaji Devi",
    "lat": "28.5485",
    "lng": "77.2513",
    "country": "India",
    "iso2": "IN",
    "iso3": "IND",
    "admin_name": "Delhi",
    "capital": "",
    "population": "824177",
    "id": "1356264482"
  },
  {
    "city": "Bhubaneshwar",
    "city_ascii": "Bhubaneshwar",
    "lat": "20.2700",
    "lng": "85.8400",
    "country": "India",
    "iso2": "IN",
    "iso3": "IND",
    "admin_name": "Odisha",
    "capital": "admin",
    "population": "837737",
    "id": "1356140143"
  },
  {
    "city": "Bhayandar",
    "city_ascii": "Bhayandar",
    "lat": "19.2900",
    "lng": "72.8500",
    "country": "India",
    "iso2": "IN",
    "iso3": "IND",
    "admin_name": "Mahārāshtra",
    "capital": "",
    "population": "809378",
    "id": "1356019118"
  },
  {
    "city": "Māndvi",
    "city_ascii": "Mandvi",
    "lat": "19.3000",
    "lng": "72.8500",
    "country": "India",
    "iso2": "IN",
    "iso3": "IND",
    "admin_name": "Mahārāshtra",
    "capital": "",
    "population": "814655",
    "id": "1356843310"
  },
  {
    "city": "Patiāla",
    "city_ascii": "Patiala",
    "lat": "30.3400",
    "lng": "76.3800",
    "country": "India",
    "iso2": "IN",
    "iso3": "IND",
    "admin_name": "Punjab",
    "capital": "",
    "population": "763280",
    "id": "1356458416"
  },
  {
    "city": "Dhūlia",
    "city_ascii": "Dhulia",
    "lat": "20.8997",
    "lng": "74.7697",
    "country": "India",
    "iso2": "IN",
    "iso3": "IND",
    "admin_name": "Mahārāshtra",
    "capital": "",
    "population": "750000",
    "id": "1356224695"
  },
  {
    "city": "Thiruvananthapuram",
    "city_ascii": "Thiruvananthapuram",
    "lat": "8.4875",
    "lng": "76.9525",
    "country": "India",
    "iso2": "IN",
    "iso3": "IND",
    "admin_name": "Kerala",
    "capital": "admin",
    "population": "743691",
    "id": "1356024354"
  },
  {
    "city": "Bhiwandi",
    "city_ascii": "Bhiwandi",
    "lat": "19.2967",
    "lng": "73.0631",
    "country": "India",
    "iso2": "IN",
    "iso3": "IND",
    "admin_name": "Mahārāshtra",
    "capital": "",
    "population": "709665",
    "id": "1356763571"
  },
  {
    "city": "Sahāranpur",
    "city_ascii": "Saharanpur",
    "lat": "29.9640",
    "lng": "77.5460",
    "country": "India",
    "iso2": "IN",
    "iso3": "IND",
    "admin_name": "Uttar Pradesh",
    "capital": "",
    "population": "705478",
    "id": "1356139858"
  },
  {
    "city": "Warangal",
    "city_ascii": "Warangal",
    "lat": "17.9689",
    "lng": "79.5941",
    "country": "India",
    "iso2": "IN",
    "iso3": "IND",
    "admin_name": "Andhra Pradesh",
    "capital": "",
    "population": "704570",
    "id": "1356851618"
  },
  {
    "city": "Shiliguri",
    "city_ascii": "Shiliguri",
    "lat": "26.7100",
    "lng": "88.4300",
    "country": "India",
    "iso2": "IN",
    "iso3": "IND",
    "admin_name": "West Bengal",
    "capital": "",
    "population": "701489",
    "id": "1356724691"
  },
  {
    "city": "Salem",
    "city_ascii": "Salem",
    "lat": "11.6500",
    "lng": "78.1500",
    "country": "India",
    "iso2": "IN",
    "iso3": "IND",
    "admin_name": "Tamil Nādu",
    "capital": "",
    "population": "693236",
    "id": "1356567087"
  },
  {
    "city": "Vellore",
    "city_ascii": "Vellore",
    "lat": "12.9165",
    "lng": "79.1325",
    "country": "India",
    "iso2": "IN",
    "iso3": "IND",
    "admin_name": "Tamil Nādu",
    "capital": "",
    "population": "696110",
    "id": "1356977661"
  },
  {
    "city": "Kochi",
    "city_ascii": "Kochi",
    "lat": "9.9700",
    "lng": "76.2800",
    "country": "India",
    "iso2": "IN",
    "iso3": "IND",
    "admin_name": "Kerala",
    "capital": "",
    "population": "677381",
    "id": "1356707865"
  },
  {
    "city": "Gorakhpur",
    "city_ascii": "Gorakhpur",
    "lat": "26.7637",
    "lng": "83.4039",
    "country": "India",
    "iso2": "IN",
    "iso3": "IND",
    "admin_name": "Uttar Pradesh",
    "capital": "",
    "population": "673446",
    "id": "1356190221"
  },
  {
    "city": "Narela",
    "city_ascii": "Narela",
    "lat": "28.8527",
    "lng": "77.0929",
    "country": "India",
    "iso2": "IN",
    "iso3": "IND",
    "admin_name": "Delhi",
    "capital": "",
    "population": "661994",
    "id": "1356542019"
  },
  {
    "city": "Guntūr",
    "city_ascii": "Guntur",
    "lat": "16.3008",
    "lng": "80.4428",
    "country": "India",
    "iso2": "IN",
    "iso3": "IND",
    "admin_name": "Andhra Pradesh",
    "capital": "",
    "population": "647508",
    "id": "1356374905"
  },
  {
    "city": "Rasūlpur",
    "city_ascii": "Rasulpur",
    "lat": "28.5700",
    "lng": "77.3200",
    "country": "India",
    "iso2": "IN",
    "iso3": "IND",
    "admin_name": "Uttar Pradesh",
    "capital": "",
    "population": "637272",
    "id": "1356018224"
  },
  {
    "city": "Bhāvnagar",
    "city_ascii": "Bhavnagar",
    "lat": "21.7600",
    "lng": "72.1500",
    "country": "India",
    "iso2": "IN",
    "iso3": "IND",
    "admin_name": "Gujarāt",
    "capital": "",
    "population": "643365",
    "id": "1356982375"
  },
  {
    "city": "Brahmapur",
    "city_ascii": "Brahmapur",
    "lat": "19.3150",
    "lng": "84.7941",
    "country": "India",
    "iso2": "IN",
    "iso3": "IND",
    "admin_name": "Odisha",
    "capital": "",
    "population": "634220",
    "id": "1356569354"
  },
  {
    "city": "Noida",
    "city_ascii": "Noida",
    "lat": "28.57",
    "lng": "77.32",
    "country": "India",
    "iso2": "IN",
    "iso3": "IND",
    "admin_name": "Uttar Pradesh",
    "capital": "",
    "population": "637272",
    "id": "1356002491"
  },
  {
    "city": "Bhāngar",
    "city_ascii": "Bhangar",
    "lat": "22.5800",
    "lng": "88.4200",
    "country": "India",
    "iso2": "IN",
    "iso3": "IND",
    "admin_name": "West Bengal",
    "capital": "",
    "population": "632107",
    "id": "1356177796"
  },
  {
    "city": "Bhilai",
    "city_ascii": "Bhilai",
    "lat": "21.3667",
    "lng": "81.7167",
    "country": "India",
    "iso2": "IN",
    "iso3": "IND",
    "admin_name": "Chhattīsgarh",
    "capital": "",
    "population": "625700",
    "id": "1356098574"
  },
  {
    "city": "Mangalore",
    "city_ascii": "Mangalore",
    "lat": "12.9020",
    "lng": "74.8253",
    "country": "India",
    "iso2": "IN",
    "iso3": "IND",
    "admin_name": "Karnātaka",
    "capital": "",
    "population": "623841",
    "id": "1356972351"
  },
  {
    "city": "Bhilai",
    "city_ascii": "Bhilai",
    "lat": "21.2100",
    "lng": "81.3800",
    "country": "India",
    "iso2": "IN",
    "iso3": "IND",
    "admin_name": "Chhattīsgarh",
    "capital": "",
    "population": "624700",
    "id": "1356071083"
  },
  {
    "city": "Nāgercoil",
    "city_ascii": "Nagercoil",
    "lat": "8.1833",
    "lng": "77.4119",
    "country": "India",
    "iso2": "IN",
    "iso3": "IND",
    "admin_name": "Tamil Nādu",
    "capital": "",
    "population": "622759",
    "id": "1356051733"
  },
  {
    "city": "Raurkela",
    "city_ascii": "Raurkela",
    "lat": "22.2492",
    "lng": "84.8828",
    "country": "India",
    "iso2": "IN",
    "iso3": "IND",
    "admin_name": "Odisha",
    "capital": "",
    "population": "600000",
    "id": "1356096816"
  },
  {
    "city": "Cuttack",
    "city_ascii": "Cuttack",
    "lat": "20.5236",
    "lng": "85.7881",
    "country": "India",
    "iso2": "IN",
    "iso3": "IND",
    "admin_name": "Odisha",
    "capital": "",
    "population": "606007",
    "id": "1356872061"
  },
  {
    "city": "Tumkūr",
    "city_ascii": "Tumkur",
    "lat": "13.3400",
    "lng": "77.1000",
    "country": "India",
    "iso2": "IN",
    "iso3": "IND",
    "admin_name": "Karnātaka",
    "capital": "",
    "population": "599078",
    "id": "1356033724"
  },
  {
    "city": "Durgāpur",
    "city_ascii": "Durgapur",
    "lat": "23.5500",
    "lng": "87.3200",
    "country": "India",
    "iso2": "IN",
    "iso3": "IND",
    "admin_name": "West Bengal",
    "capital": "",
    "population": "581409",
    "id": "1356045686"
  },
  {
    "city": "Dehra Dūn",
    "city_ascii": "Dehra Dun",
    "lat": "30.3450",
    "lng": "78.0290",
    "country": "India",
    "iso2": "IN",
    "iso3": "IND",
    "admin_name": "Uttarākhand",
    "capital": "admin",
    "population": "578420",
    "id": "1356970407"
  },
  {
    "city": "Chāpra",
    "city_ascii": "Chapra",
    "lat": "25.7848",
    "lng": "84.7274",
    "country": "India",
    "iso2": "IN",
    "iso3": "IND",
    "admin_name": "Bihār",
    "capital": "",
    "population": "567123",
    "id": "1356147120"
  },
  {
    "city": "Āsansol",
    "city_ascii": "Asansol",
    "lat": "23.6800",
    "lng": "86.9900",
    "country": "India",
    "iso2": "IN",
    "iso3": "IND",
    "admin_name": "West Bengal",
    "capital": "",
    "population": "563917",
    "id": "1356093694"
  },
  {
    "city": "Kolhāpur",
    "city_ascii": "Kolhapur",
    "lat": "16.6917",
    "lng": "74.2333",
    "country": "India",
    "iso2": "IN",
    "iso3": "IND",
    "admin_name": "Mahārāshtra",
    "capital": "",
    "population": "561489",
    "id": "1356110593"
  },
  {
    "city": "Nellore",
    "city_ascii": "Nellore",
    "lat": "14.4500",
    "lng": "79.9900",
    "country": "India",
    "iso2": "IN",
    "iso3": "IND",
    "admin_name": "Andhra Pradesh",
    "capital": "",
    "population": "547621",
    "id": "1356280972"
  },
  {
    "city": "Nānded",
    "city_ascii": "Nanded",
    "lat": "19.1500",
    "lng": "77.3000",
    "country": "India",
    "iso2": "IN",
    "iso3": "IND",
    "admin_name": "Mahārāshtra",
    "capital": "",
    "population": "550439",
    "id": "1356722310"
  },
  {
    "city": "Ajmer",
    "city_ascii": "Ajmer",
    "lat": "26.4499",
    "lng": "74.6399",
    "country": "India",
    "iso2": "IN",
    "iso3": "IND",
    "admin_name": "Rājasthān",
    "capital": "",
    "population": "551101",
    "id": "1356058258"
  },
  {
    "city": "Amrāvati",
    "city_ascii": "Amravati",
    "lat": "20.9258",
    "lng": "77.7647",
    "country": "India",
    "iso2": "IN",
    "iso3": "IND",
    "admin_name": "Mahārāshtra",
    "capital": "",
    "population": "549370",
    "id": "1356462099"
  },
  {
    "city": "Gulbarga",
    "city_ascii": "Gulbarga",
    "lat": "17.3290",
    "lng": "76.8250",
    "country": "India",
    "iso2": "IN",
    "iso3": "IND",
    "admin_name": "Karnātaka",
    "capital": "",
    "population": "533587",
    "id": "1356091187"
  },
  {
    "city": "Bīkaner",
    "city_ascii": "Bikaner",
    "lat": "28.0167",
    "lng": "73.3119",
    "country": "India",
    "iso2": "IN",
    "iso3": "IND",
    "admin_name": "Rājasthān",
    "capital": "",
    "population": "529007",
    "id": "1356026593"
  },
  {
    "city": "Agartala",
    "city_ascii": "Agartala",
    "lat": "23.8333",
    "lng": "91.2833",
    "country": "India",
    "iso2": "IN",
    "iso3": "IND",
    "admin_name": "Tripura",
    "capital": "admin",
    "population": "522613",
    "id": "1356148992"
  },
  {
    "city": "Loni",
    "city_ascii": "Loni",
    "lat": "28.7500",
    "lng": "77.2800",
    "country": "India",
    "iso2": "IN",
    "iso3": "IND",
    "admin_name": "Uttar Pradesh",
    "capital": "",
    "population": "516082",
    "id": "1356528413"
  },
  {
    "city": "Ujjain",
    "city_ascii": "Ujjain",
    "lat": "23.1700",
    "lng": "75.7900",
    "country": "India",
    "iso2": "IN",
    "iso3": "IND",
    "admin_name": "Madhya Pradesh",
    "capital": "",
    "population": "515215",
    "id": "1356050735"
  },
  {
    "city": "Ulhāsnagar",
    "city_ascii": "Ulhasnagar",
    "lat": "19.2200",
    "lng": "73.1500",
    "country": "India",
    "iso2": "IN",
    "iso3": "IND",
    "admin_name": "Mahārāshtra",
    "capital": "",
    "population": "506098",
    "id": "1356375341"
  },
  {
    "city": "Bhīlwāra",
    "city_ascii": "Bhilwara",
    "lat": "25.3500",
    "lng": "74.6300",
    "country": "India",
    "iso2": "IN",
    "iso3": "IND",
    "admin_name": "Rājasthān",
    "capital": "",
    "population": "509483",
    "id": "1356077831"
  },
  {
    "city": "Jhānsi",
    "city_ascii": "Jhansi",
    "lat": "25.4486",
    "lng": "78.5696",
    "country": "India",
    "iso2": "IN",
    "iso3": "IND",
    "admin_name": "Uttar Pradesh",
    "capital": "",
    "population": "507000",
    "id": "1356712664"
  },
  {
    "city": "Jammu",
    "city_ascii": "Jammu",
    "lat": "32.7300",
    "lng": "74.8700",
    "country": "India",
    "iso2": "IN",
    "iso3": "IND",
    "admin_name": "Jammu and Kashmīr",
    "capital": "admin",
    "population": "502197",
    "id": "1356491738"
  },
  {
    "city": "Purnea",
    "city_ascii": "Purnea",
    "lat": "25.7780",
    "lng": "87.4760",
    "country": "India",
    "iso2": "IN",
    "iso3": "IND",
    "admin_name": "Bihār",
    "capital": "",
    "population": "496830",
    "id": "1356486511"
  },
  {
    "city": "Tinnevelly",
    "city_ascii": "Tinnevelly",
    "lat": "8.7136",
    "lng": "77.7567",
    "country": "India",
    "iso2": "IN",
    "iso3": "IND",
    "admin_name": "Tamil Nādu",
    "capital": "",
    "population": "497826",
    "id": "1356037155"
  },
  {
    "city": "Belgaum",
    "city_ascii": "Belgaum",
    "lat": "15.8500",
    "lng": "74.5000",
    "country": "India",
    "iso2": "IN",
    "iso3": "IND",
    "admin_name": "Karnātaka",
    "capital": "",
    "population": "488157",
    "id": "1356390535"
  },
  {
    "city": "Jāmnagar",
    "city_ascii": "Jamnagar",
    "lat": "22.4700",
    "lng": "70.0700",
    "country": "India",
    "iso2": "IN",
    "iso3": "IND",
    "admin_name": "Gujarāt",
    "capital": "",
    "population": "479920",
    "id": "1356104995"
  },
  {
    "city": "Gaya",
    "city_ascii": "Gaya",
    "lat": "24.7500",
    "lng": "85.0100",
    "country": "India",
    "iso2": "IN",
    "iso3": "IND",
    "admin_name": "Bihār",
    "capital": "",
    "population": "474093",
    "id": "1356045727"
  },
  {
    "city": "Ambattūr",
    "city_ascii": "Ambattur",
    "lat": "13.1143",
    "lng": "80.1548",
    "country": "India",
    "iso2": "IN",
    "iso3": "IND",
    "admin_name": "Tamil Nādu",
    "capital": "",
    "population": "466205",
    "id": "1356685959"
  },
  {
    "city": "Salt Lake City",
    "city_ascii": "Salt Lake City",
    "lat": "22.6100",
    "lng": "88.4000",
    "country": "India",
    "iso2": "IN",
    "iso3": "IND",
    "admin_name": "West Bengal",
    "capital": "",
    "population": "403316",
    "id": "1356720205"
  },
  {
    "city": "Jalgaon",
    "city_ascii": "Jalgaon",
    "lat": "21.0040",
    "lng": "75.5680",
    "country": "India",
    "iso2": "IN",
    "iso3": "IND",
    "admin_name": "Mahārāshtra",
    "capital": "",
    "population": "460468",
    "id": "1356734842"
  },
  {
    "city": "Kurnool",
    "city_ascii": "Kurnool",
    "lat": "15.8300",
    "lng": "78.0500",
    "country": "India",
    "iso2": "IN",
    "iso3": "IND",
    "admin_name": "Andhra Pradesh",
    "capital": "",
    "population": "457633",
    "id": "1356058372"
  },
  {
    "city": "Udaipur",
    "city_ascii": "Udaipur",
    "lat": "24.5800",
    "lng": "73.6800",
    "country": "India",
    "iso2": "IN",
    "iso3": "IND",
    "admin_name": "Rājasthān",
    "capital": "",
    "population": "451100",
    "id": "1356266094"
  },
  {
    "city": "Mathura",
    "city_ascii": "Mathura",
    "lat": "27.4925",
    "lng": "77.6736",
    "country": "India",
    "iso2": "IN",
    "iso3": "IND",
    "admin_name": "Uttar Pradesh",
    "capital": "",
    "population": "441894",
    "id": "1356066081"
  },
  {
    "city": "Sāngli",
    "city_ascii": "Sangli",
    "lat": "16.8667",
    "lng": "74.5667",
    "country": "India",
    "iso2": "IN",
    "iso3": "IND",
    "admin_name": "Mahārāshtra",
    "capital": "",
    "population": "436639",
    "id": "1356921375"
  },
  {
    "city": "Davangere",
    "city_ascii": "Davangere",
    "lat": "14.4666",
    "lng": "75.9242",
    "country": "India",
    "iso2": "IN",
    "iso3": "IND",
    "admin_name": "Karnātaka",
    "capital": "",
    "population": "435125",
    "id": "1356445061"
  },
  {
    "city": "Calicut",
    "city_ascii": "Calicut",
    "lat": "11.2500",
    "lng": "75.7700",
    "country": "India",
    "iso2": "IN",
    "iso3": "IND",
    "admin_name": "Kerala",
    "capital": "minor",
    "population": "431560",
    "id": "1356010401"
  },
  {
    "city": "Akola",
    "city_ascii": "Akola",
    "lat": "20.7000",
    "lng": "77.0000",
    "country": "India",
    "iso2": "IN",
    "iso3": "IND",
    "admin_name": "Mahārāshtra",
    "capital": "",
    "population": "425817",
    "id": "1356089496"
  },
  {
    "city": "Bettiah",
    "city_ascii": "Bettiah",
    "lat": "26.8014",
    "lng": "84.5028",
    "country": "India",
    "iso2": "IN",
    "iso3": "IND",
    "admin_name": "Bihār",
    "capital": "",
    "population": "414453",
    "id": "1356590604"
  },
  {
    "city": "Delhi Cantonment",
    "city_ascii": "Delhi Cantonment",
    "lat": "28.6000",
    "lng": "77.1333",
    "country": "India",
    "iso2": "IN",
    "iso3": "IND",
    "admin_name": "Delhi",
    "capital": "",
    "population": "405633",
    "id": "1356526853"
  },
  {
    "city": "Shorāpur",
    "city_ascii": "Shorapur",
    "lat": "16.5200",
    "lng": "76.7600",
    "country": "India",
    "iso2": "IN",
    "iso3": "IND",
    "admin_name": "Karnātaka",
    "capital": "",
    "population": "412291",
    "id": "1356512373"
  },
  {
    "city": "Bhāgalpur",
    "city_ascii": "Bhagalpur",
    "lat": "25.2500",
    "lng": "87.0000",
    "country": "India",
    "iso2": "IN",
    "iso3": "IND",
    "admin_name": "Bihār",
    "capital": "",
    "population": "410210",
    "id": "1356760990"
  },
  {
    "city": "Bellary",
    "city_ascii": "Bellary",
    "lat": "15.1000",
    "lng": "76.9167",
    "country": "India",
    "iso2": "IN",
    "iso3": "IND",
    "admin_name": "Karnātaka",
    "capital": "",
    "population": "410445",
    "id": "1356209152"
  },
  {
    "city": "Padiāla",
    "city_ascii": "Padiala",
    "lat": "30.5667",
    "lng": "76.6333",
    "country": "India",
    "iso2": "IN",
    "iso3": "IND",
    "admin_name": "Punjab",
    "capital": "",
    "population": "406192",
    "id": "1356667176"
  },
  {
    "city": "Quilon",
    "city_ascii": "Quilon",
    "lat": "8.8800",
    "lng": "76.6000",
    "country": "India",
    "iso2": "IN",
    "iso3": "IND",
    "admin_name": "Kerala",
    "capital": "",
    "population": "397419",
    "id": "1356304110"
  },
  {
    "city": "Kūkatpalli",
    "city_ascii": "Kukatpalli",
    "lat": "17.4849",
    "lng": "78.4138",
    "country": "India",
    "iso2": "IN",
    "iso3": "IND",
    "admin_name": "Andhra Pradesh",
    "capital": "",
    "population": "385821",
    "id": "1356553747"
  },
  {
    "city": "Bhātpāra",
    "city_ascii": "Bhatpara",
    "lat": "22.8700",
    "lng": "88.4100",
    "country": "India",
    "iso2": "IN",
    "iso3": "IND",
    "admin_name": "West Bengal",
    "capital": "",
    "population": "386019",
    "id": "1356022456"
  },
  {
    "city": "Hazāribāgh",
    "city_ascii": "Hazaribagh",
    "lat": "23.9800",
    "lng": "85.3500",
    "country": "India",
    "iso2": "IN",
    "iso3": "IND",
    "admin_name": "Jhārkhand",
    "capital": "",
    "population": "394532",
    "id": "1356960055"
  },
  {
    "city": "Kākināda",
    "city_ascii": "Kakinada",
    "lat": "16.9661",
    "lng": "82.2550",
    "country": "India",
    "iso2": "IN",
    "iso3": "IND",
    "admin_name": "Andhra Pradesh",
    "capital": "",
    "population": "384182",
    "id": "1356573609"
  },
  {
    "city": "Darbhanga",
    "city_ascii": "Darbhanga",
    "lat": "26.1700",
    "lng": "85.9000",
    "country": "India",
    "iso2": "IN",
    "iso3": "IND",
    "admin_name": "Bihār",
    "capital": "",
    "population": "380125",
    "id": "1356846195"
  },
  {
    "city": "Sirūr",
    "city_ascii": "Sirur",
    "lat": "18.8300",
    "lng": "74.3800",
    "country": "India",
    "iso2": "IN",
    "iso3": "IND",
    "admin_name": "Mahārāshtra",
    "capital": "",
    "population": "385414",
    "id": "1356926718"
  },
  {
    "city": "Sardārshahr",
    "city_ascii": "Sardarshahr",
    "lat": "28.4401",
    "lng": "74.4908",
    "country": "India",
    "iso2": "IN",
    "iso3": "IND",
    "admin_name": "Rājasthān",
    "capital": "",
    "population": "382474",
    "id": "1356932502"
  },
  {
    "city": "Pānihāti",
    "city_ascii": "Panihati",
    "lat": "22.6900",
    "lng": "88.3700",
    "country": "India",
    "iso2": "IN",
    "iso3": "IND",
    "admin_name": "West Bengal",
    "capital": "",
    "population": "377347",
    "id": "1356118632"
  },
  {
    "city": "Rohtak",
    "city_ascii": "Rohtak",
    "lat": "28.8909",
    "lng": "76.5796",
    "country": "India",
    "iso2": "IN",
    "iso3": "IND",
    "admin_name": "Haryāna",
    "capital": "",
    "population": "374292",
    "id": "1356162915"
  },
  {
    "city": "Māler Kotla",
    "city_ascii": "Maler Kotla",
    "lat": "30.5167",
    "lng": "75.8833",
    "country": "India",
    "iso2": "IN",
    "iso3": "IND",
    "admin_name": "Punjab",
    "capital": "",
    "population": "374000",
    "id": "1356847218"
  },
  {
    "city": "Korba",
    "city_ascii": "Korba",
    "lat": "22.3500",
    "lng": "82.6800",
    "country": "India",
    "iso2": "IN",
    "iso3": "IND",
    "admin_name": "Chhattīsgarh",
    "capital": "",
    "population": "365253",
    "id": "1356093877"
  },
  {
    "city": "Dāsarhalli",
    "city_ascii": "Dasarhalli",
    "lat": "13.0465",
    "lng": "77.5130",
    "country": "India",
    "iso2": "IN",
    "iso3": "IND",
    "admin_name": "Karnātaka",
    "capital": "",
    "population": "349720",
    "id": "1356103194"
  },
  {
    "city": "Sīkar",
    "city_ascii": "Sikar",
    "lat": "27.6200",
    "lng": "75.1500",
    "country": "India",
    "iso2": "IN",
    "iso3": "IND",
    "admin_name": "Rājasthān",
    "capital": "",
    "population": "359293",
    "id": "1356163729"
  },
  {
    "city": "Sasarām",
    "city_ascii": "Sasaram",
    "lat": "24.9500",
    "lng": "84.0300",
    "country": "India",
    "iso2": "IN",
    "iso3": "IND",
    "admin_name": "Bihār",
    "capital": "",
    "population": "358283",
    "id": "1356061200"
  },
  {
    "city": "Karūr",
    "city_ascii": "Karur",
    "lat": "10.9601",
    "lng": "78.0766",
    "country": "India",
    "iso2": "IN",
    "iso3": "IND",
    "admin_name": "Tamil Nādu",
    "capital": "",
    "population": "358468",
    "id": "1356837900"
  },
  {
    "city": "Karnāl",
    "city_ascii": "Karnal",
    "lat": "29.6860",
    "lng": "76.9890",
    "country": "India",
    "iso2": "IN",
    "iso3": "IND",
    "admin_name": "Haryāna",
    "capital": "",
    "population": "357334",
    "id": "1356145204"
  },
  {
    "city": "Chānda",
    "city_ascii": "Chanda",
    "lat": "19.9500",
    "lng": "79.2970",
    "country": "India",
    "iso2": "IN",
    "iso3": "IND",
    "admin_name": "Mahārāshtra",
    "capital": "",
    "population": "355739",
    "id": "1356592607"
  },
  {
    "city": "Ahmadnagar",
    "city_ascii": "Ahmadnagar",
    "lat": "19.0800",
    "lng": "74.7300",
    "country": "India",
    "iso2": "IN",
    "iso3": "IND",
    "admin_name": "Mahārāshtra",
    "capital": "",
    "population": "350859",
    "id": "1356972679"
  },
  {
    "city": "Āvadi",
    "city_ascii": "Avadi",
    "lat": "13.1097",
    "lng": "80.0972",
    "country": "India",
    "iso2": "IN",
    "iso3": "IND",
    "admin_name": "Tamil Nādu",
    "capital": "",
    "population": "345996",
    "id": "1356009111"
  },
  {
    "city": "Rājahmundry",
    "city_ascii": "Rajahmundry",
    "lat": "16.9800",
    "lng": "81.7800",
    "country": "India",
    "iso2": "IN",
    "iso3": "IND",
    "admin_name": "Andhra Pradesh",
    "capital": "",
    "population": "341831",
    "id": "1356831716"
  },
  {
    "city": "Shāhjānpur",
    "city_ascii": "Shahjanpur",
    "lat": "27.8800",
    "lng": "79.9100",
    "country": "India",
    "iso2": "IN",
    "iso3": "IND",
    "admin_name": "Uttar Pradesh",
    "capital": "",
    "population": "346103",
    "id": "1356415439"
  },
  {
    "city": "Hosūr",
    "city_ascii": "Hosur",
    "lat": "12.7409",
    "lng": "77.8253",
    "country": "India",
    "iso2": "IN",
    "iso3": "IND",
    "admin_name": "Tamil Nādu",
    "capital": "",
    "population": "345000",
    "id": "1356829362"
  },
  {
    "city": "Cuddapah",
    "city_ascii": "Cuddapah",
    "lat": "14.4700",
    "lng": "78.8200",
    "country": "India",
    "iso2": "IN",
    "iso3": "IND",
    "admin_name": "Andhra Pradesh",
    "capital": "",
    "population": "344893",
    "id": "1356360140"
  },
  {
    "city": "Muzaffarpur",
    "city_ascii": "Muzaffarpur",
    "lat": "26.1225",
    "lng": "85.3906",
    "country": "India",
    "iso2": "IN",
    "iso3": "IND",
    "admin_name": "Bihār",
    "capital": "",
    "population": "333200",
    "id": "1356897425"
  },
  {
    "city": "Alwar",
    "city_ascii": "Alwar",
    "lat": "27.5498",
    "lng": "76.6355",
    "country": "India",
    "iso2": "IN",
    "iso3": "IND",
    "admin_name": "Rājasthān",
    "capital": "",
    "population": "341422",
    "id": "1356570855"
  },
  {
    "city": "Sambalpur",
    "city_ascii": "Sambalpur",
    "lat": "21.4700",
    "lng": "83.9700",
    "country": "India",
    "iso2": "IN",
    "iso3": "IND",
    "admin_name": "Odisha",
    "capital": "",
    "population": "335761",
    "id": "1356772339"
  },
  {
    "city": "Kāmārhāti",
    "city_ascii": "Kamarhati",
    "lat": "22.6686",
    "lng": "88.3704",
    "country": "India",
    "iso2": "IN",
    "iso3": "IND",
    "admin_name": "West Bengal",
    "capital": "",
    "population": "330211",
    "id": "1356676559"
  },
  {
    "city": "Rāmpur",
    "city_ascii": "Rampur",
    "lat": "28.8000",
    "lng": "79.0000",
    "country": "India",
    "iso2": "IN",
    "iso3": "IND",
    "admin_name": "Uttar Pradesh",
    "capital": "",
    "population": "325248",
    "id": "1356666569"
  },
  {
    "city": "Bijāpur",
    "city_ascii": "Bijapur",
    "lat": "16.8300",
    "lng": "75.7100",
    "country": "India",
    "iso2": "IN",
    "iso3": "IND",
    "admin_name": "Karnātaka",
    "capital": "",
    "population": "327427",
    "id": "1356499139"
  },
  {
    "city": "Tharād",
    "city_ascii": "Tharad",
    "lat": "24.3926",
    "lng": "71.6248",
    "country": "India",
    "iso2": "IN",
    "iso3": "IND",
    "admin_name": "Gujarāt",
    "capital": "",
    "population": "327289",
    "id": "1356055796"
  },
  {
    "city": "Ratnāgiri",
    "city_ascii": "Ratnagiri",
    "lat": "16.9944",
    "lng": "73.3000",
    "country": "India",
    "iso2": "IN",
    "iso3": "IND",
    "admin_name": "Mahārāshtra",
    "capital": "",
    "population": "327120",
    "id": "1356990175"
  },
  {
    "city": "Shimoga",
    "city_ascii": "Shimoga",
    "lat": "13.9333",
    "lng": "75.5667",
    "country": "India",
    "iso2": "IN",
    "iso3": "IND",
    "admin_name": "Karnātaka",
    "capital": "",
    "population": "322650",
    "id": "1356016156"
  },
  {
    "city": "Jūnāgadh",
    "city_ascii": "Junagadh",
    "lat": "21.5200",
    "lng": "70.4630",
    "country": "India",
    "iso2": "IN",
    "iso3": "IND",
    "admin_name": "Gujarāt",
    "capital": "",
    "population": "320250",
    "id": "1356057451"
  },
  {
    "city": "Hāpur",
    "city_ascii": "Hapur",
    "lat": "28.7309",
    "lng": "77.7757",
    "country": "India",
    "iso2": "IN",
    "iso3": "IND",
    "admin_name": "Uttar Pradesh",
    "capital": "",
    "population": "317004",
    "id": "1356820012"
  },
  {
    "city": "Trichūr",
    "city_ascii": "Trichur",
    "lat": "10.5200",
    "lng": "76.2100",
    "country": "India",
    "iso2": "IN",
    "iso3": "IND",
    "admin_name": "Kerala",
    "capital": "",
    "population": "315596",
    "id": "1356589298"
  },
  {
    "city": "Barddhamān",
    "city_ascii": "Barddhaman",
    "lat": "23.2333",
    "lng": "87.8667",
    "country": "India",
    "iso2": "IN",
    "iso3": "IND",
    "admin_name": "West Bengal",
    "capital": "",
    "population": "314265",
    "id": "1356062166"
  },
  {
    "city": "Panvel",
    "city_ascii": "Panvel",
    "lat": "18.9944",
    "lng": "73.1139",
    "country": "India",
    "iso2": "IN",
    "iso3": "IND",
    "admin_name": "Mahārāshtra",
    "capital": "",
    "population": "311434",
    "id": "1356424574"
  },
  {
    "city": "Nizāmābād",
    "city_ascii": "Nizamabad",
    "lat": "18.6720",
    "lng": "78.0940",
    "country": "India",
    "iso2": "IN",
    "iso3": "IND",
    "admin_name": "Andhra Pradesh",
    "capital": "",
    "population": "311152",
    "id": "1356242168"
  },
  {
    "city": "Oulgaret",
    "city_ascii": "Oulgaret",
    "lat": "11.9570",
    "lng": "79.7737",
    "country": "India",
    "iso2": "IN",
    "iso3": "IND",
    "admin_name": "Puducherry",
    "capital": "",
    "population": "300104",
    "id": "1356242623"
  },
  {
    "city": "Parbhani",
    "city_ascii": "Parbhani",
    "lat": "19.2700",
    "lng": "76.7800",
    "country": "India",
    "iso2": "IN",
    "iso3": "IND",
    "admin_name": "Mahārāshtra",
    "capital": "",
    "population": "307170",
    "id": "1356632842"
  },
  {
    "city": "Hisar",
    "city_ascii": "Hisar",
    "lat": "29.1500",
    "lng": "75.7000",
    "country": "India",
    "iso2": "IN",
    "iso3": "IND",
    "admin_name": "Haryāna",
    "capital": "",
    "population": "307024",
    "id": "1356004790"
  },
  {
    "city": "Māldah",
    "city_ascii": "Maldah",
    "lat": "25.0119",
    "lng": "88.1433",
    "country": "India",
    "iso2": "IN",
    "iso3": "IND",
    "admin_name": "West Bengal",
    "capital": "",
    "population": "300088",
    "id": "1356350335"
  },
  {
    "city": "Bada Barabīl",
    "city_ascii": "Bada Barabil",
    "lat": "22.1200",
    "lng": "85.4000",
    "country": "India",
    "iso2": "IN",
    "iso3": "IND",
    "admin_name": "Odisha",
    "capital": "",
    "population": "300000",
    "id": "1356293872"
  },
  {
    "city": "Bihār",
    "city_ascii": "Bihar",
    "lat": "25.1970",
    "lng": "85.5180",
    "country": "India",
    "iso2": "IN",
    "iso3": "IND",
    "admin_name": "Bihār",
    "capital": "",
    "population": "297268",
    "id": "1356002333"
  },
  {
    "city": "Sikandarābād",
    "city_ascii": "Sikandarabad",
    "lat": "28.4512",
    "lng": "77.6955",
    "country": "India",
    "iso2": "IN",
    "iso3": "IND",
    "admin_name": "Uttar Pradesh",
    "capital": "",
    "population": "294858",
    "id": "1356989226"
  },
  {
    "city": "Bāli",
    "city_ascii": "Bali",
    "lat": "22.6500",
    "lng": "88.3400",
    "country": "India",
    "iso2": "IN",
    "iso3": "IND",
    "admin_name": "West Bengal",
    "capital": "",
    "population": "293373",
    "id": "1356113138"
  },
  {
    "city": "Pānīpat",
    "city_ascii": "Panipat",
    "lat": "29.3875",
    "lng": "76.9700",
    "country": "India",
    "iso2": "IN",
    "iso3": "IND",
    "admin_name": "Haryāna",
    "capital": "",
    "population": "294292",
    "id": "1356526780"
  },
  {
    "city": "Āīzawl",
    "city_ascii": "Aizawl",
    "lat": "23.7272",
    "lng": "92.7178",
    "country": "India",
    "iso2": "IN",
    "iso3": "IND",
    "admin_name": "Mizoram",
    "capital": "admin",
    "population": "293416",
    "id": "1356342768"
  },
  {
    "city": "Sonpur",
    "city_ascii": "Sonpur",
    "lat": "25.7000",
    "lng": "85.1800",
    "country": "India",
    "iso2": "IN",
    "iso3": "IND",
    "admin_name": "Bihār",
    "capital": "",
    "population": "288102",
    "id": "1356149014"
  },
  {
    "city": "Karīmnagar",
    "city_ascii": "Karimnagar",
    "lat": "18.4386",
    "lng": "79.1288",
    "country": "India",
    "iso2": "IN",
    "iso3": "IND",
    "admin_name": "Andhra Pradesh",
    "capital": "",
    "population": "289821",
    "id": "1356578937"
  },
  {
    "city": "Sonīpat",
    "city_ascii": "Sonipat",
    "lat": "28.9900",
    "lng": "77.0220",
    "country": "India",
    "iso2": "IN",
    "iso3": "IND",
    "admin_name": "Haryāna",
    "capital": "",
    "population": "289333",
    "id": "1356648808"
  },
  {
    "city": "Dewās",
    "city_ascii": "Dewas",
    "lat": "22.9600",
    "lng": "76.0600",
    "country": "India",
    "iso2": "IN",
    "iso3": "IND",
    "admin_name": "Madhya Pradesh",
    "capital": "",
    "population": "289550",
    "id": "1356065731"
  },
  {
    "city": "Ichalkaranji",
    "city_ascii": "Ichalkaranji",
    "lat": "16.7000",
    "lng": "74.4700",
    "country": "India",
    "iso2": "IN",
    "iso3": "IND",
    "admin_name": "Mahārāshtra",
    "capital": "",
    "population": "287570",
    "id": "1356651502"
  },
  {
    "city": "Bhatinda",
    "city_ascii": "Bhatinda",
    "lat": "30.2300",
    "lng": "74.9519",
    "country": "India",
    "iso2": "IN",
    "iso3": "IND",
    "admin_name": "Punjab",
    "capital": "",
    "population": "285813",
    "id": "1356343054"
  },
  {
    "city": "Jālna",
    "city_ascii": "Jalna",
    "lat": "19.8410",
    "lng": "75.8864",
    "country": "India",
    "iso2": "IN",
    "iso3": "IND",
    "admin_name": "Mahārāshtra",
    "capital": "",
    "population": "285577",
    "id": "1356730545"
  },
  {
    "city": "Sannai",
    "city_ascii": "Sannai",
    "lat": "24.5984",
    "lng": "80.8281",
    "country": "India",
    "iso2": "IN",
    "iso3": "IND",
    "admin_name": "Madhya Pradesh",
    "capital": "",
    "population": "283004",
    "id": "1356009968"
  },
  {
    "city": "Satna",
    "city_ascii": "Satna",
    "lat": "24.6005",
    "lng": "80.8322",
    "country": "India",
    "iso2": "IN",
    "iso3": "IND",
    "admin_name": "Madhya Pradesh",
    "capital": "",
    "population": "280222",
    "id": "1356008295"
  },
  {
    "city": "Mau",
    "city_ascii": "Mau",
    "lat": "25.9417",
    "lng": "83.5611",
    "country": "India",
    "iso2": "IN",
    "iso3": "IND",
    "admin_name": "Uttar Pradesh",
    "capital": "",
    "population": "278745",
    "id": "1356238859"
  },
  {
    "city": "Bārāsat",
    "city_ascii": "Barasat",
    "lat": "22.7200",
    "lng": "88.4800",
    "country": "India",
    "iso2": "IN",
    "iso3": "IND",
    "admin_name": "West Bengal",
    "capital": "",
    "population": "278435",
    "id": "1356644721"
  },
  {
    "city": "Farrukhābād",
    "city_ascii": "Farrukhabad",
    "lat": "27.3900",
    "lng": "79.5810",
    "country": "India",
    "iso2": "IN",
    "iso3": "IND",
    "admin_name": "Uttar Pradesh",
    "capital": "",
    "population": "275754",
    "id": "1356776384"
  },
  {
    "city": "Saugor",
    "city_ascii": "Saugor",
    "lat": "23.8300",
    "lng": "78.7100",
    "country": "India",
    "iso2": "IN",
    "iso3": "IND",
    "admin_name": "Madhya Pradesh",
    "capital": "",
    "population": "274556",
    "id": "1356781800"
  },
  {
    "city": "Ratlām",
    "city_ascii": "Ratlam",
    "lat": "23.3340",
    "lng": "75.0370",
    "country": "India",
    "iso2": "IN",
    "iso3": "IND",
    "admin_name": "Madhya Pradesh",
    "capital": "",
    "population": "273892",
    "id": "1356241663"
  },
  {
    "city": "Drug",
    "city_ascii": "Drug",
    "lat": "21.1900",
    "lng": "81.2800",
    "country": "India",
    "iso2": "IN",
    "iso3": "IND",
    "admin_name": "Chhattīsgarh",
    "capital": "",
    "population": "268806",
    "id": "1356910418"
  },
  {
    "city": "Handwāra",
    "city_ascii": "Handwara",
    "lat": "34.4000",
    "lng": "74.2800",
    "country": "India",
    "iso2": "IN",
    "iso3": "IND",
    "admin_name": "Jammu and Kashmīr",
    "capital": "",
    "population": "269311",
    "id": "1356080179"
  },
  {
    "city": "Imphāl",
    "city_ascii": "Imphal",
    "lat": "24.8074",
    "lng": "93.9384",
    "country": "India",
    "iso2": "IN",
    "iso3": "IND",
    "admin_name": "Manipur",
    "capital": "admin",
    "population": "264986",
    "id": "1356107172"
  },
  {
    "city": "Anantapur",
    "city_ascii": "Anantapur",
    "lat": "14.6800",
    "lng": "77.5990",
    "country": "India",
    "iso2": "IN",
    "iso3": "IND",
    "admin_name": "Andhra Pradesh",
    "capital": "",
    "population": "267161",
    "id": "1356296545"
  },
  {
    "city": "Arrah",
    "city_ascii": "Arrah",
    "lat": "25.5514",
    "lng": "84.6603",
    "country": "India",
    "iso2": "IN",
    "iso3": "IND",
    "admin_name": "Bihār",
    "capital": "",
    "population": "261430",
    "id": "1356085605"
  },
  {
    "city": "Malkājgiri",
    "city_ascii": "Malkajgiri",
    "lat": "17.4519",
    "lng": "78.5362",
    "country": "India",
    "iso2": "IN",
    "iso3": "IND",
    "admin_name": "Andhra Pradesh",
    "capital": "",
    "population": "255899",
    "id": "1356092535"
  },
  {
    "city": "Tiruvottiyūr",
    "city_ascii": "Tiruvottiyur",
    "lat": "13.1600",
    "lng": "80.3000",
    "country": "India",
    "iso2": "IN",
    "iso3": "IND",
    "admin_name": "Tamil Nādu",
    "capital": "",
    "population": "249446",
    "id": "1356964110"
  },
  {
    "city": "Etāwah",
    "city_ascii": "Etawah",
    "lat": "26.7700",
    "lng": "79.0300",
    "country": "India",
    "iso2": "IN",
    "iso3": "IND",
    "admin_name": "Uttar Pradesh",
    "capital": "",
    "population": "256838",
    "id": "1356241312"
  },
  {
    "city": "Puducherry",
    "city_ascii": "Puducherry",
    "lat": "11.9167",
    "lng": "79.8167",
    "country": "India",
    "iso2": "IN",
    "iso3": "IND",
    "admin_name": "Puducherry",
    "capital": "admin",
    "population": "244377",
    "id": "1356368903"
  },
  {
    "city": "Byatarayanpur",
    "city_ascii": "Byatarayanpur",
    "lat": "13.0659",
    "lng": "77.5922",
    "country": "India",
    "iso2": "IN",
    "iso3": "IND",
    "admin_name": "Karnātaka",
    "capital": "",
    "population": "239902",
    "id": "1356590852"
  },
  {
    "city": "Bharatpur",
    "city_ascii": "Bharatpur",
    "lat": "27.2200",
    "lng": "77.4800",
    "country": "India",
    "iso2": "IN",
    "iso3": "IND",
    "admin_name": "Rājasthān",
    "capital": "",
    "population": "252342",
    "id": "1356168278"
  },
  {
    "city": "Gadda Madiral",
    "city_ascii": "Gadda Madiral",
    "lat": "18.7519",
    "lng": "79.5133",
    "country": "India",
    "iso2": "IN",
    "iso3": "IND",
    "admin_name": "Andhra Pradesh",
    "capital": "",
    "population": "252693",
    "id": "1356055274"
  },
  {
    "city": "Jūnāgarh",
    "city_ascii": "Junagarh",
    "lat": "19.8599",
    "lng": "82.9338",
    "country": "India",
    "iso2": "IN",
    "iso3": "IND",
    "admin_name": "Chhattīsgarh",
    "capital": "",
    "population": "251842",
    "id": "1356057455"
  },
  {
    "city": "Begusarai",
    "city_ascii": "Begusarai",
    "lat": "25.4200",
    "lng": "86.1300",
    "country": "India",
    "iso2": "IN",
    "iso3": "IND",
    "admin_name": "Bihār",
    "capital": "",
    "population": "252008",
    "id": "1356619346"
  },
  {
    "city": "Gāndhīdhām",
    "city_ascii": "Gandhidham",
    "lat": "23.0800",
    "lng": "70.1300",
    "country": "India",
    "iso2": "IN",
    "iso3": "IND",
    "admin_name": "Gujarāt",
    "capital": "",
    "population": "248705",
    "id": "1356140913"
  },
  {
    "city": "Rāmnagar",
    "city_ascii": "Ramnagar",
    "lat": "27.1700",
    "lng": "84.3200",
    "country": "India",
    "iso2": "IN",
    "iso3": "IND",
    "admin_name": "Bihār",
    "capital": "",
    "population": "249102",
    "id": "1356673115"
  },
  {
    "city": "Katihār",
    "city_ascii": "Katihar",
    "lat": "25.5300",
    "lng": "87.5800",
    "country": "India",
    "iso2": "IN",
    "iso3": "IND",
    "admin_name": "Bihār",
    "capital": "",
    "population": "240565",
    "id": "1356099841"
  },
  {
    "city": "Krishnarājpur",
    "city_ascii": "Krishnarajpur",
    "lat": "13.0120",
    "lng": "77.6951",
    "country": "India",
    "iso2": "IN",
    "iso3": "IND",
    "admin_name": "Karnātaka",
    "capital": "",
    "population": "245797",
    "id": "1356007149"
  },
  {
    "city": "Nelamangala",
    "city_ascii": "Nelamangala",
    "lat": "13.1020",
    "lng": "77.3740",
    "country": "India",
    "iso2": "IN",
    "iso3": "IND",
    "admin_name": "Karnātaka",
    "capital": "",
    "population": "245624",
    "id": "1356943451"
  },
  {
    "city": "Singrauliya",
    "city_ascii": "Singrauliya",
    "lat": "24.1100",
    "lng": "82.3900",
    "country": "India",
    "iso2": "IN",
    "iso3": "IND",
    "admin_name": "Madhya Pradesh",
    "capital": "",
    "population": "244450",
    "id": "1356985698"
  },
  {
    "city": "Rāmgundam",
    "city_ascii": "Ramgundam",
    "lat": "18.7639",
    "lng": "79.4750",
    "country": "India",
    "iso2": "IN",
    "iso3": "IND",
    "admin_name": "Andhra Pradesh",
    "capital": "",
    "population": "242979",
    "id": "1356590864"
  },
  {
    "city": "Pandharpur",
    "city_ascii": "Pandharpur",
    "lat": "17.6778",
    "lng": "75.3278",
    "country": "India",
    "iso2": "IN",
    "iso3": "IND",
    "admin_name": "Mahārāshtra",
    "capital": "",
    "population": "242515",
    "id": "1356852072"
  },
  {
    "city": "Masaurhi Buzurg",
    "city_ascii": "Masaurhi Buzurg",
    "lat": "25.3500",
    "lng": "85.0200",
    "country": "India",
    "iso2": "IN",
    "iso3": "IND",
    "admin_name": "Bihār",
    "capital": "",
    "population": "241216",
    "id": "1356191575"
  },
  {
    "city": "Tuticorin",
    "city_ascii": "Tuticorin",
    "lat": "8.7642",
    "lng": "78.1348",
    "country": "India",
    "iso2": "IN",
    "iso3": "IND",
    "admin_name": "Tamil Nādu",
    "capital": "",
    "population": "237830",
    "id": "1356751023"
  },
  {
    "city": "Gangānagar",
    "city_ascii": "Ganganagar",
    "lat": "29.9200",
    "lng": "73.8800",
    "country": "India",
    "iso2": "IN",
    "iso3": "IND",
    "admin_name": "Rājasthān",
    "capital": "",
    "population": "237780",
    "id": "1356431302"
  },
  {
    "city": "Rewa",
    "city_ascii": "Rewa",
    "lat": "24.5300",
    "lng": "81.3000",
    "country": "India",
    "iso2": "IN",
    "iso3": "IND",
    "admin_name": "Madhya Pradesh",
    "capital": "",
    "population": "236519",
    "id": "1356642255"
  },
  {
    "city": "Uluberiya",
    "city_ascii": "Uluberiya",
    "lat": "22.4700",
    "lng": "88.1100",
    "country": "India",
    "iso2": "IN",
    "iso3": "IND",
    "admin_name": "West Bengal",
    "capital": "",
    "population": "235345",
    "id": "1356354610"
  },
  {
    "city": "Bulandshahr",
    "city_ascii": "Bulandshahr",
    "lat": "28.4069",
    "lng": "77.8497",
    "country": "India",
    "iso2": "IN",
    "iso3": "IND",
    "admin_name": "Uttar Pradesh",
    "capital": "",
    "population": "235310",
    "id": "1356067648"
  },
  {
    "city": "Cannanore",
    "city_ascii": "Cannanore",
    "lat": "11.8689",
    "lng": "75.3555",
    "country": "India",
    "iso2": "IN",
    "iso3": "IND",
    "admin_name": "Kerala",
    "capital": "",
    "population": "232486",
    "id": "1356147157"
  },
  {
    "city": "Rāichūr",
    "city_ascii": "Raichur",
    "lat": "16.2000",
    "lng": "77.3700",
    "country": "India",
    "iso2": "IN",
    "iso3": "IND",
    "admin_name": "Karnātaka",
    "capital": "",
    "population": "232456",
    "id": "1356217280"
  },
  {
    "city": "Vizianagaram",
    "city_ascii": "Vizianagaram",
    "lat": "18.1159",
    "lng": "83.4060",
    "country": "India",
    "iso2": "IN",
    "iso3": "IND",
    "admin_name": "Andhra Pradesh",
    "capital": "",
    "population": "228720",
    "id": "1356212761"
  },
  {
    "city": "Pāli",
    "city_ascii": "Pali",
    "lat": "25.7700",
    "lng": "73.3300",
    "country": "India",
    "iso2": "IN",
    "iso3": "IND",
    "admin_name": "Rājasthān",
    "capital": "",
    "population": "229956",
    "id": "1356212172"
  },
  {
    "city": "Songadh",
    "city_ascii": "Songadh",
    "lat": "21.1670",
    "lng": "73.5640",
    "country": "India",
    "iso2": "IN",
    "iso3": "IND",
    "admin_name": "Gujarāt",
    "capital": "",
    "population": "229782",
    "id": "1356550633"
  },
  {
    "city": "Haridwār",
    "city_ascii": "Haridwar",
    "lat": "29.9450",
    "lng": "78.1630",
    "country": "India",
    "iso2": "IN",
    "iso3": "IND",
    "admin_name": "Uttarākhand",
    "capital": "",
    "population": "228832",
    "id": "1356090741"
  },
  {
    "city": "Pāthardi",
    "city_ascii": "Pathardi",
    "lat": "19.1700",
    "lng": "75.1800",
    "country": "India",
    "iso2": "IN",
    "iso3": "IND",
    "admin_name": "Mahārāshtra",
    "capital": "",
    "population": "228279",
    "id": "1356126088"
  },
  {
    "city": "Petlād",
    "city_ascii": "Petlad",
    "lat": "22.4700",
    "lng": "72.8000",
    "country": "India",
    "iso2": "IN",
    "iso3": "IND",
    "admin_name": "Gujarāt",
    "capital": "",
    "population": "227031",
    "id": "1356943594"
  },
  {
    "city": "Khatīma",
    "city_ascii": "Khatima",
    "lat": "28.9200",
    "lng": "79.9700",
    "country": "India",
    "iso2": "IN",
    "iso3": "IND",
    "admin_name": "Uttarākhand",
    "capital": "",
    "population": "227226",
    "id": "1356442679"
  },
  {
    "city": "Pallāvaram",
    "city_ascii": "Pallavaram",
    "lat": "12.9675",
    "lng": "80.1491",
    "country": "India",
    "iso2": "IN",
    "iso3": "IND",
    "admin_name": "Tamil Nādu",
    "capital": "",
    "population": "215417",
    "id": "1356057661"
  },
  {
    "city": "Nadiād",
    "city_ascii": "Nadiad",
    "lat": "22.6900",
    "lng": "72.8600",
    "country": "India",
    "iso2": "IN",
    "iso3": "IND",
    "admin_name": "Gujarāt",
    "capital": "",
    "population": "225132",
    "id": "1356992385"
  },
  {
    "city": "Tanjore",
    "city_ascii": "Tanjore",
    "lat": "10.7870",
    "lng": "79.1378",
    "country": "India",
    "iso2": "IN",
    "iso3": "IND",
    "admin_name": "Tamil Nādu",
    "capital": "",
    "population": "222943",
    "id": "1356599194"
  },
  {
    "city": "Kichha",
    "city_ascii": "Kichha",
    "lat": "28.9200",
    "lng": "79.5000",
    "country": "India",
    "iso2": "IN",
    "iso3": "IND",
    "admin_name": "Uttarākhand",
    "capital": "",
    "population": "221965",
    "id": "1356016973"
  },
  {
    "city": "Secunderābād",
    "city_ascii": "Secunderabad",
    "lat": "17.4399",
    "lng": "78.4983",
    "country": "India",
    "iso2": "IN",
    "iso3": "IND",
    "admin_name": "Andhra Pradesh",
    "capital": "",
    "population": "213698",
    "id": "1356779437"
  },
  {
    "city": "Tiptūr",
    "city_ascii": "Tiptur",
    "lat": "13.2600",
    "lng": "76.4800",
    "country": "India",
    "iso2": "IN",
    "iso3": "IND",
    "admin_name": "Karnātaka",
    "capital": "",
    "population": "222749",
    "id": "1356059008"
  },
  {
    "city": "Katri",
    "city_ascii": "Katri",
    "lat": "23.4800",
    "lng": "80.4000",
    "country": "India",
    "iso2": "IN",
    "iso3": "IND",
    "admin_name": "Madhya Pradesh",
    "capital": "",
    "population": "221875",
    "id": "1356636912"
  },
  {
    "city": "Sambhal",
    "city_ascii": "Sambhal",
    "lat": "28.5800",
    "lng": "78.5500",
    "country": "India",
    "iso2": "IN",
    "iso3": "IND",
    "admin_name": "Uttar Pradesh",
    "capital": "",
    "population": "220813",
    "id": "1356376216"
  },
  {
    "city": "Ānand",
    "city_ascii": "Anand",
    "lat": "22.5560",
    "lng": "72.9510",
    "country": "India",
    "iso2": "IN",
    "iso3": "IND",
    "admin_name": "Gujarāt",
    "capital": "",
    "population": "218486",
    "id": "1356044073"
  },
  {
    "city": "Naihāti",
    "city_ascii": "Naihati",
    "lat": "22.8900",
    "lng": "88.4200",
    "country": "India",
    "iso2": "IN",
    "iso3": "IND",
    "admin_name": "West Bengal",
    "capital": "",
    "population": "217900",
    "id": "1356715598"
  },
  {
    "city": "Yamunānagar",
    "city_ascii": "Yamunanagar",
    "lat": "30.1330",
    "lng": "77.2880",
    "country": "India",
    "iso2": "IN",
    "iso3": "IND",
    "admin_name": "Haryāna",
    "capital": "",
    "population": "216628",
    "id": "1356846120"
  },
  {
    "city": "Monghyr",
    "city_ascii": "Monghyr",
    "lat": "25.3810",
    "lng": "86.4650",
    "country": "India",
    "iso2": "IN",
    "iso3": "IND",
    "admin_name": "Bihār",
    "capital": "",
    "population": "213101",
    "id": "1356280102"
  },
  {
    "city": "Kāpra",
    "city_ascii": "Kapra",
    "lat": "17.4859",
    "lng": "78.5651",
    "country": "India",
    "iso2": "IN",
    "iso3": "IND",
    "admin_name": "Andhra Pradesh",
    "capital": "",
    "population": "209882",
    "id": "1356304297"
  },
  {
    "city": "Shimla",
    "city_ascii": "Shimla",
    "lat": "31.1033",
    "lng": "77.1722",
    "country": "India",
    "iso2": "IN",
    "iso3": "IND",
    "admin_name": "Himāchal Pradesh",
    "capital": "admin",
    "population": "206575",
    "id": "1356962932"
  },
  {
    "city": "Gokāk",
    "city_ascii": "Gokak",
    "lat": "16.1667",
    "lng": "74.8333",
    "country": "India",
    "iso2": "IN",
    "iso3": "IND",
    "admin_name": "Karnātaka",
    "capital": "",
    "population": "213000",
    "id": "1356269894"
  },
  {
    "city": "Puri",
    "city_ascii": "Puri",
    "lat": "19.8106",
    "lng": "85.8314",
    "country": "India",
    "iso2": "IN",
    "iso3": "IND",
    "admin_name": "Odisha",
    "capital": "",
    "population": "201026",
    "id": "1356558409"
  },
  {
    "city": "Nandyāl",
    "city_ascii": "Nandyal",
    "lat": "15.4800",
    "lng": "78.4800",
    "country": "India",
    "iso2": "IN",
    "iso3": "IND",
    "admin_name": "Andhra Pradesh",
    "capital": "",
    "population": "211424",
    "id": "1356671879"
  },
  {
    "city": "Bhadrāvati",
    "city_ascii": "Bhadravati",
    "lat": "13.8485",
    "lng": "75.7050",
    "country": "India",
    "iso2": "IN",
    "iso3": "IND",
    "admin_name": "Karnātaka",
    "capital": "",
    "population": "212073",
    "id": "1356466241"
  },
  {
    "city": "Panchkula",
    "city_ascii": "Panchkula",
    "lat": "30.7400",
    "lng": "76.8000",
    "country": "India",
    "iso2": "IN",
    "iso3": "IND",
    "admin_name": "Haryāna",
    "capital": "minor",
    "population": "211355",
    "id": "1356152025"
  },
  {
    "city": "Burhānpur",
    "city_ascii": "Burhanpur",
    "lat": "21.3000",
    "lng": "76.2300",
    "country": "India",
    "iso2": "IN",
    "iso3": "IND",
    "admin_name": "Madhya Pradesh",
    "capital": "",
    "population": "210891",
    "id": "1356857493"
  },
  {
    "city": "Kirātot",
    "city_ascii": "Kiratot",
    "lat": "32.8376",
    "lng": "76.2296",
    "country": "India",
    "iso2": "IN",
    "iso3": "IND",
    "admin_name": "Himāchal Pradesh",
    "capital": "",
    "population": "210406",
    "id": "1356118618"
  },
  {
    "city": "Kharagpur",
    "city_ascii": "Kharagpur",
    "lat": "22.3302",
    "lng": "87.3237",
    "country": "India",
    "iso2": "IN",
    "iso3": "IND",
    "admin_name": "West Bengal",
    "capital": "",
    "population": "207604",
    "id": "1356305803"
  },
  {
    "city": "Dindigul",
    "city_ascii": "Dindigul",
    "lat": "10.3500",
    "lng": "77.9500",
    "country": "India",
    "iso2": "IN",
    "iso3": "IND",
    "admin_name": "Tamil Nādu",
    "capital": "",
    "population": "207327",
    "id": "1356106153"
  },
  {
    "city": "Robertsonpet",
    "city_ascii": "Robertsonpet",
    "lat": "12.9563",
    "lng": "78.2754",
    "country": "India",
    "iso2": "IN",
    "iso3": "IND",
    "admin_name": "Karnātaka",
    "capital": "",
    "population": "207350",
    "id": "1356245899"
  },
  {
    "city": "Hospet",
    "city_ascii": "Hospet",
    "lat": "15.2689",
    "lng": "76.3909",
    "country": "India",
    "iso2": "IN",
    "iso3": "IND",
    "admin_name": "Karnātaka",
    "capital": "",
    "population": "206167",
    "id": "1356241463"
  },
  {
    "city": "Lingampalli",
    "city_ascii": "Lingampalli",
    "lat": "17.4865",
    "lng": "78.3170",
    "country": "India",
    "iso2": "IN",
    "iso3": "IND",
    "admin_name": "Andhra Pradesh",
    "capital": "",
    "population": "202440",
    "id": "1356038214"
  },
  {
    "city": "Ingrāj Bāzār",
    "city_ascii": "Ingraj Bazar",
    "lat": "25.0044",
    "lng": "88.1458",
    "country": "India",
    "iso2": "IN",
    "iso3": "IND",
    "admin_name": "West Bengal",
    "capital": "",
    "population": "205521",
    "id": "1356142829"
  },
  {
    "city": "Ongole",
    "city_ascii": "Ongole",
    "lat": "15.5060",
    "lng": "80.0490",
    "country": "India",
    "iso2": "IN",
    "iso3": "IND",
    "admin_name": "Andhra Pradesh",
    "capital": "",
    "population": "204746",
    "id": "1356385136"
  },
  {
    "city": "Ellore",
    "city_ascii": "Ellore",
    "lat": "16.7117",
    "lng": "81.1031",
    "country": "India",
    "iso2": "IN",
    "iso3": "IND",
    "admin_name": "Andhra Pradesh",
    "capital": "",
    "population": "203780",
    "id": "1356931882"
  },
  {
    "city": "Betigeri",
    "city_ascii": "Betigeri",
    "lat": "15.4430",
    "lng": "75.6442",
    "country": "India",
    "iso2": "IN",
    "iso3": "IND",
    "admin_name": "Karnātaka",
    "capital": "",
    "population": "204576",
    "id": "1356503334"
  },
  {
    "city": "Mokameh",
    "city_ascii": "Mokameh",
    "lat": "25.3898",
    "lng": "85.9191",
    "country": "India",
    "iso2": "IN",
    "iso3": "IND",
    "admin_name": "Bihār",
    "capital": "",
    "population": "202411",
    "id": "1356053965"
  },
  {
    "city": "Deoghar",
    "city_ascii": "Deoghar",
    "lat": "24.4800",
    "lng": "86.7000",
    "country": "India",
    "iso2": "IN",
    "iso3": "IND",
    "admin_name": "Jhārkhand",
    "capital": "",
    "population": "203116",
    "id": "1356054191"
  },
  {
    "city": "Chhindwāra",
    "city_ascii": "Chhindwara",
    "lat": "22.0570",
    "lng": "78.9396",
    "country": "India",
    "iso2": "IN",
    "iso3": "IND",
    "admin_name": "Madhya Pradesh",
    "capital": "",
    "population": "202688",
    "id": "1356167692"
  },
  {
    "city": "Haldia",
    "city_ascii": "Haldia",
    "lat": "22.0667",
    "lng": "88.0698",
    "country": "India",
    "iso2": "IN",
    "iso3": "IND",
    "admin_name": "West Bengal",
    "capital": "",
    "population": "200827",
    "id": "1356491171"
  },
  {
    "city": "Khandwa",
    "city_ascii": "Khandwa",
    "lat": "21.8200",
    "lng": "76.3500",
    "country": "India",
    "iso2": "IN",
    "iso3": "IND",
    "admin_name": "Madhya Pradesh",
    "capital": "",
    "population": "200738",
    "id": "1356696980"
  },
  {
    "city": "Pulimaddi",
    "city_ascii": "Pulimaddi",
    "lat": "15.4800",
    "lng": "78.4800",
    "country": "India",
    "iso2": "IN",
    "iso3": "IND",
    "admin_name": "Andhra Pradesh",
    "capital": "",
    "population": "200516",
    "id": "1356431352"
  },
  {
    "city": "Morena",
    "city_ascii": "Morena",
    "lat": "26.5000",
    "lng": "78.0000",
    "country": "India",
    "iso2": "IN",
    "iso3": "IND",
    "admin_name": "Madhya Pradesh",
    "capital": "",
    "population": "200483",
    "id": "1356019851"
  },
  {
    "city": "Amroha",
    "city_ascii": "Amroha",
    "lat": "28.9044",
    "lng": "78.4675",
    "country": "India",
    "iso2": "IN",
    "iso3": "IND",
    "admin_name": "Uttar Pradesh",
    "capital": "",
    "population": "198471",
    "id": "1356146062"
  },
  {
    "city": "Drabar",
    "city_ascii": "Drabar",
    "lat": "33.4300",
    "lng": "75.0900",
    "country": "India",
    "iso2": "IN",
    "iso3": "IND",
    "admin_name": "Jammu and Kashmīr",
    "capital": "",
    "population": "199429",
    "id": "1356426484"
  },
  {
    "city": "Bhind",
    "city_ascii": "Bhind",
    "lat": "26.5587",
    "lng": "78.7871",
    "country": "India",
    "iso2": "IN",
    "iso3": "IND",
    "admin_name": "Madhya Pradesh",
    "capital": "",
    "population": "197585",
    "id": "1356023125"
  },
  {
    "city": "Chakradharpur",
    "city_ascii": "Chakradharpur",
    "lat": "22.7000",
    "lng": "85.6300",
    "country": "India",
    "iso2": "IN",
    "iso3": "IND",
    "admin_name": "Jhārkhand",
    "capital": "",
    "population": "197953",
    "id": "1356082013"
  },
  {
    "city": "Madhyamgram",
    "city_ascii": "Madhyamgram",
    "lat": "22.7000",
    "lng": "88.4500",
    "country": "India",
    "iso2": "IN",
    "iso3": "IND",
    "admin_name": "West Bengal",
    "capital": "",
    "population": "196127",
    "id": "1356501701"
  },
  {
    "city": "Khammam",
    "city_ascii": "Khammam",
    "lat": "17.2473",
    "lng": "80.1514",
    "country": "India",
    "iso2": "IN",
    "iso3": "IND",
    "admin_name": "Andhra Pradesh",
    "capital": "",
    "population": "196283",
    "id": "1356007170"
  },
  {
    "city": "Bhiwāni",
    "city_ascii": "Bhiwani",
    "lat": "28.7800",
    "lng": "76.1300",
    "country": "India",
    "iso2": "IN",
    "iso3": "IND",
    "admin_name": "Haryāna",
    "capital": "",
    "population": "197662",
    "id": "1356780092"
  },
  {
    "city": "Shrīrāmpur",
    "city_ascii": "Shrirampur",
    "lat": "22.7500",
    "lng": "88.3400",
    "country": "India",
    "iso2": "IN",
    "iso3": "IND",
    "admin_name": "West Bengal",
    "capital": "",
    "population": "181842",
    "id": "1356021505"
  },
  {
    "city": "Ghāndīnagar",
    "city_ascii": "Ghandinagar",
    "lat": "23.2230",
    "lng": "72.6500",
    "country": "India",
    "iso2": "IN",
    "iso3": "IND",
    "admin_name": "Gujarāt",
    "capital": "admin",
    "population": "195891",
    "id": "1356140914"
  },
  {
    "city": "Baharampur",
    "city_ascii": "Baharampur",
    "lat": "24.1000",
    "lng": "88.2500",
    "country": "India",
    "iso2": "IN",
    "iso3": "IND",
    "admin_name": "West Bengal",
    "capital": "",
    "population": "195223",
    "id": "1356612685"
  },
  {
    "city": "Hugli",
    "city_ascii": "Hugli",
    "lat": "22.9089",
    "lng": "88.3967",
    "country": "India",
    "iso2": "IN",
    "iso3": "IND",
    "admin_name": "West Bengal",
    "capital": "",
    "population": "179931",
    "id": "1356109548"
  },
  {
    "city": "Morbi",
    "city_ascii": "Morbi",
    "lat": "22.8200",
    "lng": "70.8300",
    "country": "India",
    "iso2": "IN",
    "iso3": "IND",
    "admin_name": "Gujarāt",
    "capital": "",
    "population": "194947",
    "id": "1356746232"
  },
  {
    "city": "Mahbūbnagar",
    "city_ascii": "Mahbubnagar",
    "lat": "16.7488",
    "lng": "78.0035",
    "country": "India",
    "iso2": "IN",
    "iso3": "IND",
    "admin_name": "Andhra Pradesh",
    "capital": "",
    "population": "190400",
    "id": "1356014528"
  },
  {
    "city": "Fatehpur",
    "city_ascii": "Fatehpur",
    "lat": "25.9300",
    "lng": "80.8000",
    "country": "India",
    "iso2": "IN",
    "iso3": "IND",
    "admin_name": "Uttar Pradesh",
    "capital": "",
    "population": "193193",
    "id": "1356059135"
  },
  {
    "city": "Pāndhurnā",
    "city_ascii": "Pandhurna",
    "lat": "21.6000",
    "lng": "78.5200",
    "country": "India",
    "iso2": "IN",
    "iso3": "IND",
    "admin_name": "Madhya Pradesh",
    "capital": "",
    "population": "193818",
    "id": "1356533618"
  },
  {
    "city": "Rājendranagar",
    "city_ascii": "Rajendranagar",
    "lat": "17.3198",
    "lng": "78.4031",
    "country": "India",
    "iso2": "IN",
    "iso3": "IND",
    "admin_name": "Andhra Pradesh",
    "capital": "",
    "population": "189076",
    "id": "1356684638"
  },
  {
    "city": "Rāe Bareli",
    "city_ascii": "Rae Bareli",
    "lat": "26.2236",
    "lng": "81.2403",
    "country": "India",
    "iso2": "IN",
    "iso3": "IND",
    "admin_name": "Uttar Pradesh",
    "capital": "",
    "population": "191316",
    "id": "1356437243"
  },
  {
    "city": "Orai",
    "city_ascii": "Orai",
    "lat": "25.9800",
    "lng": "79.4700",
    "country": "India",
    "iso2": "IN",
    "iso3": "IND",
    "admin_name": "Uttar Pradesh",
    "capital": "",
    "population": "190575",
    "id": "1356928689"
  },
  {
    "city": "Rāiganj",
    "city_ascii": "Raiganj",
    "lat": "25.6200",
    "lng": "88.1200",
    "country": "India",
    "iso2": "IN",
    "iso3": "IND",
    "admin_name": "West Bengal",
    "capital": "",
    "population": "183612",
    "id": "1356159126"
  },
  {
    "city": "Bhusāval",
    "city_ascii": "Bhusaval",
    "lat": "21.0500",
    "lng": "75.7700",
    "country": "India",
    "iso2": "IN",
    "iso3": "IND",
    "admin_name": "Mahārāshtra",
    "capital": "",
    "population": "187421",
    "id": "1356338789"
  },
  {
    "city": "Bārākpur",
    "city_ascii": "Barakpur",
    "lat": "22.7642",
    "lng": "88.3776",
    "country": "India",
    "iso2": "IN",
    "iso3": "IND",
    "admin_name": "West Bengal",
    "capital": "",
    "population": "152783",
    "id": "1356768708"
  },
  {
    "city": "Bahraigh",
    "city_ascii": "Bahraigh",
    "lat": "27.5750",
    "lng": "81.5940",
    "country": "India",
    "iso2": "IN",
    "iso3": "IND",
    "admin_name": "Uttar Pradesh",
    "capital": "",
    "population": "186223",
    "id": "1356833304"
  },
  {
    "city": "Tambaram",
    "city_ascii": "Tambaram",
    "lat": "12.8310",
    "lng": "80.0459",
    "country": "India",
    "iso2": "IN",
    "iso3": "IND",
    "admin_name": "Tamil Nādu",
    "capital": "",
    "population": "182071",
    "id": "1356045454"
  },
  {
    "city": "Umreth",
    "city_ascii": "Umreth",
    "lat": "22.6986",
    "lng": "73.1156",
    "country": "India",
    "iso2": "IN",
    "iso3": "IND",
    "admin_name": "Gujarāt",
    "capital": "",
    "population": "185320",
    "id": "1356307988"
  },
  {
    "city": "Mahesāna",
    "city_ascii": "Mahesana",
    "lat": "23.6000",
    "lng": "72.4000",
    "country": "India",
    "iso2": "IN",
    "iso3": "IND",
    "admin_name": "Gujarāt",
    "capital": "",
    "population": "184991",
    "id": "1356719082"
  },
  {
    "city": "Dinapore",
    "city_ascii": "Dinapore",
    "lat": "25.6225",
    "lng": "85.0417",
    "country": "India",
    "iso2": "IN",
    "iso3": "IND",
    "admin_name": "Bihār",
    "capital": "",
    "population": "182241",
    "id": "1356729186"
  },
  {
    "city": "Alasandigutta",
    "city_ascii": "Alasandigutta",
    "lat": "15.6300",
    "lng": "77.2800",
    "country": "India",
    "iso2": "IN",
    "iso3": "IND",
    "admin_name": "Andhra Pradesh",
    "capital": "",
    "population": "184625",
    "id": "1356256634"
  },
  {
    "city": "Batāla",
    "city_ascii": "Batala",
    "lat": "31.8186",
    "lng": "75.2028",
    "country": "India",
    "iso2": "IN",
    "iso3": "IND",
    "admin_name": "Punjab",
    "capital": "",
    "population": "183314",
    "id": "1356786750"
  },
  {
    "city": "Kottayam",
    "city_ascii": "Kottayam",
    "lat": "9.5947",
    "lng": "76.4856",
    "country": "India",
    "iso2": "IN",
    "iso3": "IND",
    "admin_name": "Kerala",
    "capital": "",
    "population": "182927",
    "id": "1356307269"
  },
  {
    "city": "Sirsa",
    "city_ascii": "Sirsa",
    "lat": "29.5333",
    "lng": "75.0167",
    "country": "India",
    "iso2": "IN",
    "iso3": "IND",
    "admin_name": "Haryāna",
    "capital": "",
    "population": "182534",
    "id": "1356966764"
  },
  {
    "city": "Kāraikkudi",
    "city_ascii": "Karaikkudi",
    "lat": "10.0735",
    "lng": "78.7732",
    "country": "India",
    "iso2": "IN",
    "iso3": "IND",
    "admin_name": "Tamil Nādu",
    "capital": "",
    "population": "181851",
    "id": "1356512763"
  },
  {
    "city": "Himatnagar",
    "city_ascii": "Himatnagar",
    "lat": "23.6000",
    "lng": "72.9500",
    "country": "India",
    "iso2": "IN",
    "iso3": "IND",
    "admin_name": "Gujarāt",
    "capital": "",
    "population": "181137",
    "id": "1356123042"
  },
  {
    "city": "Alleppey",
    "city_ascii": "Alleppey",
    "lat": "9.4900",
    "lng": "76.3300",
    "country": "India",
    "iso2": "IN",
    "iso3": "IND",
    "admin_name": "Kerala",
    "capital": "",
    "population": "177079",
    "id": "1356293762"
  },
  {
    "city": "Dam Dam",
    "city_ascii": "Dam Dam",
    "lat": "22.6200",
    "lng": "88.4200",
    "country": "India",
    "iso2": "IN",
    "iso3": "IND",
    "admin_name": "West Bengal",
    "capital": "",
    "population": "114786",
    "id": "1356051452"
  },
  {
    "city": "Jaunpur",
    "city_ascii": "Jaunpur",
    "lat": "25.7300",
    "lng": "82.6800",
    "country": "India",
    "iso2": "IN",
    "iso3": "IND",
    "admin_name": "Uttar Pradesh",
    "capital": "",
    "population": "180362",
    "id": "1356646586"
  },
  {
    "city": "Guna",
    "city_ascii": "Guna",
    "lat": "24.6500",
    "lng": "77.3200",
    "country": "India",
    "iso2": "IN",
    "iso3": "IND",
    "admin_name": "Madhya Pradesh",
    "capital": "",
    "population": "180935",
    "id": "1356056608"
  },
  {
    "city": "Madanapalle",
    "city_ascii": "Madanapalle",
    "lat": "13.5500",
    "lng": "78.5000",
    "country": "India",
    "iso2": "IN",
    "iso3": "IND",
    "admin_name": "Andhra Pradesh",
    "capital": "",
    "population": "180180",
    "id": "1356232508"
  },
  {
    "city": "Mahād",
    "city_ascii": "Mahad",
    "lat": "18.0830",
    "lng": "73.4170",
    "country": "India",
    "iso2": "IN",
    "iso3": "IND",
    "admin_name": "Mahārāshtra",
    "capital": "",
    "population": "180191",
    "id": "1356857934"
  },
  {
    "city": "Shivpuri",
    "city_ascii": "Shivpuri",
    "lat": "25.4300",
    "lng": "77.6500",
    "country": "India",
    "iso2": "IN",
    "iso3": "IND",
    "admin_name": "Madhya Pradesh",
    "capital": "",
    "population": "179977",
    "id": "1356583527"
  },
  {
    "city": "Bhālswa Jahangirpur",
    "city_ascii": "Bhalswa Jahangirpur",
    "lat": "28.7354",
    "lng": "77.1638",
    "country": "India",
    "iso2": "IN",
    "iso3": "IND",
    "admin_name": "Delhi",
    "capital": "",
    "population": "151427",
    "id": "1356078316"
  },
  {
    "city": "Sultānpur Mazra",
    "city_ascii": "Sultanpur Mazra",
    "lat": "28.6981",
    "lng": "77.0689",
    "country": "India",
    "iso2": "IN",
    "iso3": "IND",
    "admin_name": "Delhi",
    "capital": "",
    "population": "163716",
    "id": "1356062549"
  },
  {
    "city": "Unnāo",
    "city_ascii": "Unnao",
    "lat": "26.5500",
    "lng": "80.4900",
    "country": "India",
    "iso2": "IN",
    "iso3": "IND",
    "admin_name": "Uttar Pradesh",
    "capital": "",
    "population": "177658",
    "id": "1356012340"
  },
  {
    "city": "Titāgarh",
    "city_ascii": "Titagarh",
    "lat": "22.7400",
    "lng": "88.3700",
    "country": "India",
    "iso2": "IN",
    "iso3": "IND",
    "admin_name": "West Bengal",
    "capital": "",
    "population": "116541",
    "id": "1356590173"
  },
  {
    "city": "Wārāseonī",
    "city_ascii": "Waraseoni",
    "lat": "21.7647",
    "lng": "80.0494",
    "country": "India",
    "iso2": "IN",
    "iso3": "IND",
    "admin_name": "Madhya Pradesh",
    "capital": "",
    "population": "176291",
    "id": "1356634180"
  },
  {
    "city": "Mauli",
    "city_ascii": "Mauli",
    "lat": "30.6990",
    "lng": "76.6930",
    "country": "India",
    "iso2": "IN",
    "iso3": "IND",
    "admin_name": "Punjab",
    "capital": "",
    "population": "176152",
    "id": "1356181198"
  },
  {
    "city": "Chandannagar",
    "city_ascii": "Chandannagar",
    "lat": "22.8671",
    "lng": "88.3674",
    "country": "India",
    "iso2": "IN",
    "iso3": "IND",
    "admin_name": "West Bengal",
    "capital": "",
    "population": "166867",
    "id": "1356174802"
  },
  {
    "city": "Cuddalore",
    "city_ascii": "Cuddalore",
    "lat": "11.7500",
    "lng": "79.7500",
    "country": "India",
    "iso2": "IN",
    "iso3": "IND",
    "admin_name": "Tamil Nādu",
    "capital": "",
    "population": "173676",
    "id": "1356544008"
  },
  {
    "city": "Kotdwāra",
    "city_ascii": "Kotdwara",
    "lat": "29.7500",
    "lng": "78.5300",
    "country": "India",
    "iso2": "IN",
    "iso3": "IND",
    "admin_name": "Uttarākhand",
    "capital": "",
    "population": "175232",
    "id": "1356826143"
  },
  {
    "city": "Chīrāla",
    "city_ascii": "Chirala",
    "lat": "15.8246",
    "lng": "80.3521",
    "country": "India",
    "iso2": "IN",
    "iso3": "IND",
    "admin_name": "Andhra Pradesh",
    "capital": "",
    "population": "172826",
    "id": "1356100300"
  },
  {
    "city": "Deo",
    "city_ascii": "Deo",
    "lat": "24.6561",
    "lng": "84.4356",
    "country": "India",
    "iso2": "IN",
    "iso3": "IND",
    "admin_name": "Bihār",
    "capital": "",
    "population": "173216",
    "id": "1356131438"
  },
  {
    "city": "Silchar",
    "city_ascii": "Silchar",
    "lat": "24.8200",
    "lng": "92.8000",
    "country": "India",
    "iso2": "IN",
    "iso3": "IND",
    "admin_name": "Assam",
    "capital": "",
    "population": "172830",
    "id": "1356102467"
  },
  {
    "city": "Gadag",
    "city_ascii": "Gadag",
    "lat": "15.4167",
    "lng": "75.6167",
    "country": "India",
    "iso2": "IN",
    "iso3": "IND",
    "admin_name": "Karnātaka",
    "capital": "",
    "population": "172813",
    "id": "1356659359"
  },
  {
    "city": "Tiruvannāmalai",
    "city_ascii": "Tiruvannamalai",
    "lat": "12.1300",
    "lng": "79.0700",
    "country": "India",
    "iso2": "IN",
    "iso3": "IND",
    "admin_name": "Tamil Nādu",
    "capital": "",
    "population": "172348",
    "id": "1356561184"
  },
  {
    "city": "Bīdar",
    "city_ascii": "Bidar",
    "lat": "17.9120",
    "lng": "77.5200",
    "country": "India",
    "iso2": "IN",
    "iso3": "IND",
    "admin_name": "Karnātaka",
    "capital": "",
    "population": "172298",
    "id": "1356933453"
  },
  {
    "city": "Valsād",
    "city_ascii": "Valsad",
    "lat": "20.6100",
    "lng": "72.9260",
    "country": "India",
    "iso2": "IN",
    "iso3": "IND",
    "admin_name": "Gujarāt",
    "capital": "",
    "population": "170060",
    "id": "1356306193"
  },
  {
    "city": "Machilīpatnam",
    "city_ascii": "Machilipatnam",
    "lat": "16.1700",
    "lng": "81.1300",
    "country": "India",
    "iso2": "IN",
    "iso3": "IND",
    "admin_name": "Andhra Pradesh",
    "capital": "",
    "population": "170000",
    "id": "1356067784"
  },
  {
    "city": "Medinīpur",
    "city_ascii": "Medinipur",
    "lat": "22.4240",
    "lng": "87.3190",
    "country": "India",
    "iso2": "IN",
    "iso3": "IND",
    "admin_name": "West Bengal",
    "capital": "",
    "population": "169264",
    "id": "1356432910"
  },
  {
    "city": "Damoh",
    "city_ascii": "Damoh",
    "lat": "23.8331",
    "lng": "79.4419",
    "country": "India",
    "iso2": "IN",
    "iso3": "IND",
    "admin_name": "Madhya Pradesh",
    "capital": "",
    "population": "168916",
    "id": "1356070737"
  },
  {
    "city": "Neyveli",
    "city_ascii": "Neyveli",
    "lat": "11.6088",
    "lng": "79.4994",
    "country": "India",
    "iso2": "IN",
    "iso3": "IND",
    "admin_name": "Tamil Nādu",
    "capital": "",
    "population": "168368",
    "id": "1356265572"
  },
  {
    "city": "Bāramūla",
    "city_ascii": "Baramula",
    "lat": "34.2000",
    "lng": "74.3400",
    "country": "India",
    "iso2": "IN",
    "iso3": "IND",
    "admin_name": "Jammu and Kashmīr",
    "capital": "",
    "population": "167986",
    "id": "1356671176"
  },
  {
    "city": "Wāpi",
    "city_ascii": "Wapi",
    "lat": "20.3720",
    "lng": "72.9170",
    "country": "India",
    "iso2": "IN",
    "iso3": "IND",
    "admin_name": "",
    "capital": "",
    "population": "163630",
    "id": "1356248785"
  },
  {
    "city": "Jīnd",
    "city_ascii": "Jind",
    "lat": "29.3167",
    "lng": "76.3167",
    "country": "India",
    "iso2": "IN",
    "iso3": "IND",
    "admin_name": "Haryāna",
    "capital": "",
    "population": "167592",
    "id": "1356620188"
  },
  {
    "city": "Ādoni",
    "city_ascii": "Adoni",
    "lat": "15.6244",
    "lng": "77.2731",
    "country": "India",
    "iso2": "IN",
    "iso3": "IND",
    "admin_name": "Andhra Pradesh",
    "capital": "",
    "population": "166344",
    "id": "1356357749"
  },
  {
    "city": "Tenāli",
    "city_ascii": "Tenali",
    "lat": "16.2390",
    "lng": "80.6450",
    "country": "India",
    "iso2": "IN",
    "iso3": "IND",
    "admin_name": "Andhra Pradesh",
    "capital": "",
    "population": "164937",
    "id": "1356831482"
  },
  {
    "city": "Fyzābād",
    "city_ascii": "Fyzabad",
    "lat": "26.7730",
    "lng": "82.1460",
    "country": "India",
    "iso2": "IN",
    "iso3": "IND",
    "admin_name": "Uttar Pradesh",
    "capital": "",
    "population": "165228",
    "id": "1356032860"
  },
  {
    "city": "Udipi",
    "city_ascii": "Udipi",
    "lat": "13.3389",
    "lng": "74.7451",
    "country": "India",
    "iso2": "IN",
    "iso3": "IND",
    "admin_name": "Karnātaka",
    "capital": "",
    "population": "165401",
    "id": "1356145399"
  },
  {
    "city": "Conjeeveram",
    "city_ascii": "Conjeeveram",
    "lat": "12.8308",
    "lng": "79.7078",
    "country": "India",
    "iso2": "IN",
    "iso3": "IND",
    "admin_name": "Tamil Nādu",
    "capital": "",
    "population": "164384",
    "id": "1356148941"
  },
  {
    "city": "Proddatūr",
    "city_ascii": "Proddatur",
    "lat": "14.7300",
    "lng": "78.5500",
    "country": "India",
    "iso2": "IN",
    "iso3": "IND",
    "admin_name": "Andhra Pradesh",
    "capital": "",
    "population": "163970",
    "id": "1356025913"
  },
  {
    "city": "Nāngloi Jāt",
    "city_ascii": "Nangloi Jat",
    "lat": "28.6833",
    "lng": "77.0667",
    "country": "India",
    "iso2": "IN",
    "iso3": "IND",
    "admin_name": "Delhi",
    "capital": "",
    "population": "150371",
    "id": "1356389587"
  },
  {
    "city": "Godhra",
    "city_ascii": "Godhra",
    "lat": "22.7772",
    "lng": "73.6203",
    "country": "India",
    "iso2": "IN",
    "iso3": "IND",
    "admin_name": "Gujarāt",
    "capital": "",
    "population": "161925",
    "id": "1356386046"
  },
  {
    "city": "Chitaldrug",
    "city_ascii": "Chitaldrug",
    "lat": "14.2333",
    "lng": "76.4000",
    "country": "India",
    "iso2": "IN",
    "iso3": "IND",
    "admin_name": "Karnātaka",
    "capital": "",
    "population": "161966",
    "id": "1356668514"
  },
  {
    "city": "Rājapālaiyam",
    "city_ascii": "Rajapalaiyam",
    "lat": "9.4204",
    "lng": "77.5800",
    "country": "India",
    "iso2": "IN",
    "iso3": "IND",
    "admin_name": "Tamil Nādu",
    "capital": "",
    "population": "161445",
    "id": "1356110350"
  },
  {
    "city": "Multai",
    "city_ascii": "Multai",
    "lat": "21.7700",
    "lng": "78.2500",
    "country": "India",
    "iso2": "IN",
    "iso3": "IND",
    "admin_name": "Madhya Pradesh",
    "capital": "",
    "population": "161819",
    "id": "1356137691"
  },
  {
    "city": "Chittoor",
    "city_ascii": "Chittoor",
    "lat": "13.2160",
    "lng": "79.0980",
    "country": "India",
    "iso2": "IN",
    "iso3": "IND",
    "admin_name": "Andhra Pradesh",
    "capital": "",
    "population": "160722",
    "id": "1356026391"
  },
  {
    "city": "Krishnanagar",
    "city_ascii": "Krishnanagar",
    "lat": "23.4000",
    "lng": "88.5000",
    "country": "India",
    "iso2": "IN",
    "iso3": "IND",
    "admin_name": "West Bengal",
    "capital": "",
    "population": "153062",
    "id": "1356128689"
  },
  {
    "city": "Uttarpāra",
    "city_ascii": "Uttarpara",
    "lat": "22.6700",
    "lng": "88.3500",
    "country": "India",
    "iso2": "IN",
    "iso3": "IND",
    "admin_name": "West Bengal",
    "capital": "",
    "population": "159147",
    "id": "1356370311"
  },
  {
    "city": "Moga",
    "city_ascii": "Moga",
    "lat": "30.8220",
    "lng": "75.1740",
    "country": "India",
    "iso2": "IN",
    "iso3": "IND",
    "admin_name": "Punjab",
    "capital": "",
    "population": "159897",
    "id": "1356017151"
  },
  {
    "city": "Budaun",
    "city_ascii": "Budaun",
    "lat": "28.0500",
    "lng": "79.1200",
    "country": "India",
    "iso2": "IN",
    "iso3": "IND",
    "admin_name": "Uttar Pradesh",
    "capital": "",
    "population": "159221",
    "id": "1356639213"
  },
  {
    "city": "Bharūch",
    "city_ascii": "Bharuch",
    "lat": "21.6948",
    "lng": "72.9805",
    "country": "India",
    "iso2": "IN",
    "iso3": "IND",
    "admin_name": "Gujarāt",
    "capital": "",
    "population": "158253",
    "id": "1356981799"
  },
  {
    "city": "Saharsa",
    "city_ascii": "Saharsa",
    "lat": "25.8800",
    "lng": "86.6000",
    "country": "India",
    "iso2": "IN",
    "iso3": "IND",
    "admin_name": "Bihār",
    "capital": "",
    "population": "156540",
    "id": "1356492911"
  },
  {
    "city": "Pathānkot",
    "city_ascii": "Pathankot",
    "lat": "32.2668",
    "lng": "75.6000",
    "country": "India",
    "iso2": "IN",
    "iso3": "IND",
    "admin_name": "Punjab",
    "capital": "",
    "population": "155909",
    "id": "1356878237"
  },
  {
    "city": "Vidisha",
    "city_ascii": "Vidisha",
    "lat": "23.5239",
    "lng": "77.8061",
    "country": "India",
    "iso2": "IN",
    "iso3": "IND",
    "admin_name": "Madhya Pradesh",
    "capital": "",
    "population": "155959",
    "id": "1356299932"
  },
  {
    "city": "Nalgonda",
    "city_ascii": "Nalgonda",
    "lat": "17.0500",
    "lng": "79.2700",
    "country": "India",
    "iso2": "IN",
    "iso3": "IND",
    "admin_name": "Andhra Pradesh",
    "capital": "",
    "population": "154326",
    "id": "1356414359"
  },
  {
    "city": "Rudarpur",
    "city_ascii": "Rudarpur",
    "lat": "28.9708",
    "lng": "79.3972",
    "country": "India",
    "iso2": "IN",
    "iso3": "IND",
    "admin_name": "Uttarākhand",
    "capital": "",
    "population": "154485",
    "id": "1356437436"
  },
  {
    "city": "Thānesar",
    "city_ascii": "Thanesar",
    "lat": "29.9667",
    "lng": "76.8167",
    "country": "India",
    "iso2": "IN",
    "iso3": "IND",
    "admin_name": "Haryāna",
    "capital": "",
    "population": "154962",
    "id": "1356380934"
  },
  {
    "city": "Jorhāt",
    "city_ascii": "Jorhat",
    "lat": "26.7500",
    "lng": "94.2200",
    "country": "India",
    "iso2": "IN",
    "iso3": "IND",
    "admin_name": "Assam",
    "capital": "",
    "population": "153249",
    "id": "1356638741"
  },
  {
    "city": "Hājīpur",
    "city_ascii": "Hajipur",
    "lat": "25.6925",
    "lng": "85.2084",
    "country": "India",
    "iso2": "IN",
    "iso3": "IND",
    "admin_name": "Bihār",
    "capital": "",
    "population": "147688",
    "id": "1356014808"
  },
  {
    "city": "Bālurghāt",
    "city_ascii": "Balurghat",
    "lat": "25.2200",
    "lng": "88.7600",
    "country": "India",
    "iso2": "IN",
    "iso3": "IND",
    "admin_name": "West Bengal",
    "capital": "",
    "population": "153279",
    "id": "1356496150"
  },
  {
    "city": "Dibrugarh",
    "city_ascii": "Dibrugarh",
    "lat": "27.4800",
    "lng": "95.0000",
    "country": "India",
    "iso2": "IN",
    "iso3": "IND",
    "admin_name": "Assam",
    "capital": "",
    "population": "154019",
    "id": "1356100193"
  },
  {
    "city": "Verāval",
    "city_ascii": "Veraval",
    "lat": "20.9000",
    "lng": "70.3700",
    "country": "India",
    "iso2": "IN",
    "iso3": "IND",
    "admin_name": "Gujarāt",
    "capital": "",
    "population": "153696",
    "id": "1356346826"
  },
  {
    "city": "Shāntipur",
    "city_ascii": "Shantipur",
    "lat": "23.2500",
    "lng": "88.4300",
    "country": "India",
    "iso2": "IN",
    "iso3": "IND",
    "admin_name": "West Bengal",
    "capital": "",
    "population": "151777",
    "id": "1356584320"
  },
  {
    "city": "Hindupur",
    "city_ascii": "Hindupur",
    "lat": "13.8300",
    "lng": "77.4900",
    "country": "India",
    "iso2": "IN",
    "iso3": "IND",
    "admin_name": "Andhra Pradesh",
    "capital": "",
    "population": "151677",
    "id": "1356805611"
  },
  {
    "city": "Erode",
    "city_ascii": "Erode",
    "lat": "11.3409",
    "lng": "77.7171",
    "country": "India",
    "iso2": "IN",
    "iso3": "IND",
    "admin_name": "Tamil Nādu",
    "capital": "",
    "population": "151184",
    "id": "1356040695"
  },
  {
    "city": "Beāwar",
    "city_ascii": "Beawar",
    "lat": "26.1011",
    "lng": "74.3203",
    "country": "India",
    "iso2": "IN",
    "iso3": "IND",
    "admin_name": "Rājasthān",
    "capital": "",
    "population": "151472",
    "id": "1356028963"
  },
  {
    "city": "Kolār",
    "city_ascii": "Kolar",
    "lat": "13.1333",
    "lng": "78.1333",
    "country": "India",
    "iso2": "IN",
    "iso3": "IND",
    "admin_name": "Karnātaka",
    "capital": "",
    "population": "150357",
    "id": "1356953848"
  },
  {
    "city": "Soro",
    "city_ascii": "Soro",
    "lat": "21.2900",
    "lng": "86.6900",
    "country": "India",
    "iso2": "IN",
    "iso3": "IND",
    "admin_name": "Odisha",
    "capital": "",
    "population": "150000",
    "id": "1356411349"
  },
  {
    "city": "Sitārganj",
    "city_ascii": "Sitarganj",
    "lat": "28.9300",
    "lng": "79.7000",
    "country": "India",
    "iso2": "IN",
    "iso3": "IND",
    "admin_name": "Uttarākhand",
    "capital": "",
    "population": "148266",
    "id": "1356157911"
  },
  {
    "city": "Hābra",
    "city_ascii": "Habra",
    "lat": "22.8300",
    "lng": "88.6300",
    "country": "India",
    "iso2": "IN",
    "iso3": "IND",
    "admin_name": "West Bengal",
    "capital": "",
    "population": "147221",
    "id": "1356091822"
  },
  {
    "city": "Nowgong",
    "city_ascii": "Nowgong",
    "lat": "26.3492",
    "lng": "92.6861",
    "country": "India",
    "iso2": "IN",
    "iso3": "IND",
    "admin_name": "Assam",
    "capital": "",
    "population": "147137",
    "id": "1356273589"
  },
  {
    "city": "Bīr",
    "city_ascii": "Bir",
    "lat": "18.9833",
    "lng": "75.7667",
    "country": "India",
    "iso2": "IN",
    "iso3": "IND",
    "admin_name": "Mahārāshtra",
    "capital": "",
    "population": "146709",
    "id": "1356753116"
  },
  {
    "city": "Etah",
    "city_ascii": "Etah",
    "lat": "27.6300",
    "lng": "78.6700",
    "country": "India",
    "iso2": "IN",
    "iso3": "IND",
    "admin_name": "Uttar Pradesh",
    "capital": "",
    "population": "145601",
    "id": "1356096916"
  },
  {
    "city": "Nārnaul",
    "city_ascii": "Narnaul",
    "lat": "28.0444",
    "lng": "76.1056",
    "country": "India",
    "iso2": "IN",
    "iso3": "IND",
    "admin_name": "Haryāna",
    "capital": "",
    "population": "145897",
    "id": "1356512084"
  },
  {
    "city": "Abohar",
    "city_ascii": "Abohar",
    "lat": "30.1334",
    "lng": "74.2001",
    "country": "India",
    "iso2": "IN",
    "iso3": "IND",
    "admin_name": "Punjab",
    "capital": "",
    "population": "145302",
    "id": "1356846795"
  },
  {
    "city": "Kaithal",
    "city_ascii": "Kaithal",
    "lat": "29.8015",
    "lng": "76.3998",
    "country": "India",
    "iso2": "IN",
    "iso3": "IND",
    "admin_name": "Haryāna",
    "capital": "",
    "population": "144915",
    "id": "1356810758"
  },