[
  {
    "city": "Muscat",
    "city_ascii": "Muscat",
    "lat": "23.6139",
    "lng": "58.5922",
    "country": "Oman",
    "iso2": "OM",
    "iso3": "OMN",
    "admin_name": "Masqaţ",
    "capital": "primary",
    "population": "1421409",
    "id": "1512035506"
  },
  {
    "city": "Bawshar",
    "city_ascii": "Bawshar",
    "lat": "23.5333",
    "lng": "58.3833",
    "country": "Oman",
    "iso2": "OM",
    "iso3": "OMN",
    "admin_name": "Masqaţ",
    "capital": "",
    "population": "383257",
    "id": "1512506161"
  },
  {
    "city": "As Sīb",
    "city_ascii": "As Sib",
    "lat": "23.6703",
    "lng": "58.1891",
    "country": "Oman",
    "iso2": "OM",
    "iso3": "OMN",
    "admin_name": "Masqaţ",
    "capital": "",
    "population": "237816",
    "id": "1512461161"
  },
  {
    "city": "Maţraḩ",
    "city_ascii": "Matrah",
    "lat": "23.6167",
    "lng": "58.5667",
    "country": "Oman",
    "iso2": "OM",
    "iso3": "OMN",
    "admin_name": "Masqaţ",
    "capital": "",
    "population": "214901",
    "id": "1512325823"
  },
  {
    "city": "Şalālah",
    "city_ascii": "Salalah",
    "lat": "17.0197",
    "lng": "54.0897",
    "country": "Oman",
    "iso2": "OM",
    "iso3": "OMN",
    "admin_name": "Z̧ufār",
    "capital": "admin",
    "population": "178469",
    "id": "1512995148"
  },
  {
    "city": "As Suwayq",
    "city_ascii": "As Suwayq",
    "lat": "23.8494",
    "lng": "57.4386",
    "country": "Oman",
    "iso2": "OM",
    "iso3": "OMN",
    "admin_name": "Shamāl al Bāţinah",
    "capital": "",
    "population": "170000",
    "id": "1512745539"
  },
  {
    "city": "Aş Şuwayḩirah as Sāḩil",
    "city_ascii": "As Suwayhirah as Sahil",
    "lat": "24.3620",
    "lng": "56.7344",
    "country": "Oman",
    "iso2": "OM",
    "iso3": "OMN",
    "admin_name": "Shamāl al Bāţinah",
    "capital": "",
    "population": "151349",
    "id": "1512145575"
  },
  {
    "city": "Ar Rustāq",
    "city_ascii": "Ar Rustaq",
    "lat": "23.3908",
    "lng": "57.4244",
    "country": "Oman",
    "iso2": "OM",
    "iso3": "OMN",
    "admin_name": "Janūb al Bāţinah",
    "capital": "admin",
    "population": "120000",
    "id": "1512376854"
  },
  {
    "city": "Al Muḑaybī",
    "city_ascii": "Al Mudaybi",
    "lat": "22.5667",
    "lng": "58.1167",
    "country": "Oman",
    "iso2": "OM",
    "iso3": "OMN",
    "admin_name": "Shamāl ash Sharqīyah",
    "capital": "",
    "population": "115040",
    "id": "1512883829"
  },
  {
    "city": "‘Ibrī",
    "city_ascii": "`Ibri",
    "lat": "23.2325",
    "lng": "56.4973",
    "country": "Oman",
    "iso2": "OM",
    "iso3": "OMN",
    "admin_name": "Az̧ Z̧āhirah",
    "capital": "admin",
    "population": "101640",
    "id": "1512077267"
  },
  {
    "city": "Nizwá",
    "city_ascii": "Nizwa",
    "lat": "22.9333",
    "lng": "57.5333",
    "country": "Oman",
    "iso2": "OM",
    "iso3": "OMN",
    "admin_name": "Ad Dākhilīyah",
    "capital": "admin",
    "population": "72076",
    "id": "1512180300"
  },
  {
    "city": "Al Buraymī",
    "city_ascii": "Al Buraymi",
    "lat": "24.2592",
    "lng": "55.7839",
    "country": "Oman",
    "iso2": "OM",
    "iso3": "OMN",
    "admin_name": "Al Buraymī",
    "capital": "admin",
    "population": "67963",
    "id": "1512959921"
  },
  {
    "city": "Ibrā’",
    "city_ascii": "Ibra'",
    "lat": "22.6833",
    "lng": "58.5500",
    "country": "Oman",
    "iso2": "OM",
    "iso3": "OMN",
    "admin_name": "Shamāl ash Sharqīyah",
    "capital": "admin",
    "population": "35000",
    "id": "1512341564"
  },
  {
    "city": "Khaşab",
    "city_ascii": "Khasab",
    "lat": "26.1833",
    "lng": "56.2500",
    "country": "Oman",
    "iso2": "OM",
    "iso3": "OMN",
    "admin_name": "Musandam",
    "capital": "admin",
    "population": "17777",
    "id": "1512236141"
  },
  {
    "city": "Şuḩār",
    "city_ascii": "Suhar",
    "lat": "24.3420",
    "lng": "56.7299",
    "country": "Oman",
    "iso2": "OM",
    "iso3": "OMN",
    "admin_name": "Shamāl al Bāţinah",
    "capital": "admin",
    "population": "",
    "id": "1512602960"
  },
  {
    "city": "Şūr",
    "city_ascii": "Sur",
    "lat": "22.5667",
    "lng": "59.5289",
    "country": "Oman",
    "iso2": "OM",
    "iso3": "OMN",
    "admin_name": "Janūb ash Sharqīyah",
    "capital": "admin",
    "population": "",
    "id": "1512350600"
  },
  {
    "city": "Haymā’",
    "city_ascii": "Hayma'",
    "lat": "19.9569",
    "lng": "56.2758",
    "country": "Oman",
    "iso2": "OM",
    "iso3": "OMN",
    "admin_name": "Al Wusţá",
    "capital": "admin",
    "population": "",
    "id": "1512927824"
  },
  {
    "city": "Bahlā’",
    "city_ascii": "Bahla'",
    "lat": "22.9680",
    "lng": "57.2980",
    "country": "Oman",
    "iso2": "OM",
    "iso3": "OMN",
    "admin_name": "Ad Dākhilīyah",
    "capital": "",
    "population": "85000",
    "id": "1512321924"
  },
  {
    "city": "Samā’il",
    "city_ascii": "Sama'il",
    "lat": "23.3000",
    "lng": "57.9833",
    "country": "Oman",
    "iso2": "OM",
    "iso3": "OMN",
    "admin_name": "Ad Dākhilīyah",
    "capital": "",
    "population": "80538",
    "id": "1512936108"
  },
  {
    "city": "Al ‘Āmirāt",
    "city_ascii": "Al `Amirat",
    "lat": "23.5242",
    "lng": "58.4989",
    "country": "Oman",
    "iso2": "OM",
    "iso3": "OMN",
    "admin_name": "Masqaţ",
    "capital": "",
    "population": "70000",
    "id": "1512675854"
  },
  {
    "city": "Qurayyāt",
    "city_ascii": "Qurayyat",
    "lat": "23.3200",
    "lng": "58.9080",
    "country": "Oman",
    "iso2": "OM",
    "iso3": "OMN",
    "admin_name": "Masqaţ",
    "capital": "",
    "population": "63133",
    "id": "1512111751"
  },
  {
    "city": "Al Madrah Samā’il",
    "city_ascii": "Al Madrah Sama'il",
    "lat": "23.3103",
    "lng": "57.9455",
    "country": "Oman",
    "iso2": "OM",
    "iso3": "OMN",
    "admin_name": "Ad Dākhilīyah",
    "capital": "",
    "population": "47718",
    "id": "1512000205"
  },
  {
    "city": "Shināş",
    "city_ascii": "Shinas",
    "lat": "24.7500",
    "lng": "56.4667",
    "country": "Oman",
    "iso2": "OM",
    "iso3": "OMN",
    "admin_name": "Shamāl al Bāţinah",
    "capital": "",
    "population": "43312",
    "id": "1512941410"
  },
  {
    "city": "Izkī",
    "city_ascii": "Izki",
    "lat": "22.9339",
    "lng": "57.7750",
    "country": "Oman",
    "iso2": "OM",
    "iso3": "OMN",
    "admin_name": "Ad Dākhilīyah",
    "capital": "",
    "population": "35173",
    "id": "1512293504"
  },
  {
    "city": "Masqaţ",
    "city_ascii": "Masqat",
    "lat": "23.5889",
    "lng": "58.4083",
    "country": "Oman",
    "iso2": "OM",
    "iso3": "OMN",
    "admin_name": "Masqaţ",
    "capital": "",
    "population": "31409",
    "id": "1512001294"
  },
  {
    "city": "Nakhal",
    "city_ascii": "Nakhal",
    "lat": "23.3833",
    "lng": "57.8167",
    "country": "Oman",
    "iso2": "OM",
    "iso3": "OMN",
    "admin_name": "Janūb al Bāţinah",
    "capital": "",
    "population": "28088",
    "id": "1512392286"
  },
  {
    "city": "Ḑank",
    "city_ascii": "Dank",
    "lat": "23.5500",
    "lng": "56.2500",
    "country": "Oman",
    "iso2": "OM",
    "iso3": "OMN",
    "admin_name": "Az̧ Z̧āhirah",
    "capital": "",
    "population": "23466",
    "id": "1512330290"
  },
  {
    "city": "Ţāqah",
    "city_ascii": "Taqah",
    "lat": "17.0372",
    "lng": "54.4036",
    "country": "Oman",
    "iso2": "OM",
    "iso3": "OMN",
    "admin_name": "Z̧ufār",
    "capital": "",
    "population": "18218",
    "id": "1512705781"
  },
  {
    "city": "Fanjā’",
    "city_ascii": "Fanja'",
    "lat": "23.4675",
    "lng": "58.1061",
    "country": "Oman",
    "iso2": "OM",
    "iso3": "OMN",
    "admin_name": "Ad Dākhilīyah",
    "capital": "",
    "population": "10396",
    "id": "1512768698"
  },
  {
    "city": "Al Mazyūnah",
    "city_ascii": "Al Mazyunah",
    "lat": "17.8486",
    "lng": "52.6200",
    "country": "Oman",
    "iso2": "OM",
    "iso3": "OMN",
    "admin_name": "Z̧ufār",
    "capital": "minor",
    "population": "10000",
    "id": "1512004977"
  },
  {
    "city": "Mirbāţ",
    "city_ascii": "Mirbat",
    "lat": "16.9886",
    "lng": "54.6922",
    "country": "Oman",
    "iso2": "OM",
    "iso3": "OMN",
    "admin_name": "Z̧ufār",
    "capital": "",
    "population": "1120",
    "id": "1512455360"
  }
]