[
  {
    "city": "San José",
    "city_ascii": "San Jose",
    "lat": "9.9325",
    "lng": "-84.0800",
    "country": "Costa Rica",
    "iso2": "CR",
    "iso3": "CRI",
    "admin_name": "San José",
    "capital": "primary",
    "population": "1543000",
    "id": "1188749877"
  },
  {
    "city": "San Marcos",
    "city_ascii": "San Marcos",
    "lat": "10.6204",
    "lng": "-84.5120",
    "country": "Costa Rica",
    "iso2": "CR",
    "iso3": "CRI",
    "admin_name": "Alajuela",
    "capital": "",
    "population": "163745",
    "id": "1188000770"
  },
  {
    "city": "Puerto Limón",
    "city_ascii": "Puerto Limon",
    "lat": "10.0022",
    "lng": "-83.0840",
    "country": "Costa Rica",
    "iso2": "CR",
    "iso3": "CRI",
    "admin_name": "Limón",
    "capital": "admin",
    "population": "60710",
    "id": "1188214393"
  },
  {
    "city": "Alajuela",
    "city_ascii": "Alajuela",
    "lat": "10.1640",
    "lng": "-84.2645",
    "country": "Costa Rica",
    "iso2": "CR",
    "iso3": "CRI",
    "admin_name": "Alajuela",
    "capital": "admin",
    "population": "48326",
    "id": "1188394508"
  },
  {
    "city": "Liberia",
    "city_ascii": "Liberia",
    "lat": "10.6333",
    "lng": "-85.4333",
    "country": "Costa Rica",
    "iso2": "CR",
    "iso3": "CRI",
    "admin_name": "Guanacaste",
    "capital": "admin",
    "population": "53382",
    "id": "1188743090"
  },
  {
    "city": "Desamparados",
    "city_ascii": "Desamparados",
    "lat": "9.8967",
    "lng": "-84.0706",
    "country": "Costa Rica",
    "iso2": "CR",
    "iso3": "CRI",
    "admin_name": "San José",
    "capital": "",
    "population": "33866",
    "id": "1188280055"
  },
  {
    "city": "Puntarenas",
    "city_ascii": "Puntarenas",
    "lat": "9.9667",
    "lng": "-84.8333",
    "country": "Costa Rica",
    "iso2": "CR",
    "iso3": "CRI",
    "admin_name": "Puntarenas",
    "capital": "admin",
    "population": "41528",
    "id": "1188639267"
  },
  {
    "city": "San Vicente",
    "city_ascii": "San Vicente",
    "lat": "9.9636",
    "lng": "-84.0454",
    "country": "Costa Rica",
    "iso2": "CR",
    "iso3": "CRI",
    "admin_name": "San José",
    "capital": "",
    "population": "30998",
    "id": "1188615727"
  },
  {
    "city": "Purral",
    "city_ascii": "Purral",
    "lat": "9.9594",
    "lng": "-84.0165",
    "country": "Costa Rica",
    "iso2": "CR",
    "iso3": "CRI",
    "admin_name": "San José",
    "capital": "",
    "population": "27464",
    "id": "1188161276"
  },
  {
    "city": "San Rafael Abajo",
    "city_ascii": "San Rafael Abajo",
    "lat": "9.8943",
    "lng": "-84.0837",
    "country": "Costa Rica",
    "iso2": "CR",
    "iso3": "CRI",
    "admin_name": "San José",
    "capital": "",
    "population": "23283",
    "id": "1188603380"
  },
  {
    "city": "Curridabat",
    "city_ascii": "Curridabat",
    "lat": "9.9160",
    "lng": "-84.0348",
    "country": "Costa Rica",
    "iso2": "CR",
    "iso3": "CRI",
    "admin_name": "San José",
    "capital": "",
    "population": "28817",
    "id": "1188145799"
  },
  {
    "city": "San Juan",
    "city_ascii": "San Juan",
    "lat": "9.9609",
    "lng": "-84.0731",
    "country": "Costa Rica",
    "iso2": "CR",
    "iso3": "CRI",
    "admin_name": "San José",
    "capital": "",
    "population": "25866",
    "id": "1188421709"
  },
  {
    "city": "San Pablo",
    "city_ascii": "San Pablo",
    "lat": "9.9918",
    "lng": "-84.0937",
    "country": "Costa Rica",
    "iso2": "CR",
    "iso3": "CRI",
    "admin_name": "Heredia",
    "capital": "",
    "population": "27671",
    "id": "1188253448"
  },
  {
    "city": "Guadalupe",
    "city_ascii": "Guadalupe",
    "lat": "9.9494",
    "lng": "-84.0512",
    "country": "Costa Rica",
    "iso2": "CR",
    "iso3": "CRI",
    "admin_name": "San José",
    "capital": "",
    "population": "20663",
    "id": "1188603819"
  },
  {
    "city": "San Pedro",
    "city_ascii": "San Pedro",
    "lat": "9.9332",
    "lng": "-84.0470",
    "country": "Costa Rica",
    "iso2": "CR",
    "iso3": "CRI",
    "admin_name": "San José",
    "capital": "",
    "population": "23977",
    "id": "1188342624"
  },
  {
    "city": "Cartago",
    "city_ascii": "Cartago",
    "lat": "9.8667",
    "lng": "-83.9167",
    "country": "Costa Rica",
    "iso2": "CR",
    "iso3": "CRI",
    "admin_name": "Cartago",
    "capital": "admin",
    "population": "22775",
    "id": "1188911724"
  },
  {
    "city": "Desamparados",
    "city_ascii": "Desamparados",
    "lat": "10.0315",
    "lng": "-84.1877",
    "country": "Costa Rica",
    "iso2": "CR",
    "iso3": "CRI",
    "admin_name": "Alajuela",
    "capital": "",
    "population": "26109",
    "id": "1188458855"
  },
  {
    "city": "San Francisco",
    "city_ascii": "San Francisco",
    "lat": "9.9083",
    "lng": "-84.0582",
    "country": "Costa Rica",
    "iso2": "CR",
    "iso3": "CRI",
    "admin_name": "San José",
    "capital": "",
    "population": "20209",
    "id": "1188068837"
  },
  {
    "city": "San Juan de Dios",
    "city_ascii": "San Juan de Dios",
    "lat": "9.8800",
    "lng": "-84.0914",
    "country": "Costa Rica",
    "iso2": "CR",
    "iso3": "CRI",
    "admin_name": "San José",
    "capital": "",
    "population": "19481",
    "id": "1188722628"
  },
  {
    "city": "Heredia",
    "city_ascii": "Heredia",
    "lat": "9.9985",
    "lng": "-84.1169",
    "country": "Costa Rica",
    "iso2": "CR",
    "iso3": "CRI",
    "admin_name": "Heredia",
    "capital": "admin",
    "population": "18988",
    "id": "1188210837"
  },
  {
    "city": "Zapote",
    "city_ascii": "Zapote",
    "lat": "9.9203",
    "lng": "-84.0592",
    "country": "Costa Rica",
    "iso2": "CR",
    "iso3": "CRI",
    "admin_name": "San José",
    "capital": "",
    "population": "18679",
    "id": "1188568386"
  },
  {
    "city": "Alajuelita",
    "city_ascii": "Alajuelita",
    "lat": "9.9035",
    "lng": "-84.0996",
    "country": "Costa Rica",
    "iso2": "CR",
    "iso3": "CRI",
    "admin_name": "San José",
    "capital": "",
    "population": "11988",
    "id": "1188793732"
  },
  {
    "city": "San Josecito",
    "city_ascii": "San Josecito",
    "lat": "10.0126",
    "lng": "-84.1119",
    "country": "Costa Rica",
    "iso2": "CR",
    "iso3": "CRI",
    "admin_name": "Heredia",
    "capital": "",
    "population": "11579",
    "id": "1188695402"
  },
  {
    "city": "San Rafael Arriba",
    "city_ascii": "San Rafael Arriba",
    "lat": "9.8778",
    "lng": "-84.0708",
    "country": "Costa Rica",
    "iso2": "CR",
    "iso3": "CRI",
    "admin_name": "San José",
    "capital": "",
    "population": "15262",
    "id": "1188271296"
  },
  {
    "city": "San Isidro",
    "city_ascii": "San Isidro",
    "lat": "9.9737",
    "lng": "-83.9861",
    "country": "Costa Rica",
    "iso2": "CR",
    "iso3": "CRI",
    "admin_name": "San José",
    "capital": "",
    "population": "16625",
    "id": "1188070945"
  },
  {
    "city": "Santa Ana",
    "city_ascii": "Santa Ana",
    "lat": "9.9320",
    "lng": "-84.1760",
    "country": "Costa Rica",
    "iso2": "CR",
    "iso3": "CRI",
    "admin_name": "San José",
    "capital": "",
    "population": "12956",
    "id": "1188252548"
  },
  {
    "city": "San Josecito",
    "city_ascii": "San Josecito",
    "lat": "9.8885",
    "lng": "-84.1055",
    "country": "Costa Rica",
    "iso2": "CR",
    "iso3": "CRI",
    "admin_name": "San José",
    "capital": "",
    "population": "10506",
    "id": "1188452639"
  },
  {
    "city": "Escazú",
    "city_ascii": "Escazu",
    "lat": "9.9160",
    "lng": "-84.1459",
    "country": "Costa Rica",
    "iso2": "CR",
    "iso3": "CRI",
    "admin_name": "San José",
    "capital": "",
    "population": "11984",
    "id": "1188889337"
  },
  {
    "city": "Tres Ríos",
    "city_ascii": "Tres Rios",
    "lat": "9.9072",
    "lng": "-83.9865",
    "country": "Costa Rica",
    "iso2": "CR",
    "iso3": "CRI",
    "admin_name": "Cartago",
    "capital": "",
    "population": "9331",
    "id": "1188655041"
  },
  {
    "city": "San Antonio",
    "city_ascii": "San Antonio",
    "lat": "9.9781",
    "lng": "-84.1879",
    "country": "Costa Rica",
    "iso2": "CR",
    "iso3": "CRI",
    "admin_name": "Alajuela",
    "capital": "",
    "population": "9942",
    "id": "1188109339"
  },
  {
    "city": "San Ramón",
    "city_ascii": "San Ramon",
    "lat": "10.2182",
    "lng": "-84.5992",
    "country": "Costa Rica",
    "iso2": "CR",
    "iso3": "CRI",
    "admin_name": "Alajuela",
    "capital": "",
    "population": "80566",
    "id": "1188012869"
  },
  {
    "city": "Mora",
    "city_ascii": "Mora",
    "lat": "10.0088",
    "lng": "-84.0216",
    "country": "Costa Rica",
    "iso2": "CR",
    "iso3": "CRI",
    "admin_name": "Heredia",
    "capital": "",
    "population": "56919",
    "id": "1188001388"
  },
  {
    "city": "Sarapiquí",
    "city_ascii": "Sarapiqui",
    "lat": "10.4853",
    "lng": "-83.9362",
    "country": "Costa Rica",
    "iso2": "CR",
    "iso3": "CRI",
    "admin_name": "Heredia",
    "capital": "",
    "population": "57147",
    "id": "1188413717"
  },
  {
    "city": "Santa Cruz",
    "city_ascii": "Santa Cruz",
    "lat": "10.2358",
    "lng": "-85.6408",
    "country": "Costa Rica",
    "iso2": "CR",
    "iso3": "CRI",
    "admin_name": "Guanacaste",
    "capital": "",
    "population": "55104",
    "id": "1188628183"
  },
  {
    "city": "Nicoya",
    "city_ascii": "Nicoya",
    "lat": "10.1024",
    "lng": "-85.4431",
    "country": "Costa Rica",
    "iso2": "CR",
    "iso3": "CRI",
    "admin_name": "Guanacaste",
    "capital": "",
    "population": "50825",
    "id": "1188473245"
  },
  {
    "city": "San Rafael",
    "city_ascii": "San Rafael",
    "lat": "10.0417",
    "lng": "-84.0750",
    "country": "Costa Rica",
    "iso2": "CR",
    "iso3": "CRI",
    "admin_name": "Heredia",
    "capital": "",
    "population": "45965",
    "id": "1188978329"
  },
  {
    "city": "San Isidro",
    "city_ascii": "San Isidro",
    "lat": "9.3403",
    "lng": "-83.7338",
    "country": "Costa Rica",
    "iso2": "CR",
    "iso3": "CRI",
    "admin_name": "San José",
    "capital": "",
    "population": "45327",
    "id": "1188493240"
  },
  {
    "city": "Naranjo",
    "city_ascii": "Naranjo",
    "lat": "10.1053",
    "lng": "-84.3885",
    "country": "Costa Rica",
    "iso2": "CR",
    "iso3": "CRI",
    "admin_name": "Alajuela",
    "capital": "",
    "population": "42713",
    "id": "1188055345"
  },
  {
    "city": "Quesada",
    "city_ascii": "Quesada",
    "lat": "10.3441",
    "lng": "-84.4199",
    "country": "Costa Rica",
    "iso2": "CR",
    "iso3": "CRI",
    "admin_name": "Alajuela",
    "capital": "",
    "population": "42060",
    "id": "1188199888"
  },
  {
    "city": "Santo Domingo",
    "city_ascii": "Santo Domingo",
    "lat": "9.9880",
    "lng": "-84.0686",
    "country": "Costa Rica",
    "iso2": "CR",
    "iso3": "CRI",
    "admin_name": "Heredia",
    "capital": "",
    "population": "40072",
    "id": "1188708621"
  },
  {
    "city": "Guácimo",
    "city_ascii": "Guacimo",
    "lat": "10.2025",
    "lng": "-83.6223",
    "country": "Costa Rica",
    "iso2": "CR",
    "iso3": "CRI",
    "admin_name": "Limón",
    "capital": "",
    "population": "41266",
    "id": "1188400409"
  },
  {
    "city": "Coto Brus",
    "city_ascii": "Coto Brus",
    "lat": "8.8890",
    "lng": "-82.9092",
    "country": "Costa Rica",
    "iso2": "CR",
    "iso3": "CRI",
    "admin_name": "Puntarenas",
    "capital": "",
    "population": "38453",
    "id": "1188593631"
  },
  {
    "city": "Matina",
    "city_ascii": "Matina",
    "lat": "10.0099",
    "lng": "-83.3096",
    "country": "Costa Rica",
    "iso2": "CR",
    "iso3": "CRI",
    "admin_name": "Limón",
    "capital": "",
    "population": "37721",
    "id": "1188640480"
  },
  {
    "city": "Guápiles",
    "city_ascii": "Guapiles",
    "lat": "10.2070",
    "lng": "-83.8581",
    "country": "Costa Rica",
    "iso2": "CR",
    "iso3": "CRI",
    "admin_name": "Limón",
    "capital": "",
    "population": "36469",
    "id": "1188786301"
  },
  {
    "city": "Palmares",
    "city_ascii": "Palmares",
    "lat": "10.0466",
    "lng": "-84.4373",
    "country": "Costa Rica",
    "iso2": "CR",
    "iso3": "CRI",
    "admin_name": "Alajuela",
    "capital": "",
    "population": "34716",
    "id": "1188588183"
  },
  {
    "city": "Cariari",
    "city_ascii": "Cariari",
    "lat": "10.4349",
    "lng": "-83.6851",
    "country": "Costa Rica",
    "iso2": "CR",
    "iso3": "CRI",
    "admin_name": "Limón",
    "capital": "",
    "population": "34176",
    "id": "1188001355"
  },
  {
    "city": "La Uruca",
    "city_ascii": "La Uruca",
    "lat": "9.9575",
    "lng": "-84.1327",
    "country": "Costa Rica",
    "iso2": "CR",
    "iso3": "CRI",
    "admin_name": "San José",
    "capital": "",
    "population": "31728",
    "id": "1188598269"
  },
  {
    "city": "Siquirres",
    "city_ascii": "Siquirres",
    "lat": "10.0901",
    "lng": "-83.5016",
    "country": "Costa Rica",
    "iso2": "CR",
    "iso3": "CRI",
    "admin_name": "Limón",
    "capital": "",
    "population": "31637",
    "id": "1188355031"
  },
  {
    "city": "Poás",
    "city_ascii": "Poas",
    "lat": "10.1060",
    "lng": "-84.2475",
    "country": "Costa Rica",
    "iso2": "CR",
    "iso3": "CRI",
    "admin_name": "Alajuela",
    "capital": "",
    "population": "29199",
    "id": "1188859935"
  },
  {
    "city": "Buenos Aires",
    "city_ascii": "Buenos Aires",
    "lat": "9.1985",
    "lng": "-83.2816",
    "country": "Costa Rica",
    "iso2": "CR",
    "iso3": "CRI",
    "admin_name": "Puntarenas",
    "capital": "",
    "population": "29454",
    "id": "1188382290"
  },
  {
    "city": "Esparza",
    "city_ascii": "Esparza",
    "lat": "9.9959",
    "lng": "-84.6467",
    "country": "Costa Rica",
    "iso2": "CR",
    "iso3": "CRI",
    "admin_name": "Puntarenas",
    "capital": "",
    "population": "28644",
    "id": "1188812694"
  },
  {
    "city": "Turrialba",
    "city_ascii": "Turrialba",
    "lat": "9.8897",
    "lng": "-83.6807",
    "country": "Costa Rica",
    "iso2": "CR",
    "iso3": "CRI",
    "admin_name": "Cartago",
    "capital": "",
    "population": "26680",
    "id": "1188199997"
  },
  {
    "city": "Cañas",
    "city_ascii": "Canas",
    "lat": "10.4457",
    "lng": "-85.0992",
    "country": "Costa Rica",
    "iso2": "CR",
    "iso3": "CRI",
    "admin_name": "Guanacaste",
    "capital": "",
    "population": "26201",
    "id": "1188753368"
  },
  {
    "city": "Horquetas",
    "city_ascii": "Horquetas",
    "lat": "10.3195",
    "lng": "-83.9647",
    "country": "Costa Rica",
    "iso2": "CR",
    "iso3": "CRI",
    "admin_name": "Heredia",
    "capital": "",
    "population": "24331",
    "id": "1188000133"
  },
  {
    "city": "Rita",
    "city_ascii": "Rita",
    "lat": "10.4337",
    "lng": "-83.7530",
    "country": "Costa Rica",
    "iso2": "CR",
    "iso3": "CRI",
    "admin_name": "Limón",
    "capital": "",
    "population": "24041",
    "id": "1188000230"
  },
  {
    "city": "Paraíso",
    "city_ascii": "Paraiso",
    "lat": "9.8432",
    "lng": "-83.8463",
    "country": "Costa Rica",
    "iso2": "CR",
    "iso3": "CRI",
    "admin_name": "Cartago",
    "capital": "",
    "population": "20601",
    "id": "1188699728"
  },
  {
    "city": "San Isidro",
    "city_ascii": "San Isidro",
    "lat": "10.0299",
    "lng": "-84.0431",
    "country": "Costa Rica",
    "iso2": "CR",
    "iso3": "CRI",
    "admin_name": "Heredia",
    "capital": "",
    "population": "20633",
    "id": "1188832612"
  },
  {
    "city": "Guácima",
    "city_ascii": "Guacima",
    "lat": "9.9613",
    "lng": "-84.2588",
    "country": "Costa Rica",
    "iso2": "CR",
    "iso3": "CRI",
    "admin_name": "Alajuela",
    "capital": "",
    "population": "20183",
    "id": "1188224134"
  },
  {
    "city": "Sartalillo",
    "city_ascii": "Sartalillo",
    "lat": "9.9759",
    "lng": "-84.0232",
    "country": "Costa Rica",
    "iso2": "CR",
    "iso3": "CRI",
    "admin_name": "Cartago",
    "capital": "",
    "population": "20349",
    "id": "1188001617"
  },
  {
    "city": "Aguas Zarcas",
    "city_ascii": "Aguas Zarcas",
    "lat": "10.4223",
    "lng": "-84.3554",
    "country": "Costa Rica",
    "iso2": "CR",
    "iso3": "CRI",
    "admin_name": "Alajuela",
    "capital": "",
    "population": "20239",
    "id": "1188992281"
  },
  {
    "city": "Puerto Viejo",
    "city_ascii": "Puerto Viejo",
    "lat": "10.5737",
    "lng": "-83.9548",
    "country": "Costa Rica",
    "iso2": "CR",
    "iso3": "CRI",
    "admin_name": "Heredia",
    "capital": "",
    "population": "20184",
    "id": "1188508084"
  },
  {
    "city": "Quepos",
    "city_ascii": "Quepos",
    "lat": "9.4571",
    "lng": "-84.1387",
    "country": "Costa Rica",
    "iso2": "CR",
    "iso3": "CRI",
    "admin_name": "Puntarenas",
    "capital": "",
    "population": "19858",
    "id": "1188443023"
  },
  {
    "city": "Bagaces",
    "city_ascii": "Bagaces",
    "lat": "10.5157",
    "lng": "-85.2478",
    "country": "Costa Rica",
    "iso2": "CR",
    "iso3": "CRI",
    "admin_name": "Guanacaste",
    "capital": "",
    "population": "19536",
    "id": "1188033610"
  },
  {
    "city": "Abangaritos",
    "city_ascii": "Abangaritos",
    "lat": "10.2492",
    "lng": "-85.0268",
    "country": "Costa Rica",
    "iso2": "CR",
    "iso3": "CRI",
    "admin_name": "Puntarenas",
    "capital": "",
    "population": "18039",
    "id": "1188357414"
  },
  {
    "city": "Colón",
    "city_ascii": "Colon",
    "lat": "9.9096",
    "lng": "-84.2620",
    "country": "Costa Rica",
    "iso2": "CR",
    "iso3": "CRI",
    "admin_name": "San José",
    "capital": "",
    "population": "17411",
    "id": "1188235947"
  },
  {
    "city": "Pital",
    "city_ascii": "Pital",
    "lat": "10.6024",
    "lng": "-84.2474",
    "country": "Costa Rica",
    "iso2": "CR",
    "iso3": "CRI",
    "admin_name": "Alajuela",
    "capital": "",
    "population": "17318",
    "id": "1188091027"
  },
  {
    "city": "Roxana",
    "city_ascii": "Roxana",
    "lat": "10.3586",
    "lng": "-83.6738",
    "country": "Costa Rica",
    "iso2": "CR",
    "iso3": "CRI",
    "admin_name": "Limón",
    "capital": "",
    "population": "16790",
    "id": "1188274720"
  },
  {
    "city": "Grecia",
    "city_ascii": "Grecia",
    "lat": "10.0693",
    "lng": "-84.3136",
    "country": "Costa Rica",
    "iso2": "CR",
    "iso3": "CRI",
    "admin_name": "Alajuela",
    "capital": "",
    "population": "14859",
    "id": "1188985866"
  },
  {
    "city": "Pozos",
    "city_ascii": "Pozos",
    "lat": "9.9536",
    "lng": "-84.1926",
    "country": "Costa Rica",
    "iso2": "CR",
    "iso3": "CRI",
    "admin_name": "San José",
    "capital": "",
    "population": "15585",
    "id": "1188000058"
  },
  {
    "city": "Batán",
    "city_ascii": "Batan",
    "lat": "10.1041",
    "lng": "-83.3529",
    "country": "Costa Rica",
    "iso2": "CR",
    "iso3": "CRI",
    "admin_name": "Limón",
    "capital": "",
    "population": "16532",
    "id": "1188331157"
  },
  {
    "city": "Upala",
    "city_ascii": "Upala",
    "lat": "10.8645",
    "lng": "-84.9942",
    "country": "Costa Rica",
    "iso2": "CR",
    "iso3": "CRI",
    "admin_name": "Alajuela",
    "capital": "",
    "population": "16139",
    "id": "1188635884"
  },
  {
    "city": "Parrita",
    "city_ascii": "Parrita",
    "lat": "9.5471",
    "lng": "-84.3464",
    "country": "Costa Rica",
    "iso2": "CR",
    "iso3": "CRI",
    "admin_name": "Puntarenas",
    "capital": "",
    "population": "16115",
    "id": "1188507189"
  },
  {
    "city": "Fortuna",
    "city_ascii": "Fortuna",
    "lat": "10.4483",
    "lng": "-84.6421",
    "country": "Costa Rica",
    "iso2": "CR",
    "iso3": "CRI",
    "admin_name": "Alajuela",
    "capital": "",
    "population": "15383",
    "id": "1188145328"
  },
  {
    "city": "Florencia",
    "city_ascii": "Florencia",
    "lat": "10.3665",
    "lng": "-84.4814",
    "country": "Costa Rica",
    "iso2": "CR",
    "iso3": "CRI",
    "admin_name": "Alajuela",
    "capital": "",
    "population": "15149",
    "id": "1188578028"
  },
  {
    "city": "San Vito",
    "city_ascii": "San Vito",
    "lat": "8.8400",
    "lng": "-82.9784",
    "country": "Costa Rica",
    "iso2": "CR",
    "iso3": "CRI",
    "admin_name": "Puntarenas",
    "capital": "",
    "population": "14834",
    "id": "1188392681"
  },
  {
    "city": "Sardinal",
    "city_ascii": "Sardinal",
    "lat": "10.5343",
    "lng": "-85.6955",
    "country": "Costa Rica",
    "iso2": "CR",
    "iso3": "CRI",
    "admin_name": "Guanacaste",
    "capital": "",
    "population": "14912",
    "id": "1188475127"
  },
  {
    "city": "Copalchí",
    "city_ascii": "Copalchi",
    "lat": "9.8473",
    "lng": "-84.0834",
    "country": "Costa Rica",
    "iso2": "CR",
    "iso3": "CRI",
    "admin_name": "Cartago",
    "capital": "",
    "population": "13676",
    "id": "1188649164"
  },
  {
    "city": "Los Chiles",
    "city_ascii": "Los Chiles",
    "lat": "10.9639",
    "lng": "-84.5990",
    "country": "Costa Rica",
    "iso2": "CR",
    "iso3": "CRI",
    "admin_name": "Alajuela",
    "capital": "",
    "population": "13262",
    "id": "1188974834"
  },
  {
    "city": "Matinilla",
    "city_ascii": "Matinilla",
    "lat": "9.9246",
    "lng": "-84.0713",
    "country": "Costa Rica",
    "iso2": "CR",
    "iso3": "CRI",
    "admin_name": "San José",
    "capital": "",
    "population": "12936",
    "id": "1188724391"
  },
  {
    "city": "Santiago",
    "city_ascii": "Santiago",
    "lat": "9.8291",
    "lng": "-84.3044",
    "country": "Costa Rica",
    "iso2": "CR",
    "iso3": "CRI",
    "admin_name": "San José",
    "capital": "",
    "population": "12600",
    "id": "1188768291"
  },
  {
    "city": "Puerto Jiménez",
    "city_ascii": "Puerto Jimenez",
    "lat": "8.5338",
    "lng": "-83.4610",
    "country": "Costa Rica",
    "iso2": "CR",
    "iso3": "CRI",
    "admin_name": "Puntarenas",
    "capital": "",
    "population": "12836",
    "id": "1188020392"
  },
  {
    "city": "Río Segundo",
    "city_ascii": "Rio Segundo",
    "lat": "10.0013",
    "lng": "-84.1937",
    "country": "Costa Rica",
    "iso2": "CR",
    "iso3": "CRI",
    "admin_name": "Alajuela",
    "capital": "",
    "population": "10794",
    "id": "1188990744"
  },
  {
    "city": "Patarrá",
    "city_ascii": "Patarra",
    "lat": "9.8637",
    "lng": "-84.0248",
    "country": "Costa Rica",
    "iso2": "CR",
    "iso3": "CRI",
    "admin_name": "San José",
    "capital": "",
    "population": "11921",
    "id": "1188875771"
  },
  {
    "city": "Sixaola",
    "city_ascii": "Sixaola",
    "lat": "9.5579",
    "lng": "-82.6698",
    "country": "Costa Rica",
    "iso2": "CR",
    "iso3": "CRI",
    "admin_name": "Limón",
    "capital": "",
    "population": "11847",
    "id": "1188537249"
  },
  {
    "city": "Jacó",
    "city_ascii": "Jaco",
    "lat": "9.6200",
    "lng": "-84.6044",
    "country": "Costa Rica",
    "iso2": "CR",
    "iso3": "CRI",
    "admin_name": "Puntarenas",
    "capital": "",
    "population": "11685",
    "id": "1188795142"
  },
  {
    "city": "Golfito",
    "city_ascii": "Golfito",
    "lat": "8.6526",
    "lng": "-83.1733",
    "country": "Costa Rica",
    "iso2": "CR",
    "iso3": "CRI",
    "admin_name": "Puntarenas",
    "capital": "",
    "population": "11284",
    "id": "1188695145"
  },
  {
    "city": "Nandayure",
    "city_ascii": "Nandayure",
    "lat": "9.9014",
    "lng": "-85.3036",
    "country": "Costa Rica",
    "iso2": "CR",
    "iso3": "CRI",
    "admin_name": "Guanacaste",
    "capital": "",
    "population": "11121",
    "id": "1188253070"
  },
  {
    "city": "Río Cuarto",
    "city_ascii": "Rio Cuarto",
    "lat": "10.4076",
    "lng": "-84.2135",
    "country": "Costa Rica",
    "iso2": "CR",
    "iso3": "CRI",
    "admin_name": "Alajuela",
    "capital": "",
    "population": "11074",
    "id": "1188906648"
  },
  {
    "city": "Sabalito",
    "city_ascii": "Sabalito",
    "lat": "8.8828",
    "lng": "-82.8314",
    "country": "Costa Rica",
    "iso2": "CR",
    "iso3": "CRI",
    "admin_name": "Puntarenas",
    "capital": "",
    "population": "10984",
    "id": "1188952077"
  },
  {
    "city": "Puente de Piedra",
    "city_ascii": "Puente de Piedra",
    "lat": "10.0298",
    "lng": "-84.3332",
    "country": "Costa Rica",
    "iso2": "CR",
    "iso3": "CRI",
    "admin_name": "Alajuela",
    "capital": "",
    "population": "10556",
    "id": "1188813185"
  },
  {
    "city": "Jiménez",
    "city_ascii": "Jimenez",
    "lat": "10.1797",
    "lng": "-83.7382",
    "country": "Costa Rica",
    "iso2": "CR",
    "iso3": "CRI",
    "admin_name": "Limón",
    "capital": "",
    "population": "10501",
    "id": "1188944993"
  },
  {
    "city": "La Virgen",
    "city_ascii": "La Virgen",
    "lat": "10.4312",
    "lng": "-84.0772",
    "country": "Costa Rica",
    "iso2": "CR",
    "iso3": "CRI",
    "admin_name": "Heredia",
    "capital": "",
    "population": "10521",
    "id": "1188953313"
  },
  {
    "city": "San Marcos",
    "city_ascii": "San Marcos",
    "lat": "9.6703",
    "lng": "-84.0092",
    "country": "Costa Rica",
    "iso2": "CR",
    "iso3": "CRI",
    "admin_name": "San José",
    "capital": "",
    "population": "9993",
    "id": "1188432245"
  },
  {
    "city": "Carrillos",
    "city_ascii": "Carrillos",
    "lat": "10.0369",
    "lng": "-84.2740",
    "country": "Costa Rica",
    "iso2": "CR",
    "iso3": "CRI",
    "admin_name": "Alajuela",
    "capital": "",
    "population": "9228",
    "id": "1188308366"
  },
  {
    "city": "Orotina",
    "city_ascii": "Orotina",
    "lat": "9.9024",
    "lng": "-84.5250",
    "country": "Costa Rica",
    "iso2": "CR",
    "iso3": "CRI",
    "admin_name": "Alajuela",
    "capital": "",
    "population": "9664",
    "id": "1188644309"
  },
  {
    "city": "San Ignacio",
    "city_ascii": "San Ignacio",
    "lat": "9.7997",
    "lng": "-84.1630",
    "country": "Costa Rica",
    "iso2": "CR",
    "iso3": "CRI",
    "admin_name": "San José",
    "capital": "",
    "population": "9016",
    "id": "1188539770"
  },
  {
    "city": "Dulce Nombre de Jesús",
    "city_ascii": "Dulce Nombre de Jesus",
    "lat": "10.0838",
    "lng": "-83.9810",
    "country": "Costa Rica",
    "iso2": "CR",
    "iso3": "CRI",
    "admin_name": "San José",
    "capital": "",
    "population": "9744",
    "id": "1188000426"
  },
  {
    "city": "Venecia",
    "city_ascii": "Venecia",
    "lat": "10.3357",
    "lng": "-84.2859",
    "country": "Costa Rica",
    "iso2": "CR",
    "iso3": "CRI",
    "admin_name": "Alajuela",
    "capital": "",
    "population": "9638",
    "id": "1188167757"
  },
  {
    "city": "Canoas",
    "city_ascii": "Canoas",
    "lat": "8.5333",
    "lng": "-82.8333",
    "country": "Costa Rica",
    "iso2": "CR",
    "iso3": "CRI",
    "admin_name": "Puntarenas",
    "capital": "",
    "population": "9543",
    "id": "1188828441"
  },
  {
    "city": "La Cruz",
    "city_ascii": "La Cruz",
    "lat": "11.0845",
    "lng": "-85.6436",
    "country": "Costa Rica",
    "iso2": "CR",
    "iso3": "CRI",
    "admin_name": "Guanacaste",
    "capital": "",
    "population": "9195",
    "id": "1188840021"
  },
  {
    "city": "Río Jiménez",
    "city_ascii": "Rio Jimenez",
    "lat": "10.2556",
    "lng": "-83.5629",
    "country": "Costa Rica",
    "iso2": "CR",
    "iso3": "CRI",
    "admin_name": "Limón",
    "capital": "",
    "population": "8742",
    "id": "1188994272"
  },
  {
    "city": "Pacuarito",
    "city_ascii": "Pacuarito",
    "lat": "10.1093",
    "lng": "-83.4091",
    "country": "Costa Rica",
    "iso2": "CR",
    "iso3": "CRI",
    "admin_name": "Limón",
    "capital": "",
    "population": "8756",
    "id": "1188497482"
  },
  {
    "city": "Tilarán",
    "city_ascii": "Tilaran",
    "lat": "10.4709",
    "lng": "-84.9674",
    "country": "Costa Rica",
    "iso2": "CR",
    "iso3": "CRI",
    "admin_name": "Guanacaste",
    "capital": "",
    "population": "8677",
    "id": "1188878981"
  },
  {
    "city": "Ciudad Cortés",
    "city_ascii": "Ciudad Cortes",
    "lat": "9.0221",
    "lng": "-83.5751",
    "country": "Costa Rica",
    "iso2": "CR",
    "iso3": "CRI",
    "admin_name": "Puntarenas",
    "capital": "",
    "population": "7969",
    "id": "1188296792"
  }
]