[
  {
    "city": "Moroni",
    "city_ascii": "Moroni",
    "lat": "-11.6990",
    "lng": "43.2560",
    "country": "Comoros",
    "iso2": "KM",
    "iso3": "COM",
    "admin_name": "Grande Comore",
    "capital": "primary",
    "population": "111329",
    "id": "1174793581"
  },
  {
    "city": "Mutsamudu",
    "city_ascii": "Mutsamudu",
    "lat": "-12.1675",
    "lng": "44.3939",
    "country": "Comoros",
    "iso2": "KM",
    "iso3": "COM",
    "admin_name": "Anjouan",
    "capital": "admin",
    "population": "30000",
    "id": "1174036583"
  },
  {
    "city": "Fomboni",
    "city_ascii": "Fomboni",
    "lat": "-12.2800",
    "lng": "43.7425",
    "country": "Comoros",
    "iso2": "KM",
    "iso3": "COM",
    "admin_name": "Mohéli",
    "capital": "admin",
    "population": "18277",
    "id": "1174539766"
  },
  {
    "city": "Ouani",
    "city_ascii": "Ouani",
    "lat": "-12.1350",
    "lng": "44.4275",
    "country": "Comoros",
    "iso2": "KM",
    "iso3": "COM",
    "admin_name": "Anjouan",
    "capital": "",
    "population": "22501",
    "id": "1174574251"
  },
  {
    "city": "Mandza",
    "city_ascii": "Mandza",
    "lat": "-11.4167",
    "lng": "43.3000",
    "country": "Comoros",
    "iso2": "KM",
    "iso3": "COM",
    "admin_name": "Grande Comore",
    "capital": "",
    "population": "21000",
    "id": "1174892176"
  },
  {
    "city": "Domoni",
    "city_ascii": "Domoni",
    "lat": "-12.2586",
    "lng": "44.5303",
    "country": "Comoros",
    "iso2": "KM",
    "iso3": "COM",
    "admin_name": "Anjouan",
    "capital": "",
    "population": "16276",
    "id": "1174938041"
  },
  {
    "city": "Adda-Douéni",
    "city_ascii": "Adda-Doueni",
    "lat": "-12.3000",
    "lng": "44.5000",
    "country": "Comoros",
    "iso2": "KM",
    "iso3": "COM",
    "admin_name": "Anjouan",
    "capital": "",
    "population": "10858",
    "id": "1174212129"
  },
  {
    "city": "Kourani",
    "city_ascii": "Kourani",
    "lat": "-11.8511",
    "lng": "43.4261",
    "country": "Comoros",
    "iso2": "KM",
    "iso3": "COM",
    "admin_name": "Grande Comore",
    "capital": "",
    "population": "10000",
    "id": "1174935601"
  },
  {
    "city": "Bazimini",
    "city_ascii": "Bazimini",
    "lat": "-12.1833",
    "lng": "44.4500",
    "country": "Comoros",
    "iso2": "KM",
    "iso3": "COM",
    "admin_name": "Anjouan",
    "capital": "",
    "population": "8952",
    "id": "1174603336"
  }
]