[
  {
    "city": "Rome",
    "city_ascii": "Rome",
    "lat": "41.8931",
    "lng": "12.4828",
    "country": "Italy",
    "iso2": "IT",
    "iso3": "ITA",
    "admin_name": "Lazio",
    "capital": "primary",
    "population": "2872800",
    "id": "1380382862"
  },
  {
    "city": "Milan",
    "city_ascii": "Milan",
    "lat": "45.4669",
    "lng": "9.1900",
    "country": "Italy",
    "iso2": "IT",
    "iso3": "ITA",
    "admin_name": "Lombardy",
    "capital": "admin",
    "population": "1366180",
    "id": "1380724377"
  },
  {
    "city": "Naples",
    "city_ascii": "Naples",
    "lat": "40.8333",
    "lng": "14.2500",
    "country": "Italy",
    "iso2": "IT",
    "iso3": "ITA",
    "admin_name": "Campania",
    "capital": "admin",
    "population": "966144",
    "id": "1380646673"
  },
  {
    "city": "Turin",
    "city_ascii": "Turin",
    "lat": "45.0792",
    "lng": "7.6761",
    "country": "Italy",
    "iso2": "IT",
    "iso3": "ITA",
    "admin_name": "Piedmont",
    "capital": "admin",
    "population": "870952",
    "id": "1380244627"
  },
  {
    "city": "Palermo",
    "city_ascii": "Palermo",
    "lat": "38.1157",
    "lng": "13.3613",
    "country": "Italy",
    "iso2": "IT",
    "iso3": "ITA",
    "admin_name": "Sicilia",
    "capital": "admin",
    "population": "668405",
    "id": "1380428434"
  },
  {
    "city": "Genoa",
    "city_ascii": "Genoa",
    "lat": "44.4111",
    "lng": "8.9328",
    "country": "Italy",
    "iso2": "IT",
    "iso3": "ITA",
    "admin_name": "Liguria",
    "capital": "admin",
    "population": "580097",
    "id": "1380716540"
  },
  {
    "city": "Bologna",
    "city_ascii": "Bologna",
    "lat": "44.4939",
    "lng": "11.3428",
    "country": "Italy",
    "iso2": "IT",
    "iso3": "ITA",
    "admin_name": "Emilia-Romagna",
    "capital": "admin",
    "population": "392564",
    "id": "1380202039"
  },
  {
    "city": "Florence",
    "city_ascii": "Florence",
    "lat": "43.7714",
    "lng": "11.2542",
    "country": "Italy",
    "iso2": "IT",
    "iso3": "ITA",
    "admin_name": "Tuscany",
    "capital": "admin",
    "population": "380948",
    "id": "1380726561"
  },
  {
    "city": "Bari",
    "city_ascii": "Bari",
    "lat": "41.1253",
    "lng": "16.8667",
    "country": "Italy",
    "iso2": "IT",
    "iso3": "ITA",
    "admin_name": "Puglia",
    "capital": "admin",
    "population": "323370",
    "id": "1380991126"
  },
  {
    "city": "Catania",
    "city_ascii": "Catania",
    "lat": "37.5000",
    "lng": "15.0903",
    "country": "Italy",
    "iso2": "IT",
    "iso3": "ITA",
    "admin_name": "Sicilia",
    "capital": "minor",
    "population": "311584",
    "id": "1380562508"
  },
  {
    "city": "Venice",
    "city_ascii": "Venice",
    "lat": "45.4397",
    "lng": "12.3319",
    "country": "Italy",
    "iso2": "IT",
    "iso3": "ITA",
    "admin_name": "Veneto",
    "capital": "admin",
    "population": "261321",
    "id": "1380660414"
  },
  {
    "city": "Verona",
    "city_ascii": "Verona",
    "lat": "45.4386",
    "lng": "10.9928",
    "country": "Italy",
    "iso2": "IT",
    "iso3": "ITA",
    "admin_name": "Veneto",
    "capital": "minor",
    "population": "257275",
    "id": "1380324879"
  },
  {
    "city": "Messina",
    "city_ascii": "Messina",
    "lat": "38.1936",
    "lng": "15.5542",
    "country": "Italy",
    "iso2": "IT",
    "iso3": "ITA",
    "admin_name": "Sicilia",
    "capital": "minor",
    "population": "234293",
    "id": "1380622386"
  },
  {
    "city": "Padova",
    "city_ascii": "Padova",
    "lat": "45.4064",
    "lng": "11.8778",
    "country": "Italy",
    "iso2": "IT",
    "iso3": "ITA",
    "admin_name": "Veneto",
    "capital": "minor",
    "population": "210440",
    "id": "1380964615"
  },
  {
    "city": "Trieste",
    "city_ascii": "Trieste",
    "lat": "45.6503",
    "lng": "13.7703",
    "country": "Italy",
    "iso2": "IT",
    "iso3": "ITA",
    "admin_name": "Friuli Venezia Giulia",
    "capital": "admin",
    "population": "204338",
    "id": "1380102581"
  },
  {
    "city": "Cosenza",
    "city_ascii": "Cosenza",
    "lat": "39.3000",
    "lng": "16.2500",
    "country": "Italy",
    "iso2": "IT",
    "iso3": "ITA",
    "admin_name": "Calabria",
    "capital": "minor",
    "population": "200257",
    "id": "1380732659"
  },
  {
    "city": "Taranto",
    "city_ascii": "Taranto",
    "lat": "40.4711",
    "lng": "17.2431",
    "country": "Italy",
    "iso2": "IT",
    "iso3": "ITA",
    "admin_name": "Puglia",
    "capital": "minor",
    "population": "198283",
    "id": "1380707445"
  },
  {
    "city": "Brescia",
    "city_ascii": "Brescia",
    "lat": "45.5389",
    "lng": "10.2203",
    "country": "Italy",
    "iso2": "IT",
    "iso3": "ITA",
    "admin_name": "Lombardy",
    "capital": "minor",
    "population": "196745",
    "id": "1380432555"
  },
  {
    "city": "Parma",
    "city_ascii": "Parma",
    "lat": "44.8015",
    "lng": "10.3280",
    "country": "Italy",
    "iso2": "IT",
    "iso3": "ITA",
    "admin_name": "Emilia-Romagna",
    "capital": "minor",
    "population": "195687",
    "id": "1380655938"
  },
  {
    "city": "Prato",
    "city_ascii": "Prato",
    "lat": "43.8808",
    "lng": "11.0966",
    "country": "Italy",
    "iso2": "IT",
    "iso3": "ITA",
    "admin_name": "Tuscany",
    "capital": "minor",
    "population": "193325",
    "id": "1380751753"
  },
  {
    "city": "Modena",
    "city_ascii": "Modena",
    "lat": "44.6458",
    "lng": "10.9257",
    "country": "Italy",
    "iso2": "IT",
    "iso3": "ITA",
    "admin_name": "Emilia-Romagna",
    "capital": "minor",
    "population": "185273",
    "id": "1380306270"
  },
  {
    "city": "Reggio di Calabria",
    "city_ascii": "Reggio di Calabria",
    "lat": "38.1144",
    "lng": "15.6500",
    "country": "Italy",
    "iso2": "IT",
    "iso3": "ITA",
    "admin_name": "Calabria",
    "capital": "minor",
    "population": "181447",
    "id": "1380630212"
  },
  {
    "city": "Reggio Emilia",
    "city_ascii": "Reggio Emilia",
    "lat": "44.7000",
    "lng": "10.6333",
    "country": "Italy",
    "iso2": "IT",
    "iso3": "ITA",
    "admin_name": "Emilia-Romagna",
    "capital": "minor",
    "population": "171944",
    "id": "1380487033"
  },
  {
    "city": "Perugia",
    "city_ascii": "Perugia",
    "lat": "43.1122",
    "lng": "12.3889",
    "country": "Italy",
    "iso2": "IT",
    "iso3": "ITA",
    "admin_name": "Umbria",
    "capital": "admin",
    "population": "165683",
    "id": "1380939013"
  },
  {
    "city": "Livorno",
    "city_ascii": "Livorno",
    "lat": "43.5519",
    "lng": "10.3083",
    "country": "Italy",
    "iso2": "IT",
    "iso3": "ITA",
    "admin_name": "Tuscany",
    "capital": "minor",
    "population": "158371",
    "id": "1380159305"
  },
  {
    "city": "Ravenna",
    "city_ascii": "Ravenna",
    "lat": "44.4161",
    "lng": "12.2017",
    "country": "Italy",
    "iso2": "IT",
    "iso3": "ITA",
    "admin_name": "Emilia-Romagna",
    "capital": "minor",
    "population": "159115",
    "id": "1380964180"
  },
  {
    "city": "Cagliari",
    "city_ascii": "Cagliari",
    "lat": "39.2278",
    "lng": "9.1111",
    "country": "Italy",
    "iso2": "IT",
    "iso3": "ITA",
    "admin_name": "Sardegna",
    "capital": "admin",
    "population": "154106",
    "id": "1380685705"
  },
  {
    "city": "Foggia",
    "city_ascii": "Foggia",
    "lat": "41.4642",
    "lng": "15.5461",
    "country": "Italy",
    "iso2": "IT",
    "iso3": "ITA",
    "admin_name": "Puglia",
    "capital": "minor",
    "population": "151372",
    "id": "1380084447"
  },
  {
    "city": "Rimini",
    "city_ascii": "Rimini",
    "lat": "44.0594",
    "lng": "12.5683",
    "country": "Italy",
    "iso2": "IT",
    "iso3": "ITA",
    "admin_name": "Emilia-Romagna",
    "capital": "minor",
    "population": "149403",
    "id": "1380527853"
  },
  {
    "city": "Salerno",
    "city_ascii": "Salerno",
    "lat": "40.6806",
    "lng": "14.7597",
    "country": "Italy",
    "iso2": "IT",
    "iso3": "ITA",
    "admin_name": "Campania",
    "capital": "minor",
    "population": "133970",
    "id": "1380863448"
  },
  {
    "city": "Ferrara",
    "city_ascii": "Ferrara",
    "lat": "44.8333",
    "lng": "11.6167",
    "country": "Italy",
    "iso2": "IT",
    "iso3": "ITA",
    "admin_name": "Emilia-Romagna",
    "capital": "minor",
    "population": "132278",
    "id": "1380682411"
  },
  {
    "city": "Monza",
    "city_ascii": "Monza",
    "lat": "45.5836",
    "lng": "9.2736",
    "country": "Italy",
    "iso2": "IT",
    "iso3": "ITA",
    "admin_name": "Lombardy",
    "capital": "minor",
    "population": "123598",
    "id": "1380622727"
  },
  {
    "city": "Latina",
    "city_ascii": "Latina",
    "lat": "41.4672",
    "lng": "12.9036",
    "country": "Italy",
    "iso2": "IT",
    "iso3": "ITA",
    "admin_name": "Lazio",
    "capital": "minor",
    "population": "126470",
    "id": "1380947157"
  },
  {
    "city": "Giugliano in Campania",
    "city_ascii": "Giugliano in Campania",
    "lat": "40.9319",
    "lng": "14.1956",
    "country": "Italy",
    "iso2": "IT",
    "iso3": "ITA",
    "admin_name": "Campania",
    "capital": "",
    "population": "124361",
    "id": "1380386690"
  },
  {
    "city": "Bergamo",
    "city_ascii": "Bergamo",
    "lat": "45.6950",
    "lng": "9.6700",
    "country": "Italy",
    "iso2": "IT",
    "iso3": "ITA",
    "admin_name": "Lombardy",
    "capital": "minor",
    "population": "120923",
    "id": "1380253521"
  },
  {
    "city": "Pescara",
    "city_ascii": "Pescara",
    "lat": "42.4643",
    "lng": "14.2142",
    "country": "Italy",
    "iso2": "IT",
    "iso3": "ITA",
    "admin_name": "Abruzzo",
    "capital": "minor",
    "population": "119217",
    "id": "1380000966"
  },
  {
    "city": "Siracusa",
    "city_ascii": "Siracusa",
    "lat": "37.0692",
    "lng": "15.2875",
    "country": "Italy",
    "iso2": "IT",
    "iso3": "ITA",
    "admin_name": "Sicilia",
    "capital": "minor",
    "population": "121171",
    "id": "1380071816"
  },
  {
    "city": "Trento",
    "city_ascii": "Trento",
    "lat": "46.0667",
    "lng": "11.1167",
    "country": "Italy",
    "iso2": "IT",
    "iso3": "ITA",
    "admin_name": "Trentino-Alto Adige",
    "capital": "admin",
    "population": "117997",
    "id": "1380953307"
  },
  {
    "city": "Forlì",
    "city_ascii": "Forli",
    "lat": "44.2333",
    "lng": "12.0500",
    "country": "Italy",
    "iso2": "IT",
    "iso3": "ITA",
    "admin_name": "Emilia-Romagna",
    "capital": "minor",
    "population": "117863",
    "id": "1380594352"
  },
  {
    "city": "Sassari",
    "city_ascii": "Sassari",
    "lat": "40.7267",
    "lng": "8.5592",
    "country": "Italy",
    "iso2": "IT",
    "iso3": "ITA",
    "admin_name": "Sardegna",
    "capital": "minor",
    "population": "116641",
    "id": "1380371433"
  },
  {
    "city": "Vicenza",
    "city_ascii": "Vicenza",
    "lat": "45.5500",
    "lng": "11.5500",
    "country": "Italy",
    "iso2": "IT",
    "iso3": "ITA",
    "admin_name": "Veneto",
    "capital": "minor",
    "population": "111620",
    "id": "1380072199"
  },
  {
    "city": "Terni",
    "city_ascii": "Terni",
    "lat": "42.5619",
    "lng": "12.6414",
    "country": "Italy",
    "iso2": "IT",
    "iso3": "ITA",
    "admin_name": "Umbria",
    "capital": "minor",
    "population": "111189",
    "id": "1380323915"
  },
  {
    "city": "Bolzano",
    "city_ascii": "Bolzano",
    "lat": "46.4981",
    "lng": "11.3548",
    "country": "Italy",
    "iso2": "IT",
    "iso3": "ITA",
    "admin_name": "Trentino-Alto Adige",
    "capital": "minor",
    "population": "107317",
    "id": "1380677819"
  },
  {
    "city": "Novara",
    "city_ascii": "Novara",
    "lat": "45.4500",
    "lng": "8.6167",
    "country": "Italy",
    "iso2": "IT",
    "iso3": "ITA",
    "admin_name": "Piedmont",
    "capital": "minor",
    "population": "104183",
    "id": "1380911437"
  },
  {
    "city": "Piacenza",
    "city_ascii": "Piacenza",
    "lat": "45.0500",
    "lng": "9.7000",
    "country": "Italy",
    "iso2": "IT",
    "iso3": "ITA",
    "admin_name": "Emilia-Romagna",
    "capital": "minor",
    "population": "103082",
    "id": "1380821832"
  },
  {
    "city": "Mestre",
    "city_ascii": "Mestre",
    "lat": "45.4906",
    "lng": "12.2381",
    "country": "Italy",
    "iso2": "IT",
    "iso3": "ITA",
    "admin_name": "Veneto",
    "capital": "",
    "population": "89376",
    "id": "1380275919"
  },
  {
    "city": "Ancona",
    "city_ascii": "Ancona",
    "lat": "43.6169",
    "lng": "13.5167",
    "country": "Italy",
    "iso2": "IT",
    "iso3": "ITA",
    "admin_name": "Marche",
    "capital": "admin",
    "population": "100924",
    "id": "1380597324"
  },
  {
    "city": "Catanzaro",
    "city_ascii": "Catanzaro",
    "lat": "38.9000",
    "lng": "16.6000",
    "country": "Italy",
    "iso2": "IT",
    "iso3": "ITA",
    "admin_name": "Calabria",
    "capital": "admin",
    "population": "89718",
    "id": "1380650072"
  },
  {
    "city": "Sesto San Giovanni",
    "city_ascii": "Sesto San Giovanni",
    "lat": "45.5333",
    "lng": "9.2333",
    "country": "Italy",
    "iso2": "IT",
    "iso3": "ITA",
    "admin_name": "Lombardy",
    "capital": "",
    "population": "81773",
    "id": "1380068715"
  },
  {
    "city": "Torre del Greco",
    "city_ascii": "Torre del Greco",
    "lat": "40.7853",
    "lng": "14.3953",
    "country": "Italy",
    "iso2": "IT",
    "iso3": "ITA",
    "admin_name": "Campania",
    "capital": "",
    "population": "85332",
    "id": "1380905401"
  },
  {
    "city": "Busto Arsizio",
    "city_ascii": "Busto Arsizio",
    "lat": "45.6120",
    "lng": "8.8518",
    "country": "Italy",
    "iso2": "IT",
    "iso3": "ITA",
    "admin_name": "Lombardy",
    "capital": "",
    "population": "83045",
    "id": "1380033378"
  },
  {
    "city": "Como",
    "city_ascii": "Como",
    "lat": "45.8103",
    "lng": "9.0861",
    "country": "Italy",
    "iso2": "IT",
    "iso3": "ITA",
    "admin_name": "Lombardy",
    "capital": "minor",
    "population": "83320",
    "id": "1380994905"
  },
  {
    "city": "Casoria",
    "city_ascii": "Casoria",
    "lat": "40.9000",
    "lng": "14.3000",
    "country": "Italy",
    "iso2": "IT",
    "iso3": "ITA",
    "admin_name": "Campania",
    "capital": "",
    "population": "77087",
    "id": "1380040521"
  },
  {
    "city": "Cinisello Balsamo",
    "city_ascii": "Cinisello Balsamo",
    "lat": "45.5500",
    "lng": "9.2167",
    "country": "Italy",
    "iso2": "IT",
    "iso3": "ITA",
    "admin_name": "Lombardy",
    "capital": "",
    "population": "75723",
    "id": "1380556172"
  },
  {
    "city": "Ragusa",
    "city_ascii": "Ragusa",
    "lat": "36.9250",
    "lng": "14.7306",
    "country": "Italy",
    "iso2": "IT",
    "iso3": "ITA",
    "admin_name": "Sicilia",
    "capital": "minor",
    "population": "73638",
    "id": "1380117871"
  },
  {
    "city": "Castellammare di Stabia",
    "city_ascii": "Castellammare di Stabia",
    "lat": "40.6947",
    "lng": "14.4803",
    "country": "Italy",
    "iso2": "IT",
    "iso3": "ITA",
    "admin_name": "Campania",
    "capital": "",
    "population": "65922",
    "id": "1380725803"
  },
  {
    "city": "L’Aquila",
    "city_ascii": "L'Aquila",
    "lat": "42.3500",
    "lng": "13.4000",
    "country": "Italy",
    "iso2": "IT",
    "iso3": "ITA",
    "admin_name": "Abruzzo",
    "capital": "admin",
    "population": "69439",
    "id": "1380218474"
  },
  {
    "city": "Portici",
    "city_ascii": "Portici",
    "lat": "40.8197",
    "lng": "14.3411",
    "country": "Italy",
    "iso2": "IT",
    "iso3": "ITA",
    "admin_name": "Campania",
    "capital": "",
    "population": "54577",
    "id": "1380276866"
  },
  {
    "city": "Afragola",
    "city_ascii": "Afragola",
    "lat": "40.9167",
    "lng": "14.3167",
    "country": "Italy",
    "iso2": "IT",
    "iso3": "ITA",
    "admin_name": "Campania",
    "capital": "",
    "population": "64817",
    "id": "1380524178"
  },
  {
    "city": "Potenza",
    "city_ascii": "Potenza",
    "lat": "40.6333",
    "lng": "15.8000",
    "country": "Italy",
    "iso2": "IT",
    "iso3": "ITA",
    "admin_name": "Basilicata",
    "capital": "admin",
    "population": "67211",
    "id": "1380649430"
  },
  {
    "city": "Marano di Napoli",
    "city_ascii": "Marano di Napoli",
    "lat": "40.9000",
    "lng": "14.1833",
    "country": "Italy",
    "iso2": "IT",
    "iso3": "ITA",
    "admin_name": "Campania",
    "capital": "",
    "population": "59862",
    "id": "1380179165"
  },
  {
    "city": "Legnano",
    "city_ascii": "Legnano",
    "lat": "45.5781",
    "lng": "8.9183",
    "country": "Italy",
    "iso2": "IT",
    "iso3": "ITA",
    "admin_name": "Lombardy",
    "capital": "",
    "population": "60177",
    "id": "1380045698"
  },
  {
    "city": "Aversa",
    "city_ascii": "Aversa",
    "lat": "40.9667",
    "lng": "14.2000",
    "country": "Italy",
    "iso2": "IT",
    "iso3": "ITA",
    "admin_name": "Campania",
    "capital": "",
    "population": "52794",
    "id": "1380486559"
  },
  {
    "city": "San Giorgio a Cremano",
    "city_ascii": "San Giorgio a Cremano",
    "lat": "40.8333",
    "lng": "14.3333",
    "country": "Italy",
    "iso2": "IT",
    "iso3": "ITA",
    "admin_name": "Campania",
    "capital": "",
    "population": "45122",
    "id": "1380360808"
  },
  {
    "city": "Gallarate",
    "city_ascii": "Gallarate",
    "lat": "45.6649",
    "lng": "8.7914",
    "country": "Italy",
    "iso2": "IT",
    "iso3": "ITA",
    "admin_name": "Lombardy",
    "capital": "",
    "population": "53425",
    "id": "1380947310"
  },
  {
    "city": "Ercolano",
    "city_ascii": "Ercolano",
    "lat": "40.8000",
    "lng": "14.3500",
    "country": "Italy",
    "iso2": "IT",
    "iso3": "ITA",
    "admin_name": "Campania",
    "capital": "",
    "population": "52763",
    "id": "1380009957"
  },
  {
    "city": "Cologno Monzese",
    "city_ascii": "Cologno Monzese",
    "lat": "45.5286",
    "lng": "9.2783",
    "country": "Italy",
    "iso2": "IT",
    "iso3": "ITA",
    "admin_name": "Lombardy",
    "capital": "",
    "population": "47720",
    "id": "1380466267"
  },
  {
    "city": "Scafati",
    "city_ascii": "Scafati",
    "lat": "40.7536",
    "lng": "14.5253",
    "country": "Italy",
    "iso2": "IT",
    "iso3": "ITA",
    "admin_name": "Campania",
    "capital": "",
    "population": "50686",
    "id": "1380992516"
  },
  {
    "city": "Rho",
    "city_ascii": "Rho",
    "lat": "45.5333",
    "lng": "9.0333",
    "country": "Italy",
    "iso2": "IT",
    "iso3": "ITA",
    "admin_name": "Lombardy",
    "capital": "",
    "population": "50904",
    "id": "1380877337"
  },
  {
    "city": "Collegno",
    "city_ascii": "Collegno",
    "lat": "45.0775",
    "lng": "7.5724",
    "country": "Italy",
    "iso2": "IT",
    "iso3": "ITA",
    "admin_name": "Piedmont",
    "capital": "",
    "population": "49597",
    "id": "1380000029"
  },
  {
    "city": "Lissone",
    "city_ascii": "Lissone",
    "lat": "45.6167",
    "lng": "9.2500",
    "country": "Italy",
    "iso2": "IT",
    "iso3": "ITA",
    "admin_name": "Lombardy",
    "capital": "",
    "population": "45535",
    "id": "1380370266"
  },
  {
    "city": "Campobasso",
    "city_ascii": "Campobasso",
    "lat": "41.5667",
    "lng": "14.6667",
    "country": "Italy",
    "iso2": "IT",
    "iso3": "ITA",
    "admin_name": "Molise",
    "capital": "admin",
    "population": "49262",
    "id": "1380959273"
  },
  {
    "city": "Nichelino",
    "city_ascii": "Nichelino",
    "lat": "44.9955",
    "lng": "7.6466",
    "country": "Italy",
    "iso2": "IT",
    "iso3": "ITA",
    "admin_name": "Piedmont",
    "capital": "",
    "population": "47721",
    "id": "1380201460"
  },
  {
    "city": "Paderno Dugnano",
    "city_ascii": "Paderno Dugnano",
    "lat": "45.5719",
    "lng": "9.1692",
    "country": "Italy",
    "iso2": "IT",
    "iso3": "ITA",
    "admin_name": "Lombardy",
    "capital": "",
    "population": "46701",
    "id": "1380402852"
  },
  {
    "city": "Seregno",
    "city_ascii": "Seregno",
    "lat": "45.6500",
    "lng": "9.2000",
    "country": "Italy",
    "iso2": "IT",
    "iso3": "ITA",
    "admin_name": "Lombardy",
    "capital": "",
    "population": "45131",
    "id": "1380007396"
  },
  {
    "city": "Torre Annunziata",
    "city_ascii": "Torre Annunziata",
    "lat": "40.7569",
    "lng": "14.4444",
    "country": "Italy",
    "iso2": "IT",
    "iso3": "ITA",
    "admin_name": "Campania",
    "capital": "",
    "population": "42406",
    "id": "1380017105"
  },
  {
    "city": "Melito di Napoli",
    "city_ascii": "Melito di Napoli",
    "lat": "40.9167",
    "lng": "14.2333",
    "country": "Italy",
    "iso2": "IT",
    "iso3": "ITA",
    "admin_name": "Campania",
    "capital": "",
    "population": "37943",
    "id": "1380717035"
  },
  {
    "city": "Rozzano",
    "city_ascii": "Rozzano",
    "lat": "45.3833",
    "lng": "9.1500",
    "country": "Italy",
    "iso2": "IT",
    "iso3": "ITA",
    "admin_name": "Lombardy",
    "capital": "",
    "population": "42442",
    "id": "1380496948"
  },
  {
    "city": "Desio",
    "city_ascii": "Desio",
    "lat": "45.6167",
    "lng": "9.2167",
    "country": "Italy",
    "iso2": "IT",
    "iso3": "ITA",
    "admin_name": "Lombardy",
    "capital": "",
    "population": "42079",
    "id": "1380553893"
  },
  {
    "city": "Pomigliano d’Arco",
    "city_ascii": "Pomigliano d'Arco",
    "lat": "40.9167",
    "lng": "14.4000",
    "country": "Italy",
    "iso2": "IT",
    "iso3": "ITA",
    "admin_name": "Campania",
    "capital": "",
    "population": "39819",
    "id": "1380104019"
  },
  {
    "city": "Saronno",
    "city_ascii": "Saronno",
    "lat": "45.6255",
    "lng": "9.0370",
    "country": "Italy",
    "iso2": "IT",
    "iso3": "ITA",
    "admin_name": "Lombardy",
    "capital": "",
    "population": "39419",
    "id": "1380012817"
  },
  {
    "city": "Cesano Maderno",
    "city_ascii": "Cesano Maderno",
    "lat": "45.6307",
    "lng": "9.1456",
    "country": "Italy",
    "iso2": "IT",
    "iso3": "ITA",
    "admin_name": "Lombardy",
    "capital": "",
    "population": "38637",
    "id": "1380045359"
  },
  {
    "city": "Mugnano di Napoli",
    "city_ascii": "Mugnano di Napoli",
    "lat": "40.9094",
    "lng": "14.2098",
    "country": "Italy",
    "iso2": "IT",
    "iso3": "ITA",
    "admin_name": "Campania",
    "capital": "",
    "population": "34996",
    "id": "1380872508"
  },
  {
    "city": "Ciampino",
    "city_ascii": "Ciampino",
    "lat": "41.8000",
    "lng": "12.6000",
    "country": "Italy",
    "iso2": "IT",
    "iso3": "ITA",
    "admin_name": "Lazio",
    "capital": "",
    "population": "38645",
    "id": "1380847693"
  },
  {
    "city": "Arzano",
    "city_ascii": "Arzano",
    "lat": "40.9167",
    "lng": "14.2667",
    "country": "Italy",
    "iso2": "IT",
    "iso3": "ITA",
    "admin_name": "Campania",
    "capital": "",
    "population": "34217",
    "id": "1380852442"
  },
  {
    "city": "Corsico",
    "city_ascii": "Corsico",
    "lat": "45.4333",
    "lng": "9.1167",
    "country": "Italy",
    "iso2": "IT",
    "iso3": "ITA",
    "admin_name": "Lombardy",
    "capital": "",
    "population": "34727",
    "id": "1380973282"
  },
  {
    "city": "Grugliasco",
    "city_ascii": "Grugliasco",
    "lat": "45.0680",
    "lng": "7.5776",
    "country": "Italy",
    "iso2": "IT",
    "iso3": "ITA",
    "admin_name": "Piedmont",
    "capital": "",
    "population": "37592",
    "id": "1380580243"
  },
  {
    "city": "Pioltello",
    "city_ascii": "Pioltello",
    "lat": "45.5000",
    "lng": "9.3333",
    "country": "Italy",
    "iso2": "IT",
    "iso3": "ITA",
    "admin_name": "Lombardy",
    "capital": "",
    "population": "36920",
    "id": "1380525862"
  },
  {
    "city": "Sant’Antimo",
    "city_ascii": "Sant'Antimo",
    "lat": "40.9422",
    "lng": "14.2348",
    "country": "Italy",
    "iso2": "IT",
    "iso3": "ITA",
    "admin_name": "Campania",
    "capital": "",
    "population": "33892",
    "id": "1380853307"
  },
  {
    "city": "Bollate",
    "city_ascii": "Bollate",
    "lat": "45.5500",
    "lng": "9.1167",
    "country": "Italy",
    "iso2": "IT",
    "iso3": "ITA",
    "admin_name": "Lombardy",
    "capital": "",
    "population": "36486",
    "id": "1380424461"
  },
  {
    "city": "Casalecchio di Reno",
    "city_ascii": "Casalecchio di Reno",
    "lat": "44.4833",
    "lng": "11.2833",
    "country": "Italy",
    "iso2": "IT",
    "iso3": "ITA",
    "admin_name": "Emilia-Romagna",
    "capital": "",
    "population": "36456",
    "id": "1380710953"
  },
  {
    "city": "Brugherio",
    "city_ascii": "Brugherio",
    "lat": "45.5508",
    "lng": "9.3011",
    "country": "Italy",
    "iso2": "IT",
    "iso3": "ITA",
    "admin_name": "Lombardy",
    "capital": "",
    "population": "34868",
    "id": "1380188289"
  },
  {
    "city": "Limbiate",
    "city_ascii": "Limbiate",
    "lat": "45.5972",
    "lng": "9.1300",
    "country": "Italy",
    "iso2": "IT",
    "iso3": "ITA",
    "admin_name": "Lombardy",
    "capital": "",
    "population": "35141",
    "id": "1380489248"
  },
  {
    "city": "Riccione Marina",
    "city_ascii": "Riccione Marina",
    "lat": "44.0000",
    "lng": "12.6500",
    "country": "Italy",
    "iso2": "IT",
    "iso3": "ITA",
    "admin_name": "Emilia-Romagna",
    "capital": "",
    "population": "35003",
    "id": "1380177651"
  },
  {
    "city": "Cernusco sul Naviglio",
    "city_ascii": "Cernusco sul Naviglio",
    "lat": "45.5167",
    "lng": "9.3333",
    "country": "Italy",
    "iso2": "IT",
    "iso3": "ITA",
    "admin_name": "Lombardy",
    "capital": "",
    "population": "34341",
    "id": "1380429840"
  },
  {
    "city": "Angri",
    "city_ascii": "Angri",
    "lat": "40.7333",
    "lng": "14.5667",
    "country": "Italy",
    "iso2": "IT",
    "iso3": "ITA",
    "admin_name": "Campania",
    "capital": "",
    "population": "34126",
    "id": "1380361443"
  },
  {
    "city": "Villaricca",
    "city_ascii": "Villaricca",
    "lat": "40.9167",
    "lng": "14.2000",
    "country": "Italy",
    "iso2": "IT",
    "iso3": "ITA",
    "admin_name": "Campania",
    "capital": "",
    "population": "31223",
    "id": "1380472958"
  },
  {
    "city": "Aosta",
    "city_ascii": "Aosta",
    "lat": "45.7333",
    "lng": "7.3167",
    "country": "Italy",
    "iso2": "IT",
    "iso3": "ITA",
    "admin_name": "Valle d’Aosta",
    "capital": "admin",
    "population": "34082",
    "id": "1380291310"
  },
  {
    "city": "Frattamaggiore",
    "city_ascii": "Frattamaggiore",
    "lat": "40.9333",
    "lng": "14.2833",
    "country": "Italy",
    "iso2": "IT",
    "iso3": "ITA",
    "admin_name": "Campania",
    "capital": "",
    "population": "29738",
    "id": "1380074125"
  },
  {
    "city": "San Donato Milanese",
    "city_ascii": "San Donato Milanese",
    "lat": "45.4167",
    "lng": "9.2667",
    "country": "Italy",
    "iso2": "IT",
    "iso3": "ITA",
    "admin_name": "Lombardy",
    "capital": "",
    "population": "32664",
    "id": "1380781969"
  },
  {
    "city": "Santa Maria Capua Vetere",
    "city_ascii": "Santa Maria Capua Vetere",
    "lat": "41.0833",
    "lng": "14.2500",
    "country": "Italy",
    "iso2": "IT",
    "iso3": "ITA",
    "admin_name": "Campania",
    "capital": "",
    "population": "32893",
    "id": "1380894593"
  },
  {
    "city": "Bresso",
    "city_ascii": "Bresso",
    "lat": "45.5333",
    "lng": "9.1833",
    "country": "Italy",
    "iso2": "IT",
    "iso3": "ITA",
    "admin_name": "Lombardy",
    "capital": "",
    "population": "26259",
    "id": "1380154563"
  },
  {
    "city": "San Giuseppe Vesuviano",
    "city_ascii": "San Giuseppe Vesuviano",
    "lat": "40.8333",
    "lng": "14.5000",
    "country": "Italy",
    "iso2": "IT",
    "iso3": "ITA",
    "admin_name": "Campania",
    "capital": "",
    "population": "31612",
    "id": "1380589632"
  },
  {
    "city": "Aci Catena",
    "city_ascii": "Aci Catena",
    "lat": "37.6000",
    "lng": "15.1333",
    "country": "Italy",
    "iso2": "IT",
    "iso3": "ITA",
    "admin_name": "Sicilia",
    "capital": "",
    "population": "29418",
    "id": "1380362156"
  },
  {
    "city": "Boscoreale",
    "city_ascii": "Boscoreale",
    "lat": "40.7667",
    "lng": "14.4833",
    "country": "Italy",
    "iso2": "IT",
    "iso3": "ITA",
    "admin_name": "Campania",
    "capital": "",
    "population": "27927",
    "id": "1380991443"
  },
  {
    "city": "Garbagnate Milanese",
    "city_ascii": "Garbagnate Milanese",
    "lat": "45.5771",
    "lng": "9.0814",
    "country": "Italy",
    "iso2": "IT",
    "iso3": "ITA",
    "admin_name": "Lombardy",
    "capital": "",
    "population": "27155",
    "id": "1380031147"
  },
  {
    "city": "Chiavari",
    "city_ascii": "Chiavari",
    "lat": "44.3167",
    "lng": "9.3333",
    "country": "Italy",
    "iso2": "IT",
    "iso3": "ITA",
    "admin_name": "Liguria",
    "capital": "",
    "population": "27410",
    "id": "1380138569"
  },
  {
    "city": "Cardito",
    "city_ascii": "Cardito",
    "lat": "40.9500",
    "lng": "14.3000",
    "country": "Italy",
    "iso2": "IT",
    "iso3": "ITA",
    "admin_name": "Campania",
    "capital": "",
    "population": "22601",
    "id": "1380120364"
  },
  {
    "city": "Qualiano",
    "city_ascii": "Qualiano",
    "lat": "40.9167",
    "lng": "14.1500",
    "country": "Italy",
    "iso2": "IT",
    "iso3": "ITA",
    "admin_name": "Campania",
    "capital": "",
    "population": "25755",
    "id": "1380575538"
  },
  {
    "city": "Muggiò",
    "city_ascii": "Muggio",
    "lat": "45.6000",
    "lng": "9.2333",
    "country": "Italy",
    "iso2": "IT",
    "iso3": "ITA",
    "admin_name": "Lombardy",
    "capital": "",
    "population": "23581",
    "id": "1380948758"
  },
  {
    "city": "Seriate",
    "city_ascii": "Seriate",
    "lat": "45.6847",
    "lng": "9.7178",
    "country": "Italy",
    "iso2": "IT",
    "iso3": "ITA",
    "admin_name": "Lombardy",
    "capital": "",
    "population": "25358",
    "id": "1380929157"
  },
  {
    "city": "Pompei",
    "city_ascii": "Pompei",
    "lat": "40.7500",
    "lng": "14.5000",
    "country": "Italy",
    "iso2": "IT",
    "iso3": "ITA",
    "admin_name": "Campania",
    "capital": "",
    "population": "25207",
    "id": "1380397251"
  },
  {
    "city": "Seveso",
    "city_ascii": "Seveso",
    "lat": "45.6434",
    "lng": "9.1374",
    "country": "Italy",
    "iso2": "IT",
    "iso3": "ITA",
    "admin_name": "Lombardy",
    "capital": "",
    "population": "23456",
    "id": "1380704433"
  },
  {
    "city": "Meda",
    "city_ascii": "Meda",
    "lat": "45.6667",
    "lng": "9.1667",
    "country": "Italy",
    "iso2": "IT",
    "iso3": "ITA",
    "admin_name": "Lombardy",
    "capital": "",
    "population": "23463",
    "id": "1380159582"
  },
  {
    "city": "San Giovanni la Punta",
    "city_ascii": "San Giovanni la Punta",
    "lat": "37.5833",
    "lng": "15.1000",
    "country": "Italy",
    "iso2": "IT",
    "iso3": "ITA",
    "admin_name": "Sicilia",
    "capital": "",
    "population": "23399",
    "id": "1380384622"
  },
  {
    "city": "Cusano Milanino",
    "city_ascii": "Cusano Milanino",
    "lat": "45.5500",
    "lng": "9.1833",
    "country": "Italy",
    "iso2": "IT",
    "iso3": "ITA",
    "admin_name": "Lombardy",
    "capital": "",
    "population": "18797",
    "id": "1380658560"
  },
  {
    "city": "Cormano",
    "city_ascii": "Cormano",
    "lat": "45.5500",
    "lng": "9.1667",
    "country": "Italy",
    "iso2": "IT",
    "iso3": "ITA",
    "admin_name": "Lombardy",
    "capital": "",
    "population": "20019",
    "id": "1380158299"
  },
  {
    "city": "Frattaminore",
    "city_ascii": "Frattaminore",
    "lat": "40.9500",
    "lng": "14.2667",
    "country": "Italy",
    "iso2": "IT",
    "iso3": "ITA",
    "admin_name": "Campania",
    "capital": "",
    "population": "16131",
    "id": "1380752236"
  },
  {
    "city": "Senago",
    "city_ascii": "Senago",
    "lat": "45.5833",
    "lng": "9.1333",
    "country": "Italy",
    "iso2": "IT",
    "iso3": "ITA",
    "admin_name": "Lombardy",
    "capital": "",
    "population": "21500",
    "id": "1380425008"
  },
  {
    "city": "Novate Milanese",
    "city_ascii": "Novate Milanese",
    "lat": "45.5333",
    "lng": "9.1333",
    "country": "Italy",
    "iso2": "IT",
    "iso3": "ITA",
    "admin_name": "Lombardy",
    "capital": "",
    "population": "20003",
    "id": "1380064390"
  },
  {
    "city": "Monserrato",
    "city_ascii": "Monserrato",
    "lat": "39.2500",
    "lng": "9.1500",
    "country": "Italy",
    "iso2": "IT",
    "iso3": "ITA",
    "admin_name": "Sardegna",
    "capital": "",
    "population": "19771",
    "id": "1380813472"
  },
  {
    "city": "Trentola",
    "city_ascii": "Trentola",
    "lat": "40.9762",
    "lng": "14.1773",
    "country": "Italy",
    "iso2": "IT",
    "iso3": "ITA",
    "admin_name": "Campania",
    "capital": "",
    "population": "19844",
    "id": "1380538043"
  },
  {
    "city": "Ischia",
    "city_ascii": "Ischia",
    "lat": "40.7500",
    "lng": "13.9500",
    "country": "Italy",
    "iso2": "IT",
    "iso3": "ITA",
    "admin_name": "Campania",
    "capital": "",
    "population": "20118",
    "id": "1380746538"
  },
  {
    "city": "Arese",
    "city_ascii": "Arese",
    "lat": "45.5500",
    "lng": "9.0667",
    "country": "Italy",
    "iso2": "IT",
    "iso3": "ITA",
    "admin_name": "Lombardy",
    "capital": "",
    "population": "19347",
    "id": "1380500358"
  },
  {
    "city": "Cercola",
    "city_ascii": "Cercola",
    "lat": "40.8667",
    "lng": "14.3500",
    "country": "Italy",
    "iso2": "IT",
    "iso3": "ITA",
    "admin_name": "Campania",
    "capital": "",
    "population": "18007",
    "id": "1380479578"
  },
  {
    "city": "Sant’Antonio Abate",
    "city_ascii": "Sant'Antonio Abate",
    "lat": "40.7333",
    "lng": "14.5500",
    "country": "Italy",
    "iso2": "IT",
    "iso3": "ITA",
    "admin_name": "Campania",
    "capital": "",
    "population": "19704",
    "id": "1380518961"
  },
  {
    "city": "Melegnano",
    "city_ascii": "Melegnano",
    "lat": "45.3588",
    "lng": "9.3238",
    "country": "Italy",
    "iso2": "IT",
    "iso3": "ITA",
    "admin_name": "Lombardy",
    "capital": "",
    "population": "18127",
    "id": "1380806046"
  },
  {
    "city": "Beinasco",
    "city_ascii": "Beinasco",
    "lat": "45.0167",
    "lng": "7.5833",
    "country": "Italy",
    "iso2": "IT",
    "iso3": "ITA",
    "admin_name": "Piedmont",
    "capital": "",
    "population": "17856",
    "id": "1380688508"
  },
  {
    "city": "Cattolica",
    "city_ascii": "Cattolica",
    "lat": "43.9667",
    "lng": "12.7333",
    "country": "Italy",
    "iso2": "IT",
    "iso3": "ITA",
    "admin_name": "Emilia-Romagna",
    "capital": "",
    "population": "17177",
    "id": "1380510857"
  },
  {
    "city": "Brusciano",
    "city_ascii": "Brusciano",
    "lat": "40.9167",
    "lng": "14.4167",
    "country": "Italy",
    "iso2": "IT",
    "iso3": "ITA",
    "admin_name": "Campania",
    "capital": "",
    "population": "16371",
    "id": "1380728572"
  },
  {
    "city": "Sant’Arpino",
    "city_ascii": "Sant'Arpino",
    "lat": "40.9575",
    "lng": "14.2492",
    "country": "Italy",
    "iso2": "IT",
    "iso3": "ITA",
    "admin_name": "Campania",
    "capital": "",
    "population": "14606",
    "id": "1380239503"
  },
  {
    "city": "Casandrino",
    "city_ascii": "Casandrino",
    "lat": "40.9333",
    "lng": "14.2500",
    "country": "Italy",
    "iso2": "IT",
    "iso3": "ITA",
    "admin_name": "Campania",
    "capital": "",
    "population": "14125",
    "id": "1380625213"
  },
  {
    "city": "Castellanza",
    "city_ascii": "Castellanza",
    "lat": "45.6167",
    "lng": "8.9000",
    "country": "Italy",
    "iso2": "IT",
    "iso3": "ITA",
    "admin_name": "Lombardy",
    "capital": "",
    "population": "14340",
    "id": "1380085680"
  },
  {
    "city": "Baranzate",
    "city_ascii": "Baranzate",
    "lat": "45.5167",
    "lng": "9.1000",
    "country": "Italy",
    "iso2": "IT",
    "iso3": "ITA",
    "admin_name": "Lombardy",
    "capital": "",
    "population": "12003",
    "id": "1380987806"
  },
  {
    "city": "Solaro",
    "city_ascii": "Solaro",
    "lat": "45.6150",
    "lng": "9.0839",
    "country": "Italy",
    "iso2": "IT",
    "iso3": "ITA",
    "admin_name": "Lombardy",
    "capital": "",
    "population": "14163",
    "id": "1380926432"
  },
  {
    "city": "Varedo",
    "city_ascii": "Varedo",
    "lat": "45.6000",
    "lng": "9.1667",
    "country": "Italy",
    "iso2": "IT",
    "iso3": "ITA",
    "admin_name": "Lombardy",
    "capital": "",
    "population": "13446",
    "id": "1380710950"
  },
  {
    "city": "Monte di Procida",
    "city_ascii": "Monte di Procida",
    "lat": "40.8000",
    "lng": "14.0500",
    "country": "Italy",
    "iso2": "IT",
    "iso3": "ITA",
    "admin_name": "Campania",
    "capital": "",
    "population": "12743",
    "id": "1380840783"
  },
  {
    "city": "Calvizzano",
    "city_ascii": "Calvizzano",
    "lat": "40.9000",
    "lng": "14.1833",
    "country": "Italy",
    "iso2": "IT",
    "iso3": "ITA",
    "admin_name": "Campania",
    "capital": "",
    "population": "12182",
    "id": "1380689845"
  },
  {
    "city": "Canegrate",
    "city_ascii": "Canegrate",
    "lat": "45.5667",
    "lng": "8.9333",
    "country": "Italy",
    "iso2": "IT",
    "iso3": "ITA",
    "admin_name": "Lombardy",
    "capital": "",
    "population": "12574",
    "id": "1380642269"
  },
  {
    "city": "Biassono",
    "city_ascii": "Biassono",
    "lat": "45.6333",
    "lng": "9.2667",
    "country": "Italy",
    "iso2": "IT",
    "iso3": "ITA",
    "admin_name": "Lombardy",
    "capital": "",
    "population": "12164",
    "id": "1380356399"
  },
  {
    "city": "San Gregorio di Catania",
    "city_ascii": "San Gregorio di Catania",
    "lat": "37.5667",
    "lng": "15.1167",
    "country": "Italy",
    "iso2": "IT",
    "iso3": "ITA",
    "admin_name": "Sicilia",
    "capital": "",
    "population": "11880",
    "id": "1380676054"
  },
  {
    "city": "Capodrise",
    "city_ascii": "Capodrise",
    "lat": "41.0500",
    "lng": "14.3000",
    "country": "Italy",
    "iso2": "IT",
    "iso3": "ITA",
    "admin_name": "Campania",
    "capital": "",
    "population": "10133",
    "id": "1380485604"
  },
  {
    "city": "Procida",
    "city_ascii": "Procida",
    "lat": "40.7667",
    "lng": "14.0333",
    "country": "Italy",
    "iso2": "IT",
    "iso3": "ITA",
    "admin_name": "Campania",
    "capital": "",
    "population": "10465",
    "id": "1380684124"
  },
  {
    "city": "San Marzano sul Sarno",
    "city_ascii": "San Marzano sul Sarno",
    "lat": "40.7697",
    "lng": "14.5947",
    "country": "Italy",
    "iso2": "IT",
    "iso3": "ITA",
    "admin_name": "Campania",
    "capital": "",
    "population": "10499",
    "id": "1380943524"
  },
  {
    "city": "Cesa",
    "city_ascii": "Cesa",
    "lat": "40.9667",
    "lng": "14.2333",
    "country": "Italy",
    "iso2": "IT",
    "iso3": "ITA",
    "admin_name": "Campania",
    "capital": "",
    "population": "9039",
    "id": "1380979874"
  },
  {
    "city": "Casapulla",
    "city_ascii": "Casapulla",
    "lat": "41.0667",
    "lng": "14.2833",
    "country": "Italy",
    "iso2": "IT",
    "iso3": "ITA",
    "admin_name": "Campania",
    "capital": "",
    "population": "8597",
    "id": "1380421149"
  },
  {
    "city": "Sant’Agnello",
    "city_ascii": "Sant'Agnello",
    "lat": "40.6294",
    "lng": "14.3996",
    "country": "Italy",
    "iso2": "IT",
    "iso3": "ITA",
    "admin_name": "Campania",
    "capital": "",
    "population": "9125",
    "id": "1380337324"
  },
  {
    "city": "Torre Boldone",
    "city_ascii": "Torre Boldone",
    "lat": "45.7167",
    "lng": "9.7000",
    "country": "Italy",
    "iso2": "IT",
    "iso3": "ITA",
    "admin_name": "Lombardy",
    "capital": "",
    "population": "8755",
    "id": "1380646015"
  },
  {
    "city": "Udine",
    "city_ascii": "Udine",
    "lat": "46.0667",
    "lng": "13.2333",
    "country": "Italy",
    "iso2": "IT",
    "iso3": "ITA",
    "admin_name": "Friuli Venezia Giulia",
    "capital": "minor",
    "population": "99518",
    "id": "1380396446"
  },
  {
    "city": "Andria",
    "city_ascii": "Andria",
    "lat": "41.2167",
    "lng": "16.3000",
    "country": "Italy",
    "iso2": "IT",
    "iso3": "ITA",
    "admin_name": "Puglia",
    "capital": "minor",
    "population": "99857",
    "id": "1380463498"
  },
  {
    "city": "Arezzo",
    "city_ascii": "Arezzo",
    "lat": "43.4633",
    "lng": "11.8783",
    "country": "Italy",
    "iso2": "IT",
    "iso3": "ITA",
    "admin_name": "Tuscany",
    "capital": "minor",
    "population": "99419",
    "id": "1380418355"
  },
  {
    "city": "Cesena",
    "city_ascii": "Cesena",
    "lat": "44.1389",
    "lng": "12.2444",
    "country": "Italy",
    "iso2": "IT",
    "iso3": "ITA",
    "admin_name": "Emilia-Romagna",
    "capital": "",
    "population": "96760",
    "id": "1380256992"
  },
  {
    "city": "Pesaro",
    "city_ascii": "Pesaro",
    "lat": "43.9167",
    "lng": "12.9000",
    "country": "Italy",
    "iso2": "IT",
    "iso3": "ITA",
    "admin_name": "Marche",
    "capital": "minor",
    "population": "94958",
    "id": "1380435770"
  },
  {
    "city": "Lecce",
    "city_ascii": "Lecce",
    "lat": "40.3500",
    "lng": "18.1667",
    "country": "Italy",
    "iso2": "IT",
    "iso3": "ITA",
    "admin_name": "Puglia",
    "capital": "minor",
    "population": "95441",
    "id": "1380057273"
  },
  {
    "city": "Barletta",
    "city_ascii": "Barletta",
    "lat": "41.3167",
    "lng": "16.2833",
    "country": "Italy",
    "iso2": "IT",
    "iso3": "ITA",
    "admin_name": "Puglia",
    "capital": "minor",
    "population": "94477",
    "id": "1380940717"
  },
  {
    "city": "Alessandria",
    "city_ascii": "Alessandria",
    "lat": "44.9167",
    "lng": "8.6167",
    "country": "Italy",
    "iso2": "IT",
    "iso3": "ITA",
    "admin_name": "Piedmont",
    "capital": "minor",
    "population": "93980",
    "id": "1380334322"
  },
  {
    "city": "La Spezia",
    "city_ascii": "La Spezia",
    "lat": "44.1000",
    "lng": "9.8167",
    "country": "Italy",
    "iso2": "IT",
    "iso3": "ITA",
    "admin_name": "Liguria",
    "capital": "minor",
    "population": "93311",
    "id": "1380143500"
  },
  {
    "city": "Pisa",
    "city_ascii": "Pisa",
    "lat": "43.7167",
    "lng": "10.4000",
    "country": "Italy",
    "iso2": "IT",
    "iso3": "ITA",
    "admin_name": "Tuscany",
    "capital": "minor",
    "population": "90118",
    "id": "1380310225"
  },
  {
    "city": "Pistoia",
    "city_ascii": "Pistoia",
    "lat": "43.9333",
    "lng": "10.9167",
    "country": "Italy",
    "iso2": "IT",
    "iso3": "ITA",
    "admin_name": "Tuscany",
    "capital": "minor",
    "population": "90195",
    "id": "1380664435"
  },
  {
    "city": "Lucca",
    "city_ascii": "Lucca",
    "lat": "43.8417",
    "lng": "10.5028",
    "country": "Italy",
    "iso2": "IT",
    "iso3": "ITA",
    "admin_name": "Tuscany",
    "capital": "minor",
    "population": "89243",
    "id": "1380770432"
  },
  {
    "city": "Brindisi",
    "city_ascii": "Brindisi",
    "lat": "40.6333",
    "lng": "17.9333",
    "country": "Italy",
    "iso2": "IT",
    "iso3": "ITA",
    "admin_name": "Puglia",
    "capital": "minor",
    "population": "87141",
    "id": "1380201254"
  },
  {
    "city": "Treviso",
    "city_ascii": "Treviso",
    "lat": "45.6722",
    "lng": "12.2422",
    "country": "Italy",
    "iso2": "IT",
    "iso3": "ITA",
    "admin_name": "Veneto",
    "capital": "minor",
    "population": "84954",
    "id": "1380900516"
  },
  {
    "city": "Marsala",
    "city_ascii": "Marsala",
    "lat": "37.7981",
    "lng": "12.4342",
    "country": "Italy",
    "iso2": "IT",
    "iso3": "ITA",
    "admin_name": "Sicilia",
    "capital": "",
    "population": "82802",
    "id": "1380770056"
  },
  {
    "city": "Pozzuoli",
    "city_ascii": "Pozzuoli",
    "lat": "40.8231",
    "lng": "14.1222",
    "country": "Italy",
    "iso2": "IT",
    "iso3": "ITA",
    "admin_name": "Campania",
    "capital": "",
    "population": "81141",
    "id": "1380746744"
  },
  {
    "city": "Grosseto",
    "city_ascii": "Grosseto",
    "lat": "42.7667",
    "lng": "11.1000",
    "country": "Italy",
    "iso2": "IT",
    "iso3": "ITA",
    "admin_name": "Tuscany",
    "capital": "minor",
    "population": "82036",
    "id": "1380285116"
  },
  {
    "city": "Varese",
    "city_ascii": "Varese",
    "lat": "45.8167",
    "lng": "8.8333",
    "country": "Italy",
    "iso2": "IT",
    "iso3": "ITA",
    "admin_name": "Lombardy",
    "capital": "minor",
    "population": "80544",
    "id": "1380137214"
  },
  {
    "city": "Fiumicino",
    "city_ascii": "Fiumicino",
    "lat": "41.7667",
    "lng": "12.2333",
    "country": "Italy",
    "iso2": "IT",
    "iso3": "ITA",
    "admin_name": "Lazio",
    "capital": "",
    "population": "79630",
    "id": "1380717773"
  },
  {
    "city": "Caserta",
    "city_ascii": "Caserta",
    "lat": "41.0667",
    "lng": "14.3333",
    "country": "Italy",
    "iso2": "IT",
    "iso3": "ITA",
    "admin_name": "Campania",
    "capital": "minor",
    "population": "75561",
    "id": "1380614087"
  },
  {
    "city": "Asti",
    "city_ascii": "Asti",
    "lat": "44.9000",
    "lng": "8.2069",
    "country": "Italy",
    "iso2": "IT",
    "iso3": "ITA",
    "admin_name": "Piedmont",
    "capital": "minor",
    "population": "76211",
    "id": "1380024585"
  },
  {
    "city": "Gela",
    "city_ascii": "Gela",
    "lat": "37.0667",
    "lng": "14.2500",
    "country": "Italy",
    "iso2": "IT",
    "iso3": "ITA",
    "admin_name": "Sicilia",
    "capital": "",
    "population": "74858",
    "id": "1380218145"
  },
  {
    "city": "Aprilia",
    "city_ascii": "Aprilia",
    "lat": "41.5833",
    "lng": "12.6500",
    "country": "Italy",
    "iso2": "IT",
    "iso3": "ITA",
    "admin_name": "Lazio",
    "capital": "",
    "population": "74190",
    "id": "1380289716"
  },
  {
    "city": "Pavia",
    "city_ascii": "Pavia",
    "lat": "45.1853",
    "lng": "9.1550",
    "country": "Italy",
    "iso2": "IT",
    "iso3": "ITA",
    "admin_name": "Lombardy",
    "capital": "minor",
    "population": "72773",
    "id": "1380571928"
  },
  {
    "city": "Cremona",
    "city_ascii": "Cremona",
    "lat": "45.1333",
    "lng": "10.0333",
    "country": "Italy",
    "iso2": "IT",
    "iso3": "ITA",
    "admin_name": "Lombardy",
    "capital": "minor",
    "population": "72077",
    "id": "1380496758"
  },
  {
    "city": "Carpi",
    "city_ascii": "Carpi",
    "lat": "44.7833",
    "lng": "10.8833",
    "country": "Italy",
    "iso2": "IT",
    "iso3": "ITA",
    "admin_name": "Emilia-Romagna",
    "capital": "",
    "population": "71148",
    "id": "1380990747"
  },
  {
    "city": "Quartu Sant’Elena",
    "city_ascii": "Quartu Sant'Elena",
    "lat": "39.2413",
    "lng": "9.1839",
    "country": "Italy",
    "iso2": "IT",
    "iso3": "ITA",
    "admin_name": "Sardegna",
    "capital": "",
    "population": "70879",
    "id": "1380157297"
  },
  {
    "city": "Altamura",
    "city_ascii": "Altamura",
    "lat": "40.8167",
    "lng": "16.5500",
    "country": "Italy",
    "iso2": "IT",
    "iso3": "ITA",
    "admin_name": "Puglia",
    "capital": "",
    "population": "70514",
    "id": "1380125300"
  },
  {
    "city": "Imola",
    "city_ascii": "Imola",
    "lat": "44.3531",
    "lng": "11.7147",
    "country": "Italy",
    "iso2": "IT",
    "iso3": "ITA",
    "admin_name": "Emilia-Romagna",
    "capital": "",
    "population": "69936",
    "id": "1380070609"
  },
  {
    "city": "Massa",
    "city_ascii": "Massa",
    "lat": "44.0333",
    "lng": "10.1333",
    "country": "Italy",
    "iso2": "IT",
    "iso3": "ITA",
    "admin_name": "Tuscany",
    "capital": "minor",
    "population": "69037",
    "id": "1380078151"
  },
  {
    "city": "Viterbo",
    "city_ascii": "Viterbo",
    "lat": "42.4186",
    "lng": "12.1042",
    "country": "Italy",
    "iso2": "IT",
    "iso3": "ITA",
    "admin_name": "Lazio",
    "capital": "minor",
    "population": "67798",
    "id": "1380408658"
  },
  {
    "city": "Trapani",
    "city_ascii": "Trapani",
    "lat": "38.0175",
    "lng": "12.5150",
    "country": "Italy",
    "iso2": "IT",
    "iso3": "ITA",
    "admin_name": "Sicilia",
    "capital": "minor",
    "population": "67923",
    "id": "1380918442"
  },
  {
    "city": "Vittoria",
    "city_ascii": "Vittoria",
    "lat": "36.9500",
    "lng": "14.5333",
    "country": "Italy",
    "iso2": "IT",
    "iso3": "ITA",
    "admin_name": "Sicilia",
    "capital": "",
    "population": "64212",
    "id": "1380563861"
  },
  {
    "city": "Pomezia",
    "city_ascii": "Pomezia",
    "lat": "41.6693",
    "lng": "12.5021",
    "country": "Italy",
    "iso2": "IT",
    "iso3": "ITA",
    "admin_name": "Lazio",
    "capital": "",
    "population": "63641",
    "id": "1380470415"
  },
  {
    "city": "Crotone",
    "city_ascii": "Crotone",
    "lat": "39.0833",
    "lng": "17.1167",
    "country": "Italy",
    "iso2": "IT",
    "iso3": "ITA",
    "admin_name": "Calabria",
    "capital": "minor",
    "population": "63941",
    "id": "1380444441"
  },
  {
    "city": "Vigevano",
    "city_ascii": "Vigevano",
    "lat": "45.3167",
    "lng": "8.8667",
    "country": "Italy",
    "iso2": "IT",
    "iso3": "ITA",
    "admin_name": "Lombardy",
    "capital": "",
    "population": "63153",
    "id": "1380675509"
  },
  {
    "city": "Carrara",
    "city_ascii": "Carrara",
    "lat": "44.0792",
    "lng": "10.1000",
    "country": "Italy",
    "iso2": "IT",
    "iso3": "ITA",
    "admin_name": "Tuscany",
    "capital": "",
    "population": "62537",
    "id": "1380429579"
  },
  {
    "city": "Caltanissetta",
    "city_ascii": "Caltanissetta",
    "lat": "37.4903",
    "lng": "14.0625",
    "country": "Italy",
    "iso2": "IT",
    "iso3": "ITA",
    "admin_name": "Sicilia",
    "capital": "minor",
    "population": "62317",
    "id": "1380274368"
  },
  {
    "city": "Viareggio",
    "city_ascii": "Viareggio",
    "lat": "43.8672",
    "lng": "10.2506",
    "country": "Italy",
    "iso2": "IT",
    "iso3": "ITA",
    "admin_name": "Tuscany",
    "capital": "",
    "population": "62079",
    "id": "1380033840"
  },
  {
    "city": "Fano",
    "city_ascii": "Fano",
    "lat": "43.8333",
    "lng": "13.0167",
    "country": "Italy",
    "iso2": "IT",
    "iso3": "ITA",
    "admin_name": "Marche",
    "capital": "",
    "population": "60978",
    "id": "1380639425"
  },
  {
    "city": "Acerra",
    "city_ascii": "Acerra",
    "lat": "40.9500",
    "lng": "14.3667",
    "country": "Italy",
    "iso2": "IT",
    "iso3": "ITA",
    "admin_name": "Campania",
    "capital": "",
    "population": "59910",
    "id": "1380520117"
  },
  {
    "city": "Savona",
    "city_ascii": "Savona",
    "lat": "44.3080",
    "lng": "8.4810",
    "country": "Italy",
    "iso2": "IT",
    "iso3": "ITA",
    "admin_name": "Liguria",
    "capital": "minor",
    "population": "60632",
    "id": "1380314552"
  },
  {
    "city": "Matera",
    "city_ascii": "Matera",
    "lat": "40.6667",
    "lng": "16.6000",
    "country": "Italy",
    "iso2": "IT",
    "iso3": "ITA",
    "admin_name": "Basilicata",
    "capital": "minor",
    "population": "60403",
    "id": "1380622394"
  },
  {
    "city": "Molfetta",
    "city_ascii": "Molfetta",
    "lat": "41.2000",
    "lng": "16.6000",
    "country": "Italy",
    "iso2": "IT",
    "iso3": "ITA",
    "admin_name": "Puglia",
    "capital": "",
    "population": "59470",
    "id": "1380210810"
  },
  {
    "city": "Olbia",
    "city_ascii": "Olbia",
    "lat": "40.9167",
    "lng": "9.5000",
    "country": "Italy",
    "iso2": "IT",
    "iso3": "ITA",
    "admin_name": "Sardegna",
    "capital": "minor",
    "population": "60261",
    "id": "1380424474"
  },
  {
    "city": "Benevento",
    "city_ascii": "Benevento",
    "lat": "41.1333",
    "lng": "14.7833",
    "country": "Italy",
    "iso2": "IT",
    "iso3": "ITA",
    "admin_name": "Campania",
    "capital": "minor",
    "population": "59789",
    "id": "1380723198"
  },
  {
    "city": "Agrigento",
    "city_ascii": "Agrigento",
    "lat": "37.3167",
    "lng": "13.5833",
    "country": "Italy",
    "iso2": "IT",
    "iso3": "ITA",
    "admin_name": "Sicilia",
    "capital": "minor",
    "population": "59329",
    "id": "1380721319"
  },
  {
    "city": "Faenza",
    "city_ascii": "Faenza",
    "lat": "44.2856",
    "lng": "11.8833",
    "country": "Italy",
    "iso2": "IT",
    "iso3": "ITA",
    "admin_name": "Emilia-Romagna",
    "capital": "",
    "population": "58797",
    "id": "1380236916"
  },
  {
    "city": "Cerignola",
    "city_ascii": "Cerignola",
    "lat": "41.2667",
    "lng": "15.9000",
    "country": "Italy",
    "iso2": "IT",
    "iso3": "ITA",
    "admin_name": "Puglia",
    "capital": "",
    "population": "58540",
    "id": "1380501000"
  },
  {
    "city": "Moncalieri",
    "city_ascii": "Moncalieri",
    "lat": "45.0005",
    "lng": "7.6848",
    "country": "Italy",
    "iso2": "IT",
    "iso3": "ITA",
    "admin_name": "Piedmont",
    "capital": "",
    "population": "57234",
    "id": "1380931785"
  },
  {
    "city": "Foligno",
    "city_ascii": "Foligno",
    "lat": "42.9500",
    "lng": "12.7000",
    "country": "Italy",
    "iso2": "IT",
    "iso3": "ITA",
    "admin_name": "Umbria",
    "capital": "",
    "population": "56999",
    "id": "1380946507"
  },
  {
    "city": "Manfredonia",
    "city_ascii": "Manfredonia",
    "lat": "41.6333",
    "lng": "15.9167",
    "country": "Italy",
    "iso2": "IT",
    "iso3": "ITA",
    "admin_name": "Puglia",
    "capital": "",
    "population": "56906",
    "id": "1380398261"
  },
  {
    "city": "Bagheria",
    "city_ascii": "Bagheria",
    "lat": "38.0833",
    "lng": "13.5000",
    "country": "Italy",
    "iso2": "IT",
    "iso3": "ITA",
    "admin_name": "Sicilia",
    "capital": "",
    "population": "55047",
    "id": "1380694374"
  },
  {
    "city": "Cuneo",
    "city_ascii": "Cuneo",
    "lat": "44.3833",
    "lng": "7.5500",
    "country": "Italy",
    "iso2": "IT",
    "iso3": "ITA",
    "admin_name": "Piedmont",
    "capital": "minor",
    "population": "56281",
    "id": "1380488547"
  },
  {
    "city": "Tivoli",
    "city_ascii": "Tivoli",
    "lat": "41.9667",
    "lng": "12.8000",
    "country": "Italy",
    "iso2": "IT",
    "iso3": "ITA",
    "admin_name": "Lazio",
    "capital": "",
    "population": "56542",
    "id": "1380558647"
  },
  {
    "city": "Trani",
    "city_ascii": "Trani",
    "lat": "41.2667",
    "lng": "16.4167",
    "country": "Italy",
    "iso2": "IT",
    "iso3": "ITA",
    "admin_name": "Puglia",
    "capital": "minor",
    "population": "56031",
    "id": "1380788265"
  },
  {
    "city": "Bisceglie",
    "city_ascii": "Bisceglie",
    "lat": "41.2431",
    "lng": "16.5053",
    "country": "Italy",
    "iso2": "IT",
    "iso3": "ITA",
    "admin_name": "Puglia",
    "capital": "",
    "population": "55385",
    "id": "1380547143"
  },
  {
    "city": "San Remo",
    "city_ascii": "San Remo",
    "lat": "43.8175",
    "lng": "7.7750",
    "country": "Italy",
    "iso2": "IT",
    "iso3": "ITA",
    "admin_name": "Liguria",
    "capital": "",
    "population": "54529",
    "id": "1380767686"
  },
  {
    "city": "Bitonto",
    "city_ascii": "Bitonto",
    "lat": "41.1167",
    "lng": "16.6833",
    "country": "Italy",
    "iso2": "IT",
    "iso3": "ITA",
    "admin_name": "Puglia",
    "capital": "",
    "population": "55127",
    "id": "1380312292"
  },
  {
    "city": "Modica",
    "city_ascii": "Modica",
    "lat": "36.8672",
    "lng": "14.7614",
    "country": "Italy",
    "iso2": "IT",
    "iso3": "ITA",
    "admin_name": "Sicilia",
    "capital": "",
    "population": "54530",
    "id": "1380522093"
  },
  {
    "city": "Teramo",
    "city_ascii": "Teramo",
    "lat": "42.6589",
    "lng": "13.7039",
    "country": "Italy",
    "iso2": "IT",
    "iso3": "ITA",
    "admin_name": "Abruzzo",
    "capital": "minor",
    "population": "54338",
    "id": "1380348976"
  },
  {
    "city": "Cava de’ Tirreni",
    "city_ascii": "Cava de' Tirreni",
    "lat": "40.7000",
    "lng": "14.7000",
    "country": "Italy",
    "iso2": "IT",
    "iso3": "ITA",
    "admin_name": "Campania",
    "capital": "",
    "population": "53130",
    "id": "1380826204"
  },
  {
    "city": "Montesilvano",
    "city_ascii": "Montesilvano",
    "lat": "42.5142",
    "lng": "14.1494",
    "country": "Italy",
    "iso2": "IT",
    "iso3": "ITA",
    "admin_name": "Abruzzo",
    "capital": "",
    "population": "54194",
    "id": "1380908377"
  },
  {
    "city": "Siena",
    "city_ascii": "Siena",
    "lat": "43.3183",
    "lng": "11.3314",
    "country": "Italy",
    "iso2": "IT",
    "iso3": "ITA",
    "admin_name": "Tuscany",
    "capital": "minor",
    "population": "53901",
    "id": "1380088439"
  },
  {
    "city": "Avellino",
    "city_ascii": "Avellino",
    "lat": "40.9167",
    "lng": "14.7889",
    "country": "Italy",
    "iso2": "IT",
    "iso3": "ITA",
    "admin_name": "Campania",
    "capital": "minor",
    "population": "53908",
    "id": "1380716267"
  },
  {
    "city": "Velletri",
    "city_ascii": "Velletri",
    "lat": "41.6667",
    "lng": "12.7833",
    "country": "Italy",
    "iso2": "IT",
    "iso3": "ITA",
    "admin_name": "Lazio",
    "capital": "",
    "population": "53188",
    "id": "1380946852"
  },
  {
    "city": "Anzio",
    "city_ascii": "Anzio",
    "lat": "41.4472",
    "lng": "12.6283",
    "country": "Italy",
    "iso2": "IT",
    "iso3": "ITA",
    "admin_name": "Lazio",
    "capital": "",
    "population": "52381",
    "id": "1380647730"
  },
  {
    "city": "Acireale",
    "city_ascii": "Acireale",
    "lat": "37.6167",
    "lng": "15.1667",
    "country": "Italy",
    "iso2": "IT",
    "iso3": "ITA",
    "admin_name": "Sicilia",
    "capital": "",
    "population": "52269",
    "id": "1380128872"
  },
  {
    "city": "San Severo",
    "city_ascii": "San Severo",
    "lat": "41.6951",
    "lng": "15.3793",
    "country": "Italy",
    "iso2": "IT",
    "iso3": "ITA",
    "admin_name": "Puglia",
    "capital": "",
    "population": "53015",
    "id": "1380874809"
  },
  {
    "city": "Pordenone",
    "city_ascii": "Pordenone",
    "lat": "45.9500",
    "lng": "12.6500",
    "country": "Italy",
    "iso2": "IT",
    "iso3": "ITA",
    "admin_name": "Friuli Venezia Giulia",
    "capital": "minor",
    "population": "51127",
    "id": "1380364177"
  },
  {
    "city": "Civitavecchia",
    "city_ascii": "Civitavecchia",
    "lat": "42.1000",
    "lng": "11.8000",
    "country": "Italy",
    "iso2": "IT",
    "iso3": "ITA",
    "admin_name": "Lazio",
    "capital": "",
    "population": "51595",
    "id": "1380282443"
  },
  {
    "city": "Battipaglia",
    "city_ascii": "Battipaglia",
    "lat": "40.6167",
    "lng": "14.9833",
    "country": "Italy",
    "iso2": "IT",
    "iso3": "ITA",
    "admin_name": "Campania",
    "capital": "",
    "population": "51005",
    "id": "1380725331"
  },
  {
    "city": "Mazara del Vallo",
    "city_ascii": "Mazara del Vallo",
    "lat": "37.6500",
    "lng": "12.5833",
    "country": "Italy",
    "iso2": "IT",
    "iso3": "ITA",
    "admin_name": "Sicilia",
    "capital": "",
    "population": "51488",
    "id": "1380643775"
  },
  {
    "city": "Chieti",
    "city_ascii": "Chieti",
    "lat": "42.3500",
    "lng": "14.1667",
    "country": "Italy",
    "iso2": "IT",
    "iso3": "ITA",
    "admin_name": "Abruzzo",
    "capital": "minor",
    "population": "50770",
    "id": "1380558989"
  },
  {
    "city": "Rovigo",
    "city_ascii": "Rovigo",
    "lat": "45.0809",
    "lng": "11.7940",
    "country": "Italy",
    "iso2": "IT",
    "iso3": "ITA",
    "admin_name": "Veneto",
    "capital": "minor",
    "population": "51149",
    "id": "1380037431"
  },
  {
    "city": "Scandicci",
    "city_ascii": "Scandicci",
    "lat": "43.7544",
    "lng": "11.1894",
    "country": "Italy",
    "iso2": "IT",
    "iso3": "ITA",
    "admin_name": "Tuscany",
    "capital": "",
    "population": "50645",
    "id": "1380917394"
  },
  {
    "city": "Misterbianco",
    "city_ascii": "Misterbianco",
    "lat": "37.5183",
    "lng": "15.0069",
    "country": "Italy",
    "iso2": "IT",
    "iso3": "ITA",
    "admin_name": "Sicilia",
    "capital": "",
    "population": "49992",
    "id": "1380615462"
  },
  {
    "city": "Nettuno",
    "city_ascii": "Nettuno",
    "lat": "41.4667",
    "lng": "12.6667",
    "country": "Italy",
    "iso2": "IT",
    "iso3": "ITA",
    "admin_name": "Lazio",
    "capital": "",
    "population": "49852",
    "id": "1380995908"
  },
  {
    "city": "Ardea",
    "city_ascii": "Ardea",
    "lat": "41.6167",
    "lng": "12.5500",
    "country": "Italy",
    "iso2": "IT",
    "iso3": "ITA",
    "admin_name": "Lazio",
    "capital": "",
    "population": "49663",
    "id": "1380358303"
  },
  {
    "city": "Casalnuovo di Napoli",
    "city_ascii": "Casalnuovo di Napoli",
    "lat": "40.9167",
    "lng": "14.3500",
    "country": "Italy",
    "iso2": "IT",
    "iso3": "ITA",
    "admin_name": "Campania",
    "capital": "",
    "population": "49250",
    "id": "1380985501"
  },
  {
    "city": "Rivoli",
    "city_ascii": "Rivoli",
    "lat": "45.0697",
    "lng": "7.5177",
    "country": "Italy",
    "iso2": "IT",
    "iso3": "ITA",
    "admin_name": "Piedmont",
    "capital": "",
    "population": "48629",
    "id": "1380470611"
  },
  {
    "city": "Mantova",
    "city_ascii": "Mantova",
    "lat": "45.1564",
    "lng": "10.7911",
    "country": "Italy",
    "iso2": "IT",
    "iso3": "ITA",
    "admin_name": "Lombardy",
    "capital": "minor",
    "population": "49409",
    "id": "1380636357"
  },
  {
    "city": "Sesto Fiorentino",
    "city_ascii": "Sesto Fiorentino",
    "lat": "43.8333",
    "lng": "11.2000",
    "country": "Italy",
    "iso2": "IT",
    "iso3": "ITA",
    "admin_name": "Tuscany",
    "capital": "",
    "population": "49091",
    "id": "1380739163"
  },
  {
    "city": "Chioggia",
    "city_ascii": "Chioggia",
    "lat": "45.2196",
    "lng": "12.2789",
    "country": "Italy",
    "iso2": "IT",
    "iso3": "ITA",
    "admin_name": "Veneto",
    "capital": "",
    "population": "49430",
    "id": "1380033938"
  },
  {
    "city": "Empoli",
    "city_ascii": "Empoli",
    "lat": "43.7167",
    "lng": "10.9500",
    "country": "Italy",
    "iso2": "IT",
    "iso3": "ITA",
    "admin_name": "Tuscany",
    "capital": "",
    "population": "48626",
    "id": "1380958169"
  },
  {
    "city": "Monopoli",
    "city_ascii": "Monopoli",
    "lat": "40.9500",
    "lng": "17.3000",
    "country": "Italy",
    "iso2": "IT",
    "iso3": "ITA",
    "admin_name": "Puglia",
    "capital": "",
    "population": "48964",
    "id": "1380074643"
  },
  {
    "city": "Lecco",
    "city_ascii": "Lecco",
    "lat": "45.8500",
    "lng": "9.4000",
    "country": "Italy",
    "iso2": "IT",
    "iso3": "ITA",
    "admin_name": "Lombardy",
    "capital": "minor",
    "population": "48177",
    "id": "1380626602"
  },
  {
    "city": "San Benedetto del Tronto",
    "city_ascii": "San Benedetto del Tronto",
    "lat": "42.9500",
    "lng": "13.8833",
    "country": "Italy",
    "iso2": "IT",
    "iso3": "ITA",
    "admin_name": "Marche",
    "capital": "",
    "population": "47351",
    "id": "1380047492"
  },
  {
    "city": "Ascoli Piceno",
    "city_ascii": "Ascoli Piceno",
    "lat": "42.8500",
    "lng": "13.5833",
    "country": "Italy",
    "iso2": "IT",
    "iso3": "ITA",
    "admin_name": "Marche",
    "capital": "minor",
    "population": "48773",
    "id": "1380216238"
  },
  {
    "city": "Martina Franca",
    "city_ascii": "Martina Franca",
    "lat": "40.7000",
    "lng": "17.3333",
    "country": "Italy",
    "iso2": "IT",
    "iso3": "ITA",
    "admin_name": "Puglia",
    "capital": "",
    "population": "48786",
    "id": "1380879312"
  },
  {
    "city": "Settimo Torinese",
    "city_ascii": "Settimo Torinese",
    "lat": "45.1333",
    "lng": "7.7667",
    "country": "Italy",
    "iso2": "IT",
    "iso3": "ITA",
    "admin_name": "Piedmont",
    "capital": "",
    "population": "47220",
    "id": "1380123933"
  },
  {
    "city": "Corato",
    "city_ascii": "Corato",
    "lat": "41.1500",
    "lng": "16.4000",
    "country": "Italy",
    "iso2": "IT",
    "iso3": "ITA",
    "admin_name": "Puglia",
    "capital": "",
    "population": "48262",
    "id": "1380769899"
  },
  {
    "city": "Campi Bisenzio",
    "city_ascii": "Campi Bisenzio",
    "lat": "43.8167",
    "lng": "11.1333",
    "country": "Italy",
    "iso2": "IT",
    "iso3": "ITA",
    "admin_name": "Tuscany",
    "capital": "",
    "population": "46696",
    "id": "1380085514"
  },
  {
    "city": "Paterno",
    "city_ascii": "Paterno",
    "lat": "37.5667",
    "lng": "14.9000",
    "country": "Italy",
    "iso2": "IT",
    "iso3": "ITA",
    "admin_name": "Sicilia",
    "capital": "",
    "population": "47827",
    "id": "1380563851"
  },
  {
    "city": "Rieti",
    "city_ascii": "Rieti",
    "lat": "42.4044",
    "lng": "12.8567",
    "country": "Italy",
    "iso2": "IT",
    "iso3": "ITA",
    "admin_name": "Lazio",
    "capital": "minor",
    "population": "47436",
    "id": "1380045864"
  },
  {
    "city": "Frosinone",
    "city_ascii": "Frosinone",
    "lat": "41.6333",
    "lng": "13.3500",
    "country": "Italy",
    "iso2": "IT",
    "iso3": "ITA",
    "admin_name": "Lazio",
    "capital": "minor",
    "population": "46063",
    "id": "1380528356"
  },
  {
    "city": "Vercelli",
    "city_ascii": "Vercelli",
    "lat": "45.3256",
    "lng": "8.4231",
    "country": "Italy",
    "iso2": "IT",
    "iso3": "ITA",
    "admin_name": "Piedmont",
    "capital": "minor",
    "population": "46181",
    "id": "1380702536"
  },
  {
    "city": "Terracina",
    "city_ascii": "Terracina",
    "lat": "41.2833",
    "lng": "13.2500",
    "country": "Italy",
    "iso2": "IT",
    "iso3": "ITA",
    "admin_name": "Lazio",
    "capital": "",
    "population": "46323",
    "id": "1380975226"
  },
  {
    "city": "Capannori",
    "city_ascii": "Capannori",
    "lat": "43.8500",
    "lng": "10.5667",
    "country": "Italy",
    "iso2": "IT",
    "iso3": "ITA",
    "admin_name": "Tuscany",
    "capital": "",
    "population": "46072",
    "id": "1380407023"
  },
  {
    "city": "Lodi",
    "city_ascii": "Lodi",
    "lat": "45.3167",
    "lng": "9.5000",
    "country": "Italy",
    "iso2": "IT",
    "iso3": "ITA",
    "admin_name": "Lombardy",
    "capital": "minor",
    "population": "45252",
    "id": "1380406529"
  },
  {
    "city": "Marino",
    "city_ascii": "Marino",
    "lat": "41.7667",
    "lng": "12.6667",
    "country": "Italy",
    "iso2": "IT",
    "iso3": "ITA",
    "admin_name": "Lazio",
    "capital": "",
    "population": "44472",
    "id": "1380000027"
  },
  {
    "city": "Nocera Inferiore",
    "city_ascii": "Nocera Inferiore",
    "lat": "40.7500",
    "lng": "14.6333",
    "country": "Italy",
    "iso2": "IT",
    "iso3": "ITA",
    "admin_name": "Campania",
    "capital": "",
    "population": "45784",
    "id": "1380757404"
  },
  {
    "city": "Cascina",
    "city_ascii": "Cascina",
    "lat": "43.6833",
    "lng": "10.5500",
    "country": "Italy",
    "iso2": "IT",
    "iso3": "ITA",
    "admin_name": "Tuscany",
    "capital": "",
    "population": "45212",
    "id": "1380319833"
  },
  {
    "city": "Alcamo",
    "city_ascii": "Alcamo",
    "lat": "37.9778",
    "lng": "12.9639",
    "country": "Italy",
    "iso2": "IT",
    "iso3": "ITA",
    "admin_name": "Sicilia",
    "capital": "",
    "population": "45273",
    "id": "1380182511"
  },
  {
    "city": "Biella",
    "city_ascii": "Biella",
    "lat": "45.5667",
    "lng": "8.0667",
    "country": "Italy",
    "iso2": "IT",
    "iso3": "ITA",
    "admin_name": "Piedmont",
    "capital": "minor",
    "population": "44324",
    "id": "1380214136"
  },
  {
    "city": "Senigallia",
    "city_ascii": "Senigallia",
    "lat": "43.7131",
    "lng": "13.2183",
    "country": "Italy",
    "iso2": "IT",
    "iso3": "ITA",
    "admin_name": "Marche",
    "capital": "",
    "population": "44616",
    "id": "1380834864"
  },
  {
    "city": "Bassano del Grappa",
    "city_ascii": "Bassano del Grappa",
    "lat": "45.7667",
    "lng": "11.7342",
    "country": "Italy",
    "iso2": "IT",
    "iso3": "ITA",
    "admin_name": "Veneto",
    "capital": "",
    "population": "43481",
    "id": "1380653190"
  },
  {
    "city": "Alghero",
    "city_ascii": "Alghero",
    "lat": "40.5600",
    "lng": "8.3150",
    "country": "Italy",
    "iso2": "IT",
    "iso3": "ITA",
    "admin_name": "Sardegna",
    "capital": "",
    "population": "43964",
    "id": "1380434974"
  },
  {
    "city": "Gravina in Puglia",
    "city_ascii": "Gravina in Puglia",
    "lat": "40.8167",
    "lng": "16.4167",
    "country": "Italy",
    "iso2": "IT",
    "iso3": "ITA",
    "admin_name": "Puglia",
    "capital": "",
    "population": "43816",
    "id": "1380966676"
  },
  {
    "city": "Civitanova Marche",
    "city_ascii": "Civitanova Marche",
    "lat": "43.3000",
    "lng": "13.7333",
    "country": "Italy",
    "iso2": "IT",
    "iso3": "ITA",
    "admin_name": "Marche",
    "capital": "",
    "population": "42353",
    "id": "1380527467"
  },
  {
    "city": "Albano Laziale",
    "city_ascii": "Albano Laziale",
    "lat": "41.7333",
    "lng": "12.6667",
    "country": "Italy",
    "iso2": "IT",
    "iso3": "ITA",
    "admin_name": "Lazio",
    "capital": "",
    "population": "41314",
    "id": "1380821881"
  },
  {
    "city": "Avezzano",
    "city_ascii": "Avezzano",
    "lat": "42.0411",
    "lng": "13.4397",
    "country": "Italy",
    "iso2": "IT",
    "iso3": "ITA",
    "admin_name": "Abruzzo",
    "capital": "",
    "population": "42276",
    "id": "1380646749"
  },
  {
    "city": "Imperia",
    "city_ascii": "Imperia",
    "lat": "43.8833",
    "lng": "8.0333",
    "country": "Italy",
    "iso2": "IT",
    "iso3": "ITA",
    "admin_name": "Liguria",
    "capital": "minor",
    "population": "42602",
    "id": "1380075952"
  },
  {
    "city": "San Donà di Piave",
    "city_ascii": "San Dona di Piave",
    "lat": "45.6298",
    "lng": "12.5641",
    "country": "Italy",
    "iso2": "IT",
    "iso3": "ITA",
    "admin_name": "Veneto",
    "capital": "",
    "population": "41794",
    "id": "1380477303"
  },
  {
    "city": "Macerata",
    "city_ascii": "Macerata",
    "lat": "43.3003",
    "lng": "13.4533",
    "country": "Italy",
    "iso2": "IT",
    "iso3": "ITA",
    "admin_name": "Marche",
    "capital": "minor",
    "population": "41776",
    "id": "1380412139"
  },
  {
    "city": "Monterotondo",
    "city_ascii": "Monterotondo",
    "lat": "42.0500",
    "lng": "12.6167",
    "country": "Italy",
    "iso2": "IT",
    "iso3": "ITA",
    "admin_name": "Lazio",
    "capital": "",
    "population": "41144",
    "id": "1380326356"
  },
  {
    "city": "Barcellona-Pozzo di Gotto",
    "city_ascii": "Barcellona-Pozzo di Gotto",
    "lat": "38.1500",
    "lng": "15.2167",
    "country": "Italy",
    "iso2": "IT",
    "iso3": "ITA",
    "admin_name": "Sicilia",
    "capital": "",
    "population": "41389",
    "id": "1380260535"
  },
  {
    "city": "Merano",
    "city_ascii": "Merano",
    "lat": "46.6696",
    "lng": "11.1594",
    "country": "Italy",
    "iso2": "IT",
    "iso3": "ITA",
    "admin_name": "Trentino-Alto Adige",
    "capital": "",
    "population": "40485",
    "id": "1380000095"
  },
  {
    "city": "Vasto",
    "city_ascii": "Vasto",
    "lat": "42.1116",
    "lng": "14.7082",
    "country": "Italy",
    "iso2": "IT",
    "iso3": "ITA",
    "admin_name": "Abruzzo",
    "capital": "",
    "population": "41433",
    "id": "1380806117"
  },
  {
    "city": "Sassuolo",
    "city_ascii": "Sassuolo",
    "lat": "44.5517",
    "lng": "10.7856",
    "country": "Italy",
    "iso2": "IT",
    "iso3": "ITA",
    "admin_name": "Emilia-Romagna",
    "capital": "",
    "population": "40826",
    "id": "1380620922"
  },
  {
    "city": "Cantù",
    "city_ascii": "Cantu",
    "lat": "45.7333",
    "lng": "9.1333",
    "country": "Italy",
    "iso2": "IT",
    "iso3": "ITA",
    "admin_name": "Lombardy",
    "capital": "",
    "population": "39932",
    "id": "1380683045"
  },
  {
    "city": "Ladispoli",
    "city_ascii": "Ladispoli",
    "lat": "41.9544",
    "lng": "12.0742",
    "country": "Italy",
    "iso2": "IT",
    "iso3": "ITA",
    "admin_name": "Lazio",
    "capital": "",
    "population": "41604",
    "id": "1380799057"
  },
  {
    "city": "Marcianise",
    "city_ascii": "Marcianise",
    "lat": "41.0333",
    "lng": "14.3000",
    "country": "Italy",
    "iso2": "IT",
    "iso3": "ITA",
    "admin_name": "Campania",
    "capital": "",
    "population": "39792",
    "id": "1380095709"
  },
  {
    "city": "Sciacca",
    "city_ascii": "Sciacca",
    "lat": "37.5092",
    "lng": "13.0889",
    "country": "Italy",
    "iso2": "IT",
    "iso3": "ITA",
    "admin_name": "Sicilia",
    "capital": "",
    "population": "40488",
    "id": "1380760474"
  },
  {
    "city": "Rovereto",
    "city_ascii": "Rovereto",
    "lat": "45.8833",
    "lng": "11.0500",
    "country": "Italy",
    "iso2": "IT",
    "iso3": "ITA",
    "admin_name": "Trentino-Alto Adige",
    "capital": "",
    "population": "39825",
    "id": "1380311979"
  },
  {
    "city": "Iesi",
    "city_ascii": "Iesi",
    "lat": "43.5236",
    "lng": "13.2392",
    "country": "Italy",
    "iso2": "IT",
    "iso3": "ITA",
    "admin_name": "Marche",
    "capital": "",
    "population": "40210",
    "id": "1380650827"
  },
  {
    "city": "Corigliano Calabro",
    "city_ascii": "Corigliano Calabro",
    "lat": "39.6000",
    "lng": "16.5167",
    "country": "Italy",
    "iso2": "IT",
    "iso3": "ITA",
    "admin_name": "Calabria",
    "capital": "",
    "population": "40478",
    "id": "1380627594"
  },
  {
    "city": "Eboli",
    "city_ascii": "Eboli",
    "lat": "40.6169",
    "lng": "15.0564",
    "country": "Italy",
    "iso2": "IT",
    "iso3": "ITA",
    "admin_name": "Campania",
    "capital": "",
    "population": "40058",
    "id": "1380398886"
  },
  {
    "city": "Maddaloni",
    "city_ascii": "Maddaloni",
    "lat": "41.0333",
    "lng": "14.3833",
    "country": "Italy",
    "iso2": "IT",
    "iso3": "ITA",
    "admin_name": "Campania",
    "capital": "",
    "population": "39026",
    "id": "1380749764"
  },
  {
    "city": "Fondi",
    "city_ascii": "Fondi",
    "lat": "41.3500",
    "lng": "13.4167",
    "country": "Italy",
    "iso2": "IT",
    "iso3": "ITA",
    "admin_name": "Lazio",
    "capital": "",
    "population": "39779",
    "id": "1380041713"
  },
  {
    "city": "Fasano",
    "city_ascii": "Fasano",
    "lat": "40.8333",
    "lng": "17.3667",
    "country": "Italy",
    "iso2": "IT",
    "iso3": "ITA",
    "admin_name": "Puglia",
    "capital": "",
    "population": "39683",
    "id": "1380301604"
  },
  {
    "city": "Voghera",
    "city_ascii": "Voghera",
    "lat": "44.9925",
    "lng": "9.0092",
    "country": "Italy",
    "iso2": "IT",
    "iso3": "ITA",
    "admin_name": "Lombardy",
    "capital": "",
    "population": "39354",
    "id": "1380568677"
  },
  {
    "city": "Città di Castello",
    "city_ascii": "Citta di Castello",
    "lat": "43.4608",
    "lng": "12.2439",
    "country": "Italy",
    "iso2": "IT",
    "iso3": "ITA",
    "admin_name": "Umbria",
    "capital": "",
    "population": "39632",
    "id": "1380983952"
  },
  {
    "city": "Schio",
    "city_ascii": "Schio",
    "lat": "45.7111",
    "lng": "11.3556",
    "country": "Italy",
    "iso2": "IT",
    "iso3": "ITA",
    "admin_name": "Veneto",
    "capital": "",
    "population": "39082",
    "id": "1380627888"
  },
  {
    "city": "Modugno",
    "city_ascii": "Modugno",
    "lat": "41.0833",
    "lng": "16.7833",
    "country": "Italy",
    "iso2": "IT",
    "iso3": "ITA",
    "admin_name": "Puglia",
    "capital": "",
    "population": "38453",
    "id": "1380946578"
  },
  {
    "city": "San Giuliano Milanese",
    "city_ascii": "San Giuliano Milanese",
    "lat": "45.4000",
    "lng": "9.2833",
    "country": "Italy",
    "iso2": "IT",
    "iso3": "ITA",
    "admin_name": "Lombardy",
    "capital": "",
    "population": "38314",
    "id": "1380528525"
  },
  {
    "city": "Carini",
    "city_ascii": "Carini",
    "lat": "38.1333",
    "lng": "13.1833",
    "country": "Italy",
    "iso2": "IT",
    "iso3": "ITA",
    "admin_name": "Sicilia",
    "capital": "",
    "population": "38936",
    "id": "1380895460"
  },
  {
    "city": "Monreale",
    "city_ascii": "Monreale",
    "lat": "38.0817",
    "lng": "13.2889",
    "country": "Italy",
    "iso2": "IT",
    "iso3": "ITA",
    "admin_name": "Sicilia",
    "capital": "",
    "population": "39047",
    "id": "1380377076"
  },
  {
    "city": "Caivano",
    "city_ascii": "Caivano",
    "lat": "40.9500",
    "lng": "14.3000",
    "country": "Italy",
    "iso2": "IT",
    "iso3": "ITA",
    "admin_name": "Campania",
    "capital": "",
    "population": "37654",
    "id": "1380551654"
  },
  {
    "city": "Mira",
    "city_ascii": "Mira",
    "lat": "45.4375",
    "lng": "12.1329",
    "country": "Italy",
    "iso2": "IT",
    "iso3": "ITA",
    "admin_name": "Veneto",
    "capital": "",
    "population": "38573",
    "id": "1380620162"
  },
  {
    "city": "Caltagirone",
    "city_ascii": "Caltagirone",
    "lat": "37.2375",
    "lng": "14.5125",
    "country": "Italy",
    "iso2": "IT",
    "iso3": "ITA",
    "admin_name": "Sicilia",
    "capital": "",
    "population": "38295",
    "id": "1380958599"
  },
  {
    "city": "Cerveteri",
    "city_ascii": "Cerveteri",
    "lat": "42.0000",
    "lng": "12.1000",
    "country": "Italy",
    "iso2": "IT",
    "iso3": "ITA",
    "admin_name": "Lazio",
    "capital": "",
    "population": "37977",
    "id": "1380612581"
  },
  {
    "city": "Spoleto",
    "city_ascii": "Spoleto",
    "lat": "42.7565",
    "lng": "12.6855",
    "country": "Italy",
    "iso2": "IT",
    "iso3": "ITA",
    "admin_name": "Umbria",
    "capital": "",
    "population": "37964",
    "id": "1380230959"
  },
  {
    "city": "Formia",
    "city_ascii": "Formia",
    "lat": "41.2667",
    "lng": "13.6167",
    "country": "Italy",
    "iso2": "IT",
    "iso3": "ITA",
    "admin_name": "Lazio",
    "capital": "",
    "population": "38032",
    "id": "1380356928"
  },
  {
    "city": "Chieri",
    "city_ascii": "Chieri",
    "lat": "45.0139",
    "lng": "7.8224",
    "country": "Italy",
    "iso2": "IT",
    "iso3": "ITA",
    "admin_name": "Piedmont",
    "capital": "",
    "population": "36958",
    "id": "1380145496"
  },
  {
    "city": "Fermo",
    "city_ascii": "Fermo",
    "lat": "43.1608",
    "lng": "13.7158",
    "country": "Italy",
    "iso2": "IT",
    "iso3": "ITA",
    "admin_name": "Marche",
    "capital": "minor",
    "population": "37238",
    "id": "1380577210"
  },
  {
    "city": "Cisterna di Latina",
    "city_ascii": "Cisterna di Latina",
    "lat": "41.5908",
    "lng": "12.8283",
    "country": "Italy",
    "iso2": "IT",
    "iso3": "ITA",
    "admin_name": "Lazio",
    "capital": "",
    "population": "36980",
    "id": "1380273577"
  },
  {
    "city": "Licata",
    "city_ascii": "Licata",
    "lat": "37.1083",
    "lng": "13.9469",
    "country": "Italy",
    "iso2": "IT",
    "iso3": "ITA",
    "admin_name": "Sicilia",
    "capital": "",
    "population": "37008",
    "id": "1380907780"
  },
  {
    "city": "Rossano",
    "city_ascii": "Rossano",
    "lat": "39.5667",
    "lng": "16.6333",
    "country": "Italy",
    "iso2": "IT",
    "iso3": "ITA",
    "admin_name": "Calabria",
    "capital": "",
    "population": "36598",
    "id": "1380048894"
  },
  {
    "city": "Pinerolo",
    "city_ascii": "Pinerolo",
    "lat": "44.8873",
    "lng": "7.3319",
    "country": "Italy",
    "iso2": "IT",
    "iso3": "ITA",
    "admin_name": "Piedmont",
    "capital": "",
    "population": "35947",
    "id": "1380505638"
  },
  {
    "city": "Nuoro",
    "city_ascii": "Nuoro",
    "lat": "40.3167",
    "lng": "9.3333",
    "country": "Italy",
    "iso2": "IT",
    "iso3": "ITA",
    "admin_name": "Sardegna",
    "capital": "minor",
    "population": "36579",
    "id": "1380476722"
  },
  {
    "city": "Francavilla Fontana",
    "city_ascii": "Francavilla Fontana",
    "lat": "40.5333",
    "lng": "17.5833",
    "country": "Italy",
    "iso2": "IT",
    "iso3": "ITA",
    "admin_name": "Puglia",
    "capital": "",
    "population": "36358",
    "id": "1380107756"
  },
  {
    "city": "Cassino",
    "city_ascii": "Cassino",
    "lat": "41.5000",
    "lng": "13.8333",
    "country": "Italy",
    "iso2": "IT",
    "iso3": "ITA",
    "admin_name": "Lazio",
    "capital": "",
    "population": "36497",
    "id": "1380403961"
  },
  {
    "city": "Rende",
    "city_ascii": "Rende",
    "lat": "39.3333",
    "lng": "16.1833",
    "country": "Italy",
    "iso2": "IT",
    "iso3": "ITA",
    "admin_name": "Calabria",
    "capital": "",
    "population": "35727",
    "id": "1380899541"
  },
  {
    "city": "Augusta",
    "city_ascii": "Augusta",
    "lat": "37.2500",
    "lng": "15.2167",
    "country": "Italy",
    "iso2": "IT",
    "iso3": "ITA",
    "admin_name": "Sicilia",
    "capital": "",
    "population": "35854",
    "id": "1380515752"
  },
  {
    "city": "Somma Vesuviana",
    "city_ascii": "Somma Vesuviana",
    "lat": "40.8725",
    "lng": "14.4369",
    "country": "Italy",
    "iso2": "IT",
    "iso3": "ITA",
    "admin_name": "Campania",
    "capital": "",
    "population": "34981",
    "id": "1380770260"
  },
  {
    "city": "Canicattì",
    "city_ascii": "Canicatti",
    "lat": "37.3667",
    "lng": "13.8500",
    "country": "Italy",
    "iso2": "IT",
    "iso3": "ITA",
    "admin_name": "Sicilia",
    "capital": "",
    "population": "35722",
    "id": "1380041258"
  },
  {
    "city": "Cento",
    "city_ascii": "Cento",
    "lat": "44.7333",
    "lng": "11.2833",
    "country": "Italy",
    "iso2": "IT",
    "iso3": "ITA",
    "admin_name": "Emilia-Romagna",
    "capital": "",
    "population": "35547",
    "id": "1380277894"
  },
  {
    "city": "Adrano",
    "city_ascii": "Adrano",
    "lat": "37.6667",
    "lng": "14.8333",
    "country": "Italy",
    "iso2": "IT",
    "iso3": "ITA",
    "admin_name": "Sicilia",
    "capital": "",
    "population": "35633",
    "id": "1380203916"
  },
  {
    "city": "Conegliano",
    "city_ascii": "Conegliano",
    "lat": "45.8868",
    "lng": "12.2974",
    "country": "Italy",
    "iso2": "IT",
    "iso3": "ITA",
    "admin_name": "Veneto",
    "capital": "",
    "population": "35082",
    "id": "1380962405"
  },
  {
    "city": "Segrate",
    "city_ascii": "Segrate",
    "lat": "45.4900",
    "lng": "9.2953",
    "country": "Italy",
    "iso2": "IT",
    "iso3": "ITA",
    "admin_name": "Lombardy",
    "capital": "",
    "population": "35492",
    "id": "1380736133"
  },
  {
    "city": "Belluno",
    "city_ascii": "Belluno",
    "lat": "46.1403",
    "lng": "12.2167",
    "country": "Italy",
    "iso2": "IT",
    "iso3": "ITA",
    "admin_name": "Veneto",
    "capital": "minor",
    "population": "35710",
    "id": "1380892097"
  },
  {
    "city": "Lanciano",
    "city_ascii": "Lanciano",
    "lat": "42.2333",
    "lng": "14.3833",
    "country": "Italy",
    "iso2": "IT",
    "iso3": "ITA",
    "admin_name": "Abruzzo",
    "capital": "",
    "population": "35002",
    "id": "1380596606"
  },
  {
    "city": "Osimo",
    "city_ascii": "Osimo",
    "lat": "43.4833",
    "lng": "13.4833",
    "country": "Italy",
    "iso2": "IT",
    "iso3": "ITA",
    "admin_name": "Marche",
    "capital": "",
    "population": "35071",
    "id": "1380993170"
  },
  {
    "city": "Crema",
    "city_ascii": "Crema",
    "lat": "45.3667",
    "lng": "9.6833",
    "country": "Italy",
    "iso2": "IT",
    "iso3": "ITA",
    "admin_name": "Lombardy",
    "capital": "",
    "population": "34264",
    "id": "1380590695"
  },
  {
    "city": "Gorizia",
    "city_ascii": "Gorizia",
    "lat": "45.9333",
    "lng": "13.6167",
    "country": "Italy",
    "iso2": "IT",
    "iso3": "ITA",
    "admin_name": "Friuli Venezia Giulia",
    "capital": "minor",
    "population": "34411",
    "id": "1380874405"
  },
  {
    "city": "Venaria Reale",
    "city_ascii": "Venaria Reale",
    "lat": "45.1167",
    "lng": "7.6333",
    "country": "Italy",
    "iso2": "IT",
    "iso3": "ITA",
    "admin_name": "Piedmont",
    "capital": "",
    "population": "33564",
    "id": "1380174847"
  },
  {
    "city": "Formigine",
    "city_ascii": "Formigine",
    "lat": "44.6072",
    "lng": "10.9333",
    "country": "Italy",
    "iso2": "IT",
    "iso3": "ITA",
    "admin_name": "Emilia-Romagna",
    "capital": "",
    "population": "34347",
    "id": "1380168196"
  },
  {
    "city": "Nola",
    "city_ascii": "Nola",
    "lat": "40.9333",
    "lng": "14.5333",
    "country": "Italy",
    "iso2": "IT",
    "iso3": "ITA",
    "admin_name": "Campania",
    "capital": "",
    "population": "34467",
    "id": "1380727895"
  },
  {
    "city": "Casale Monferrato",
    "city_ascii": "Casale Monferrato",
    "lat": "45.1342",
    "lng": "8.4583",
    "country": "Italy",
    "iso2": "IT",
    "iso3": "ITA",
    "admin_name": "Piedmont",
    "capital": "",
    "population": "34010",
    "id": "1380727799"
  },
  {
    "city": "Vibo Valentia",
    "city_ascii": "Vibo Valentia",
    "lat": "38.6753",
    "lng": "16.0959",
    "country": "Italy",
    "iso2": "IT",
    "iso3": "ITA",
    "admin_name": "Calabria",
    "capital": "minor",
    "population": "33642",
    "id": "1380359147"
  },
  {
    "city": "Termoli",
    "city_ascii": "Termoli",
    "lat": "42.0000",
    "lng": "14.9833",
    "country": "Italy",
    "iso2": "IT",
    "iso3": "ITA",
    "admin_name": "Molise",
    "capital": "",
    "population": "33583",
    "id": "1380386947"
  },
  {
    "city": "Mascalucia",
    "city_ascii": "Mascalucia",
    "lat": "37.5667",
    "lng": "15.0500",
    "country": "Italy",
    "iso2": "IT",
    "iso3": "ITA",
    "admin_name": "Sicilia",
    "capital": "",
    "population": "32167",
    "id": "1380571044"
  },
  {
    "city": "Piombino",
    "city_ascii": "Piombino",
    "lat": "42.9348",
    "lng": "10.5221",
    "country": "Italy",
    "iso2": "IT",
    "iso3": "ITA",
    "admin_name": "Tuscany",
    "capital": "",
    "population": "33855",
    "id": "1380556086"
  },
  {
    "city": "Castelfranco Veneto",
    "city_ascii": "Castelfranco Veneto",
    "lat": "45.6667",
    "lng": "11.9333",
    "country": "Italy",
    "iso2": "IT",
    "iso3": "ITA",
    "admin_name": "Veneto",
    "capital": "",
    "population": "33435",
    "id": "1380391523"
  },
  {
    "city": "Villafranca di Verona",
    "city_ascii": "Villafranca di Verona",
    "lat": "45.3500",
    "lng": "10.8500",
    "country": "Italy",
    "iso2": "IT",
    "iso3": "ITA",
    "admin_name": "Veneto",
    "capital": "",
    "population": "33232",
    "id": "1380407942"
  },
  {
    "city": "Abbiategrasso",
    "city_ascii": "Abbiategrasso",
    "lat": "45.4000",
    "lng": "8.9167",
    "country": "Italy",
    "iso2": "IT",
    "iso3": "ITA",
    "admin_name": "Lombardy",
    "capital": "",
    "population": "32737",
    "id": "1380022331"
  },
  {
    "city": "Castelfranco Emilia",
    "city_ascii": "Castelfranco Emilia",
    "lat": "44.5967",
    "lng": "11.0528",
    "country": "Italy",
    "iso2": "IT",
    "iso3": "ITA",
    "admin_name": "Emilia-Romagna",
    "capital": "",
    "population": "32894",
    "id": "1380892576"
  },
  {
    "city": "San Lazzaro di Savena",
    "city_ascii": "San Lazzaro di Savena",
    "lat": "44.4716",
    "lng": "11.4049",
    "country": "Italy",
    "iso2": "IT",
    "iso3": "ITA",
    "admin_name": "Emilia-Romagna",
    "capital": "",
    "population": "32473",
    "id": "1380383689"
  },
  {
    "city": "Lucera",
    "city_ascii": "Lucera",
    "lat": "41.5000",
    "lng": "15.3333",
    "country": "Italy",
    "iso2": "IT",
    "iso3": "ITA",
    "admin_name": "Puglia",
    "capital": "",
    "population": "33085",
    "id": "1380392352"
  },
  {
    "city": "Massafra",
    "city_ascii": "Massafra",
    "lat": "40.5833",
    "lng": "17.1167",
    "country": "Italy",
    "iso2": "IT",
    "iso3": "ITA",
    "admin_name": "Puglia",
    "capital": "",
    "population": "32861",
    "id": "1380268099"
  },
  {
    "city": "Camaiore",
    "city_ascii": "Camaiore",
    "lat": "43.9333",
    "lng": "10.3000",
    "country": "Italy",
    "iso2": "IT",
    "iso3": "ITA",
    "admin_name": "Tuscany",
    "capital": "",
    "population": "32328",
    "id": "1380212450"
  },
  {
    "city": "Favara",
    "city_ascii": "Favara",
    "lat": "37.3186",
    "lng": "13.6631",
    "country": "Italy",
    "iso2": "IT",
    "iso3": "ITA",
    "admin_name": "Sicilia",
    "capital": "",
    "population": "32299",
    "id": "1380627505"
  },
  {
    "city": "Lugo",
    "city_ascii": "Lugo",
    "lat": "44.4167",
    "lng": "11.9167",
    "country": "Italy",
    "iso2": "IT",
    "iso3": "ITA",
    "admin_name": "Emilia-Romagna",
    "capital": "",
    "population": "32317",
    "id": "1380226468"
  },
  {
    "city": "Milazzo",
    "city_ascii": "Milazzo",
    "lat": "38.2170",
    "lng": "15.2370",
    "country": "Italy",
    "iso2": "IT",
    "iso3": "ITA",
    "admin_name": "Sicilia",
    "capital": "",
    "population": "31231",
    "id": "1380644927"
  },
  {
    "city": "Grottaglie",
    "city_ascii": "Grottaglie",
    "lat": "40.5333",
    "lng": "17.4333",
    "country": "Italy",
    "iso2": "IT",
    "iso3": "ITA",
    "admin_name": "Puglia",
    "capital": "",
    "population": "31890",
    "id": "1380386888"
  },
  {
    "city": "Alba",
    "city_ascii": "Alba",
    "lat": "44.7000",
    "lng": "8.0333",
    "country": "Italy",
    "iso2": "IT",
    "iso3": "ITA",
    "admin_name": "Piedmont",
    "capital": "",
    "population": "31498",
    "id": "1380267586"
  },
  {
    "city": "Partinico",
    "city_ascii": "Partinico",
    "lat": "38.0500",
    "lng": "13.1167",
    "country": "Italy",
    "iso2": "IT",
    "iso3": "ITA",
    "admin_name": "Sicilia",
    "capital": "",
    "population": "31786",
    "id": "1380288818"
  },
  {
    "city": "Oristano",
    "city_ascii": "Oristano",
    "lat": "39.9058",
    "lng": "8.5916",
    "country": "Italy",
    "iso2": "IT",
    "iso3": "ITA",
    "admin_name": "Sardegna",
    "capital": "minor",
    "population": "31671",
    "id": "1380531119"
  },
  {
    "city": "Montebelluna",
    "city_ascii": "Montebelluna",
    "lat": "45.7753",
    "lng": "12.0389",
    "country": "Italy",
    "iso2": "IT",
    "iso3": "ITA",
    "admin_name": "Veneto",
    "capital": "",
    "population": "31258",
    "id": "1380459138"
  },
  {
    "city": "Avola",
    "city_ascii": "Avola",
    "lat": "36.9167",
    "lng": "15.1333",
    "country": "Italy",
    "iso2": "IT",
    "iso3": "ITA",
    "admin_name": "Sicilia",
    "capital": "",
    "population": "31408",
    "id": "1380501928"
  },
  {
    "city": "Gubbio",
    "city_ascii": "Gubbio",
    "lat": "43.3500",
    "lng": "12.5667",
    "country": "Italy",
    "iso2": "IT",
    "iso3": "ITA",
    "admin_name": "Umbria",
    "capital": "",
    "population": "31736",
    "id": "1380648510"
  },
  {
    "city": "San Giuliano Terme",
    "city_ascii": "San Giuliano Terme",
    "lat": "43.7625",
    "lng": "10.4414",
    "country": "Italy",
    "iso2": "IT",
    "iso3": "ITA",
    "admin_name": "Tuscany",
    "capital": "",
    "population": "31447",
    "id": "1380980385"
  },
  {
    "city": "Sarno",
    "city_ascii": "Sarno",
    "lat": "40.8167",
    "lng": "14.6167",
    "country": "Italy",
    "iso2": "IT",
    "iso3": "ITA",
    "admin_name": "Campania",
    "capital": "",
    "population": "31625",
    "id": "1380289095"
  },
  {
    "city": "Castelvetrano",
    "city_ascii": "Castelvetrano",
    "lat": "37.6833",
    "lng": "12.7931",
    "country": "Italy",
    "iso2": "IT",
    "iso3": "ITA",
    "admin_name": "Sicilia",
    "capital": "",
    "population": "31503",
    "id": "1380441707"
  },
  {
    "city": "Nardò",
    "city_ascii": "Nardo",
    "lat": "40.1797",
    "lng": "18.0333",
    "country": "Italy",
    "iso2": "IT",
    "iso3": "ITA",
    "admin_name": "Puglia",
    "capital": "",
    "population": "31431",
    "id": "1380000001"
  },
  {
    "city": "Verbania",
    "city_ascii": "Verbania",
    "lat": "45.9228",
    "lng": "8.5519",
    "country": "Italy",
    "iso2": "IT",
    "iso3": "ITA",
    "admin_name": "Piedmont",
    "capital": "minor",
    "population": "30709",
    "id": "1380922553"
  },
  {
    "city": "Ostuni",
    "city_ascii": "Ostuni",
    "lat": "40.7333",
    "lng": "17.5833",
    "country": "Italy",
    "iso2": "IT",
    "iso3": "ITA",
    "admin_name": "Puglia",
    "capital": "",
    "population": "31197",
    "id": "1380813167"
  },
  {
    "city": "Manduria",
    "city_ascii": "Manduria",
    "lat": "40.4000",
    "lng": "17.6333",
    "country": "Italy",
    "iso2": "IT",
    "iso3": "ITA",
    "admin_name": "Puglia",
    "capital": "",
    "population": "31159",
    "id": "1380088320"
  },
  {
    "city": "Rosignano Marittimo",
    "city_ascii": "Rosignano Marittimo",
    "lat": "43.4000",
    "lng": "10.4667",
    "country": "Italy",
    "iso2": "IT",
    "iso3": "ITA",
    "admin_name": "Tuscany",
    "capital": "",
    "population": "31039",
    "id": "1380869971"
  },
  {
    "city": "Marigliano",
    "city_ascii": "Marigliano",
    "lat": "40.9333",
    "lng": "14.4500",
    "country": "Italy",
    "iso2": "IT",
    "iso3": "ITA",
    "admin_name": "Campania",
    "capital": "",
    "population": "29879",
    "id": "1380237063"
  },
  {
    "city": "Fabriano",
    "city_ascii": "Fabriano",
    "lat": "43.3333",
    "lng": "12.9167",
    "country": "Italy",
    "iso2": "IT",
    "iso3": "ITA",
    "admin_name": "Marche",
    "capital": "",
    "population": "30809",
    "id": "1380375723"
  },
  {
    "city": "Treviglio",
    "city_ascii": "Treviglio",
    "lat": "45.5214",
    "lng": "9.5928",
    "country": "Italy",
    "iso2": "IT",
    "iso3": "ITA",
    "admin_name": "Lombardy",
    "capital": "",
    "population": "29815",
    "id": "1380238695"
  },
  {
    "city": "Rapallo",
    "city_ascii": "Rapallo",
    "lat": "44.3500",
    "lng": "9.2333",
    "country": "Italy",
    "iso2": "IT",
    "iso3": "ITA",
    "admin_name": "Liguria",
    "capital": "",
    "population": "29728",
    "id": "1380678273"
  },
  {
    "city": "Bra",
    "city_ascii": "Bra",
    "lat": "44.7000",
    "lng": "7.8500",
    "country": "Italy",
    "iso2": "IT",
    "iso3": "ITA",
    "admin_name": "Piedmont",
    "capital": "",
    "population": "29645",
    "id": "1380694360"
  },
  {
    "city": "Selargius",
    "city_ascii": "Selargius",
    "lat": "39.2537",
    "lng": "9.1606",
    "country": "Italy",
    "iso2": "IT",
    "iso3": "ITA",
    "admin_name": "Sardegna",
    "capital": "",
    "population": "28986",
    "id": "1380323668"
  },
  {
    "city": "Canosa di Puglia",
    "city_ascii": "Canosa di Puglia",
    "lat": "41.2167",
    "lng": "16.0667",
    "country": "Italy",
    "iso2": "IT",
    "iso3": "ITA",
    "admin_name": "Puglia",
    "capital": "",
    "population": "29847",
    "id": "1380837242"
  },
  {
    "city": "Comiso",
    "city_ascii": "Comiso",
    "lat": "36.9500",
    "lng": "14.6000",
    "country": "Italy",
    "iso2": "IT",
    "iso3": "ITA",
    "admin_name": "Sicilia",
    "capital": "",
    "population": "29845",
    "id": "1380243758"
  },
  {
    "city": "Misilmeri",
    "city_ascii": "Misilmeri",
    "lat": "38.0333",
    "lng": "13.4500",
    "country": "Italy",
    "iso2": "IT",
    "iso3": "ITA",
    "admin_name": "Sicilia",
    "capital": "",
    "population": "29376",
    "id": "1380249040"
  },
  {
    "city": "Parabiago",
    "city_ascii": "Parabiago",
    "lat": "45.5583",
    "lng": "8.9477",
    "country": "Italy",
    "iso2": "IT",
    "iso3": "ITA",
    "admin_name": "Lombardy",
    "capital": "",
    "population": "27842",
    "id": "1380735720"
  },
  {
    "city": "Spinea",
    "city_ascii": "Spinea",
    "lat": "45.4931",
    "lng": "12.1606",
    "country": "Italy",
    "iso2": "IT",
    "iso3": "ITA",
    "admin_name": "Veneto",
    "capital": "",
    "population": "27909",
    "id": "1380346235"
  },
  {
    "city": "Monfalcone",
    "city_ascii": "Monfalcone",
    "lat": "45.8000",
    "lng": "13.5333",
    "country": "Italy",
    "iso2": "IT",
    "iso3": "ITA",
    "admin_name": "Friuli Venezia Giulia",
    "capital": "",
    "population": "28107",
    "id": "1380849688"
  },
  {
    "city": "Desenzano del Garda",
    "city_ascii": "Desenzano del Garda",
    "lat": "45.4689",
    "lng": "10.5350",
    "country": "Italy",
    "iso2": "IT",
    "iso3": "ITA",
    "admin_name": "Lombardy",
    "capital": "",
    "population": "28982",
    "id": "1380888752"
  },
  {
    "city": "Poggibonsi",
    "city_ascii": "Poggibonsi",
    "lat": "43.4667",
    "lng": "11.1500",
    "country": "Italy",
    "iso2": "IT",
    "iso3": "ITA",
    "admin_name": "Tuscany",
    "capital": "",
    "population": "29031",
    "id": "1380606727"
  },
  {
    "city": "Gragnano",
    "city_ascii": "Gragnano",
    "lat": "40.6957",
    "lng": "14.5154",
    "country": "Italy",
    "iso2": "IT",
    "iso3": "ITA",
    "admin_name": "Campania",
    "capital": "",
    "population": "28897",
    "id": "1380505289"
  },
  {
    "city": "Mondragone",
    "city_ascii": "Mondragone",
    "lat": "41.1000",
    "lng": "13.8833",
    "country": "Italy",
    "iso2": "IT",
    "iso3": "ITA",
    "admin_name": "Campania",
    "capital": "",
    "population": "28797",
    "id": "1380019528"
  },
  {
    "city": "Carmagnola",
    "city_ascii": "Carmagnola",
    "lat": "44.8500",
    "lng": "7.7167",
    "country": "Italy",
    "iso2": "IT",
    "iso3": "ITA",
    "admin_name": "Piedmont",
    "capital": "",
    "population": "28969",
    "id": "1380814745"
  },
  {
    "city": "Pontedera",
    "city_ascii": "Pontedera",
    "lat": "43.6625",
    "lng": "10.6328",
    "country": "Italy",
    "iso2": "IT",
    "iso3": "ITA",
    "admin_name": "Tuscany",
    "capital": "",
    "population": "29168",
    "id": "1380040470"
  },
  {
    "city": "Sant’Anastasia",
    "city_ascii": "Sant'Anastasia",
    "lat": "40.8667",
    "lng": "14.4000",
    "country": "Italy",
    "iso2": "IT",
    "iso3": "ITA",
    "admin_name": "Campania",
    "capital": "",
    "population": "27690",
    "id": "1380460463"
  },
  {
    "city": "Alatri",
    "city_ascii": "Alatri",
    "lat": "41.7250",
    "lng": "13.3417",
    "country": "Italy",
    "iso2": "IT",
    "iso3": "ITA",
    "admin_name": "Lazio",
    "capital": "",
    "population": "28763",
    "id": "1380009791"
  },
  {
    "city": "Cervia",
    "city_ascii": "Cervia",
    "lat": "44.2586",
    "lng": "12.3558",
    "country": "Italy",
    "iso2": "IT",
    "iso3": "ITA",
    "admin_name": "Emilia-Romagna",
    "capital": "",
    "population": "28700",
    "id": "1380322591"
  },