[
  {
    "city": "Sofia",
    "city_ascii": "Sofia",
    "lat": "42.7000",
    "lng": "23.3300",
    "country": "Bulgaria",
    "iso2": "BG",
    "iso3": "BGR",
    "admin_name": "Sofia-Grad",
    "capital": "primary",
    "population": "1547779",
    "id": "1100762037"
  },
  {
    "city": "Plovdiv",
    "city_ascii": "Plovdiv",
    "lat": "42.1500",
    "lng": "24.7500",
    "country": "Bulgaria",
    "iso2": "BG",
    "iso3": "BGR",
    "admin_name": "Plovdiv",
    "capital": "admin",
    "population": "383540",
    "id": "1100436706"
  },
  {
    "city": "Varna",
    "city_ascii": "Varna",
    "lat": "43.2167",
    "lng": "27.9167",
    "country": "Bulgaria",
    "iso2": "BG",
    "iso3": "BGR",
    "admin_name": "Varna",
    "capital": "admin",
    "population": "348668",
    "id": "1100789115"
  },
  {
    "city": "Burgas",
    "city_ascii": "Burgas",
    "lat": "42.5030",
    "lng": "27.4702",
    "country": "Bulgaria",
    "iso2": "BG",
    "iso3": "BGR",
    "admin_name": "Burgas",
    "capital": "admin",
    "population": "210813",
    "id": "1100365645"
  },
  {
    "city": "Ruse",
    "city_ascii": "Ruse",
    "lat": "43.8231",
    "lng": "25.9539",
    "country": "Bulgaria",
    "iso2": "BG",
    "iso3": "BGR",
    "admin_name": "Ruse",
    "capital": "admin",
    "population": "143931",
    "id": "1100854249"
  },
  {
    "city": "Stara Zagora",
    "city_ascii": "Stara Zagora",
    "lat": "42.4333",
    "lng": "25.6500",
    "country": "Bulgaria",
    "iso2": "BG",
    "iso3": "BGR",
    "admin_name": "Stara Zagora",
    "capital": "admin",
    "population": "136475",
    "id": "1100903924"
  },
  {
    "city": "Pleven",
    "city_ascii": "Pleven",
    "lat": "43.4078",
    "lng": "24.6203",
    "country": "Bulgaria",
    "iso2": "BG",
    "iso3": "BGR",
    "admin_name": "Pleven",
    "capital": "admin",
    "population": "119596",
    "id": "1100973719"
  },
  {
    "city": "Sliven",
    "city_ascii": "Sliven",
    "lat": "42.6833",
    "lng": "26.3333",
    "country": "Bulgaria",
    "iso2": "BG",
    "iso3": "BGR",
    "admin_name": "Sliven",
    "capital": "admin",
    "population": "115241",
    "id": "1100110215"
  },
  {
    "city": "Pazardzhik",
    "city_ascii": "Pazardzhik",
    "lat": "42.2000",
    "lng": "24.3333",
    "country": "Bulgaria",
    "iso2": "BG",
    "iso3": "BGR",
    "admin_name": "Pazardzhik",
    "capital": "admin",
    "population": "103681",
    "id": "1100273248"
  },
  {
    "city": "Pernik",
    "city_ascii": "Pernik",
    "lat": "42.6000",
    "lng": "23.0333",
    "country": "Bulgaria",
    "iso2": "BG",
    "iso3": "BGR",
    "admin_name": "Pernik",
    "capital": "admin",
    "population": "97181",
    "id": "1100616332"
  },
  {
    "city": "Dobrich",
    "city_ascii": "Dobrich",
    "lat": "43.5667",
    "lng": "27.8333",
    "country": "Bulgaria",
    "iso2": "BG",
    "iso3": "BGR",
    "admin_name": "Dobrich",
    "capital": "admin",
    "population": "90419",
    "id": "1100364404"
  },
  {
    "city": "Shumen",
    "city_ascii": "Shumen",
    "lat": "43.2833",
    "lng": "26.9333",
    "country": "Bulgaria",
    "iso2": "BG",
    "iso3": "BGR",
    "admin_name": "Shumen",
    "capital": "admin",
    "population": "85410",
    "id": "1100000004"
  },
  {
    "city": "Veliko Tarnovo",
    "city_ascii": "Veliko Tarnovo",
    "lat": "43.0778",
    "lng": "25.6167",
    "country": "Bulgaria",
    "iso2": "BG",
    "iso3": "BGR",
    "admin_name": "Veliko Tarnovo",
    "capital": "admin",
    "population": "84801",
    "id": "1100134696"
  },
  {
    "city": "Haskovo",
    "city_ascii": "Haskovo",
    "lat": "41.9333",
    "lng": "25.5667",
    "country": "Bulgaria",
    "iso2": "BG",
    "iso3": "BGR",
    "admin_name": "Haskovo",
    "capital": "admin",
    "population": "83682",
    "id": "1100186247"
  },
  {
    "city": "Blagoevgrad",
    "city_ascii": "Blagoevgrad",
    "lat": "42.0119",
    "lng": "23.0897",
    "country": "Bulgaria",
    "iso2": "BG",
    "iso3": "BGR",
    "admin_name": "Blagoevgrad",
    "capital": "admin",
    "population": "73463",
    "id": "1100214416"
  },
  {
    "city": "Yambol",
    "city_ascii": "Yambol",
    "lat": "42.4833",
    "lng": "26.5000",
    "country": "Bulgaria",
    "iso2": "BG",
    "iso3": "BGR",
    "admin_name": "Yambol",
    "capital": "admin",
    "population": "70782",
    "id": "1100748067"
  },
  {
    "city": "Vratsa",
    "city_ascii": "Vratsa",
    "lat": "43.2000",
    "lng": "23.5500",
    "country": "Bulgaria",
    "iso2": "BG",
    "iso3": "BGR",
    "admin_name": "Vratsa",
    "capital": "admin",
    "population": "61702",
    "id": "1100261281"
  },
  {
    "city": "Kyustendil",
    "city_ascii": "Kyustendil",
    "lat": "42.2833",
    "lng": "22.6833",
    "country": "Bulgaria",
    "iso2": "BG",
    "iso3": "BGR",
    "admin_name": "Kyustendil",
    "capital": "admin",
    "population": "60681",
    "id": "1100543134"
  },
  {
    "city": "Gabrovo",
    "city_ascii": "Gabrovo",
    "lat": "42.8667",
    "lng": "25.3333",
    "country": "Bulgaria",
    "iso2": "BG",
    "iso3": "BGR",
    "admin_name": "Gabrovo",
    "capital": "admin",
    "population": "54608",
    "id": "1100696135"
  },
  {
    "city": "Targovishte",
    "city_ascii": "Targovishte",
    "lat": "43.2500",
    "lng": "26.5833",
    "country": "Bulgaria",
    "iso2": "BG",
    "iso3": "BGR",
    "admin_name": "Targovishte",
    "capital": "admin",
    "population": "53041",
    "id": "1100987486"
  },
  {
    "city": "Kardzhali",
    "city_ascii": "Kardzhali",
    "lat": "41.6500",
    "lng": "25.3667",
    "country": "Bulgaria",
    "iso2": "BG",
    "iso3": "BGR",
    "admin_name": "Kardzhali",
    "capital": "admin",
    "population": "51841",
    "id": "1100473094"
  },
  {
    "city": "Vidin",
    "city_ascii": "Vidin",
    "lat": "44.0000",
    "lng": "22.8667",
    "country": "Bulgaria",
    "iso2": "BG",
    "iso3": "BGR",
    "admin_name": "Vidin",
    "capital": "admin",
    "population": "50274",
    "id": "1100463536"
  },
  {
    "city": "Razgrad",
    "city_ascii": "Razgrad",
    "lat": "43.5333",
    "lng": "26.5167",
    "country": "Bulgaria",
    "iso2": "BG",
    "iso3": "BGR",
    "admin_name": "Razgrad",
    "capital": "admin",
    "population": "44894",
    "id": "1100143131"
  },
  {
    "city": "Silistra",
    "city_ascii": "Silistra",
    "lat": "44.1172",
    "lng": "27.2606",
    "country": "Bulgaria",
    "iso2": "BG",
    "iso3": "BGR",
    "admin_name": "Silistra",
    "capital": "admin",
    "population": "43265",
    "id": "1100458181"
  },
  {
    "city": "Lovech",
    "city_ascii": "Lovech",
    "lat": "43.1347",
    "lng": "24.7172",
    "country": "Bulgaria",
    "iso2": "BG",
    "iso3": "BGR",
    "admin_name": "Lovech",
    "capital": "admin",
    "population": "40516",
    "id": "1100374163"
  },
  {
    "city": "Montana",
    "city_ascii": "Montana",
    "lat": "43.4075",
    "lng": "23.2217",
    "country": "Bulgaria",
    "iso2": "BG",
    "iso3": "BGR",
    "admin_name": "Montana",
    "capital": "admin",
    "population": "40295",
    "id": "1100946651"
  },
  {
    "city": "Smolyan",
    "city_ascii": "Smolyan",
    "lat": "41.5833",
    "lng": "24.7000",
    "country": "Bulgaria",
    "iso2": "BG",
    "iso3": "BGR",
    "admin_name": "Smolyan",
    "capital": "admin",
    "population": "34465",
    "id": "1100429166"
  },
  {
    "city": "Kazanlak",
    "city_ascii": "Kazanlak",
    "lat": "42.6167",
    "lng": "25.4000",
    "country": "Bulgaria",
    "iso2": "BG",
    "iso3": "BGR",
    "admin_name": "Stara Zagora",
    "capital": "",
    "population": "66169",
    "id": "1100673552"
  },
  {
    "city": "Asenovgrad",
    "city_ascii": "Asenovgrad",
    "lat": "42.0167",
    "lng": "24.8667",
    "country": "Bulgaria",
    "iso2": "BG",
    "iso3": "BGR",
    "admin_name": "Plovdiv",
    "capital": "",
    "population": "65962",
    "id": "1100200929"
  },
  {
    "city": "Svishtov",
    "city_ascii": "Svishtov",
    "lat": "43.6167",
    "lng": "25.3500",
    "country": "Bulgaria",
    "iso2": "BG",
    "iso3": "BGR",
    "admin_name": "Veliko Tarnovo",
    "capital": "minor",
    "population": "44359",
    "id": "1100115119"
  },
  {
    "city": "Dimitrovgrad",
    "city_ascii": "Dimitrovgrad",
    "lat": "42.0500",
    "lng": "25.6000",
    "country": "Bulgaria",
    "iso2": "BG",
    "iso3": "BGR",
    "admin_name": "Haskovo",
    "capital": "",
    "population": "35507",
    "id": "1100570821"
  },
  {
    "city": "Dupnitsa",
    "city_ascii": "Dupnitsa",
    "lat": "42.2650",
    "lng": "23.1185",
    "country": "Bulgaria",
    "iso2": "BG",
    "iso3": "BGR",
    "admin_name": "Kyustendil",
    "capital": "",
    "population": "34653",
    "id": "1100440807"
  },
  {
    "city": "Gorna Oryahovitsa",
    "city_ascii": "Gorna Oryahovitsa",
    "lat": "43.1333",
    "lng": "25.7000",
    "country": "Bulgaria",
    "iso2": "BG",
    "iso3": "BGR",
    "admin_name": "Veliko Tarnovo",
    "capital": "",
    "population": "30413",
    "id": "1100589506"
  },
  {
    "city": "Petrich",
    "city_ascii": "Petrich",
    "lat": "41.3953",
    "lng": "23.2069",
    "country": "Bulgaria",
    "iso2": "BG",
    "iso3": "BGR",
    "admin_name": "Blagoevgrad",
    "capital": "",
    "population": "29727",
    "id": "1100407427"
  },
  {
    "city": "Gotse Delchev",
    "city_ascii": "Gotse Delchev",
    "lat": "41.5667",
    "lng": "23.7333",
    "country": "Bulgaria",
    "iso2": "BG",
    "iso3": "BGR",
    "admin_name": "Blagoevgrad",
    "capital": "",
    "population": "29585",
    "id": "1100837214"
  },
  {
    "city": "Troyan",
    "city_ascii": "Troyan",
    "lat": "42.8833",
    "lng": "24.7167",
    "country": "Bulgaria",
    "iso2": "BG",
    "iso3": "BGR",
    "admin_name": "Lovech",
    "capital": "",
    "population": "27687",
    "id": "1100528745"
  },
  {
    "city": "Aytos",
    "city_ascii": "Aytos",
    "lat": "42.7000",
    "lng": "27.2500",
    "country": "Bulgaria",
    "iso2": "BG",
    "iso3": "BGR",
    "admin_name": "Burgas",
    "capital": "",
    "population": "27326",
    "id": "1100109481"
  },
  {
    "city": "Sandanski",
    "city_ascii": "Sandanski",
    "lat": "41.5681",
    "lng": "23.2823",
    "country": "Bulgaria",
    "iso2": "BG",
    "iso3": "BGR",
    "admin_name": "Blagoevgrad",
    "capital": "",
    "population": "27245",
    "id": "1100580276"
  },
  {
    "city": "Samokov",
    "city_ascii": "Samokov",
    "lat": "42.3371",
    "lng": "23.5554",
    "country": "Bulgaria",
    "iso2": "BG",
    "iso3": "BGR",
    "admin_name": "Sofia",
    "capital": "",
    "population": "26548",
    "id": "1100464208"
  },
  {
    "city": "Omurtag",
    "city_ascii": "Omurtag",
    "lat": "43.1000",
    "lng": "26.4170",
    "country": "Bulgaria",
    "iso2": "BG",
    "iso3": "BGR",
    "admin_name": "Targovishte",
    "capital": "",
    "population": "24876",
    "id": "1100244508"
  },
  {
    "city": "Velingrad",
    "city_ascii": "Velingrad",
    "lat": "42.0167",
    "lng": "24.0000",
    "country": "Bulgaria",
    "iso2": "BG",
    "iso3": "BGR",
    "admin_name": "Pazardzhik",
    "capital": "minor",
    "population": "24154",
    "id": "1100145292"
  },
  {
    "city": "Popovo",
    "city_ascii": "Popovo",
    "lat": "43.3500",
    "lng": "26.2333",
    "country": "Bulgaria",
    "iso2": "BG",
    "iso3": "BGR",
    "admin_name": "Targovishte",
    "capital": "",
    "population": "23819",
    "id": "1100589134"
  },
  {
    "city": "Byala Slatina",
    "city_ascii": "Byala Slatina",
    "lat": "43.4667",
    "lng": "23.9333",
    "country": "Bulgaria",
    "iso2": "BG",
    "iso3": "BGR",
    "admin_name": "Vratsa",
    "capital": "",
    "population": "22716",
    "id": "1100994011"
  },
  {
    "city": "Isperih",
    "city_ascii": "Isperih",
    "lat": "43.7167",
    "lng": "26.8333",
    "country": "Bulgaria",
    "iso2": "BG",
    "iso3": "BGR",
    "admin_name": "Razgrad",
    "capital": "",
    "population": "22556",
    "id": "1100443393"
  },
  {
    "city": "Sevlievo",
    "city_ascii": "Sevlievo",
    "lat": "43.0256",
    "lng": "25.1133",
    "country": "Bulgaria",
    "iso2": "BG",
    "iso3": "BGR",
    "admin_name": "Gabrovo",
    "capital": "",
    "population": "22503",
    "id": "1100820915"
  },
  {
    "city": "Karnobat",
    "city_ascii": "Karnobat",
    "lat": "42.6333",
    "lng": "26.9833",
    "country": "Bulgaria",
    "iso2": "BG",
    "iso3": "BGR",
    "admin_name": "Burgas",
    "capital": "",
    "population": "22464",
    "id": "1100484520"
  },
  {
    "city": "Nova Zagora",
    "city_ascii": "Nova Zagora",
    "lat": "42.4911",
    "lng": "26.0144",
    "country": "Bulgaria",
    "iso2": "BG",
    "iso3": "BGR",
    "admin_name": "Sliven",
    "capital": "",
    "population": "22175",
    "id": "1100577244"
  },
  {
    "city": "Lom",
    "city_ascii": "Lom",
    "lat": "43.8256",
    "lng": "23.2375",
    "country": "Bulgaria",
    "iso2": "BG",
    "iso3": "BGR",
    "admin_name": "Montana",
    "capital": "minor",
    "population": "22075",
    "id": "1100440040"
  },
  {
    "city": "Karlovo",
    "city_ascii": "Karlovo",
    "lat": "42.6436",
    "lng": "24.8072",
    "country": "Bulgaria",
    "iso2": "BG",
    "iso3": "BGR",
    "admin_name": "Plovdiv",
    "capital": "",
    "population": "22095",
    "id": "1100780442"
  },
  {
    "city": "Mezdra",
    "city_ascii": "Mezdra",
    "lat": "43.1500",
    "lng": "23.7000",
    "country": "Bulgaria",
    "iso2": "BG",
    "iso3": "BGR",
    "admin_name": "Vratsa",
    "capital": "",
    "population": "21726",
    "id": "1100715931"
  },
  {
    "city": "Panagyurishte",
    "city_ascii": "Panagyurishte",
    "lat": "42.5000",
    "lng": "24.1833",
    "country": "Bulgaria",
    "iso2": "BG",
    "iso3": "BGR",
    "admin_name": "Pazardzhik",
    "capital": "minor",
    "population": "21430",
    "id": "1100223841"
  },
  {
    "city": "Teteven",
    "city_ascii": "Teteven",
    "lat": "42.9167",
    "lng": "24.2667",
    "country": "Bulgaria",
    "iso2": "BG",
    "iso3": "BGR",
    "admin_name": "Lovech",
    "capital": "",
    "population": "21374",
    "id": "1100032419"
  },
  {
    "city": "Botevgrad",
    "city_ascii": "Botevgrad",
    "lat": "42.9073",
    "lng": "23.7937",
    "country": "Bulgaria",
    "iso2": "BG",
    "iso3": "BGR",
    "admin_name": "Sofia",
    "capital": "",
    "population": "20624",
    "id": "1100788799"
  },
  {
    "city": "Harmanli",
    "city_ascii": "Harmanli",
    "lat": "41.9333",
    "lng": "25.9000",
    "country": "Bulgaria",
    "iso2": "BG",
    "iso3": "BGR",
    "admin_name": "Haskovo",
    "capital": "",
    "population": "20549",
    "id": "1100003361"
  },
  {
    "city": "Peshtera",
    "city_ascii": "Peshtera",
    "lat": "42.0333",
    "lng": "24.3000",
    "country": "Bulgaria",
    "iso2": "BG",
    "iso3": "BGR",
    "admin_name": "Pazardzhik",
    "capital": "minor",
    "population": "19877",
    "id": "1100868605"
  },
  {
    "city": "Berkovitsa",
    "city_ascii": "Berkovitsa",
    "lat": "43.2333",
    "lng": "23.1167",
    "country": "Bulgaria",
    "iso2": "BG",
    "iso3": "BGR",
    "admin_name": "Montana",
    "capital": "minor",
    "population": "18822",
    "id": "1100553391"
  },
  {
    "city": "Lukovit",
    "city_ascii": "Lukovit",
    "lat": "43.2000",
    "lng": "24.1667",
    "country": "Bulgaria",
    "iso2": "BG",
    "iso3": "BGR",
    "admin_name": "Lovech",
    "capital": "",
    "population": "18788",
    "id": "1100460209"
  },
  {
    "city": "Svilengrad",
    "city_ascii": "Svilengrad",
    "lat": "41.7667",
    "lng": "26.2000",
    "country": "Bulgaria",
    "iso2": "BG",
    "iso3": "BGR",
    "admin_name": "Haskovo",
    "capital": "",
    "population": "18263",
    "id": "1100757621"
  },
  {
    "city": "Kavarna",
    "city_ascii": "Kavarna",
    "lat": "43.4333",
    "lng": "28.3333",
    "country": "Bulgaria",
    "iso2": "BG",
    "iso3": "BGR",
    "admin_name": "Dobrich",
    "capital": "minor",
    "population": "15834",
    "id": "1100727601"
  },
  {
    "city": "Rakovski",
    "city_ascii": "Rakovski",
    "lat": "42.2884",
    "lng": "24.9655",
    "country": "Bulgaria",
    "iso2": "BG",
    "iso3": "BGR",
    "admin_name": "Plovdiv",
    "capital": "",
    "population": "15694",
    "id": "1100163147"
  },
  {
    "city": "Chirpan",
    "city_ascii": "Chirpan",
    "lat": "42.1998",
    "lng": "25.3244",
    "country": "Bulgaria",
    "iso2": "BG",
    "iso3": "BGR",
    "admin_name": "Stara Zagora",
    "capital": "",
    "population": "15112",
    "id": "1100767507"
  },
  {
    "city": "Veliki Preslav",
    "city_ascii": "Veliki Preslav",
    "lat": "43.1667",
    "lng": "26.8170",
    "country": "Bulgaria",
    "iso2": "BG",
    "iso3": "BGR",
    "admin_name": "Shumen",
    "capital": "",
    "population": "14960",
    "id": "1100285364"
  },
  {
    "city": "Sozopol",
    "city_ascii": "Sozopol",
    "lat": "42.4167",
    "lng": "27.7000",
    "country": "Bulgaria",
    "iso2": "BG",
    "iso3": "BGR",
    "admin_name": "Burgas",
    "capital": "minor",
    "population": "14789",
    "id": "1100393207"
  },
  {
    "city": "Pomorie",
    "city_ascii": "Pomorie",
    "lat": "42.5683",
    "lng": "27.6167",
    "country": "Bulgaria",
    "iso2": "BG",
    "iso3": "BGR",
    "admin_name": "Burgas",
    "capital": "minor",
    "population": "14409",
    "id": "1100639674"
  },
  {
    "city": "Nesebar",
    "city_ascii": "Nesebar",
    "lat": "42.6500",
    "lng": "27.7333",
    "country": "Bulgaria",
    "iso2": "BG",
    "iso3": "BGR",
    "admin_name": "Burgas",
    "capital": "minor",
    "population": "14146",
    "id": "1100835570"
  },
  {
    "city": "Lyaskovets",
    "city_ascii": "Lyaskovets",
    "lat": "43.1000",
    "lng": "25.7167",
    "country": "Bulgaria",
    "iso2": "BG",
    "iso3": "BGR",
    "admin_name": "Veliko Tarnovo",
    "capital": "",
    "population": "13735",
    "id": "1100739412"
  },
  {
    "city": "Ihtiman",
    "city_ascii": "Ihtiman",
    "lat": "42.4374",
    "lng": "23.8164",
    "country": "Bulgaria",
    "iso2": "BG",
    "iso3": "BGR",
    "admin_name": "Sofia",
    "capital": "",
    "population": "13658",
    "id": "1100416856"
  },
  {
    "city": "Novi Iskar",
    "city_ascii": "Novi Iskar",
    "lat": "42.8000",
    "lng": "23.3500",
    "country": "Bulgaria",
    "iso2": "BG",
    "iso3": "BGR",
    "admin_name": "Sofia-Grad",
    "capital": "",
    "population": "13574",
    "id": "1100373780"
  },
  {
    "city": "Parvomay",
    "city_ascii": "Parvomay",
    "lat": "42.1000",
    "lng": "25.2167",
    "country": "Bulgaria",
    "iso2": "BG",
    "iso3": "BGR",
    "admin_name": "Plovdiv",
    "capital": "",
    "population": "13263",
    "id": "1100284082"
  },
  {
    "city": "Radomir",
    "city_ascii": "Radomir",
    "lat": "42.5500",
    "lng": "22.9500",
    "country": "Bulgaria",
    "iso2": "BG",
    "iso3": "BGR",
    "admin_name": "Pernik",
    "capital": "",
    "population": "13209",
    "id": "1100594345"
  },
  {
    "city": "Novi Pazar",
    "city_ascii": "Novi Pazar",
    "lat": "43.3500",
    "lng": "27.2000",
    "country": "Bulgaria",
    "iso2": "BG",
    "iso3": "BGR",
    "admin_name": "Shumen",
    "capital": "",
    "population": "12742",
    "id": "1100036020"
  },
  {
    "city": "Provadia",
    "city_ascii": "Provadia",
    "lat": "43.1833",
    "lng": "27.4333",
    "country": "Bulgaria",
    "iso2": "BG",
    "iso3": "BGR",
    "admin_name": "Varna",
    "capital": "",
    "population": "12556",
    "id": "1100595849"
  },
  {
    "city": "Balchik",
    "city_ascii": "Balchik",
    "lat": "43.4269",
    "lng": "28.1617",
    "country": "Bulgaria",
    "iso2": "BG",
    "iso3": "BGR",
    "admin_name": "Dobrich",
    "capital": "minor",
    "population": "12429",
    "id": "1100579546"
  },
  {
    "city": "Razlog",
    "city_ascii": "Razlog",
    "lat": "41.8833",
    "lng": "23.4667",
    "country": "Bulgaria",
    "iso2": "BG",
    "iso3": "BGR",
    "admin_name": "Blagoevgrad",
    "capital": "",
    "population": "12385",
    "id": "1100974105"
  },
  {
    "city": "Bankya",
    "city_ascii": "Bankya",
    "lat": "42.7000",
    "lng": "23.1333",
    "country": "Bulgaria",
    "iso2": "BG",
    "iso3": "BGR",
    "admin_name": "Sofia-Grad",
    "capital": "",
    "population": "11358",
    "id": "1100031419"
  },
  {
    "city": "Zlatograd",
    "city_ascii": "Zlatograd",
    "lat": "41.3833",
    "lng": "25.1000",
    "country": "Bulgaria",
    "iso2": "BG",
    "iso3": "BGR",
    "admin_name": "Smolyan",
    "capital": "minor",
    "population": "12087",
    "id": "1100099994"
  },
  {
    "city": "Kozloduy",
    "city_ascii": "Kozloduy",
    "lat": "43.7833",
    "lng": "23.7333",
    "country": "Bulgaria",
    "iso2": "BG",
    "iso3": "BGR",
    "admin_name": "Vratsa",
    "capital": "minor",
    "population": "12067",
    "id": "1100662672"
  },
  {
    "city": "Stamboliyski",
    "city_ascii": "Stamboliyski",
    "lat": "42.1333",
    "lng": "24.5333",
    "country": "Bulgaria",
    "iso2": "BG",
    "iso3": "BGR",
    "admin_name": "Plovdiv",
    "capital": "",
    "population": "11327",
    "id": "1100303839"
  },
  {
    "city": "Tryavna",
    "city_ascii": "Tryavna",
    "lat": "42.8669",
    "lng": "25.5000",
    "country": "Bulgaria",
    "iso2": "BG",
    "iso3": "BGR",
    "admin_name": "Gabrovo",
    "capital": "",
    "population": "11978",
    "id": "1100037989"
  },
  {
    "city": "Radnevo",
    "city_ascii": "Radnevo",
    "lat": "42.3000",
    "lng": "25.9333",
    "country": "Bulgaria",
    "iso2": "BG",
    "iso3": "BGR",
    "admin_name": "Stara Zagora",
    "capital": "",
    "population": "11622",
    "id": "1100743312"
  },
  {
    "city": "Kostinbrod",
    "city_ascii": "Kostinbrod",
    "lat": "42.8167",
    "lng": "23.2167",
    "country": "Bulgaria",
    "iso2": "BG",
    "iso3": "BGR",
    "admin_name": "Sofia",
    "capital": "",
    "population": "11432",
    "id": "1100892739"
  },
  {
    "city": "Etropole",
    "city_ascii": "Etropole",
    "lat": "42.8333",
    "lng": "24.0000",
    "country": "Bulgaria",
    "iso2": "BG",
    "iso3": "BGR",
    "admin_name": "Sofia",
    "capital": "",
    "population": "10394",
    "id": "1100554574"
  },
  {
    "city": "Knezha",
    "city_ascii": "Knezha",
    "lat": "43.5000",
    "lng": "24.0833",
    "country": "Bulgaria",
    "iso2": "BG",
    "iso3": "BGR",
    "admin_name": "Vratsa",
    "capital": "minor",
    "population": "10348",
    "id": "1100486510"
  },
  {
    "city": "Pavlikeni",
    "city_ascii": "Pavlikeni",
    "lat": "43.2428",
    "lng": "25.3217",
    "country": "Bulgaria",
    "iso2": "BG",
    "iso3": "BGR",
    "admin_name": "Veliko Tarnovo",
    "capital": "",
    "population": "10071",
    "id": "1100655871"
  },
  {
    "city": "Levski",
    "city_ascii": "Levski",
    "lat": "43.3667",
    "lng": "25.1333",
    "country": "Bulgaria",
    "iso2": "BG",
    "iso3": "BGR",
    "admin_name": "Pleven",
    "capital": "",
    "population": "10046",
    "id": "1100805179"
  },
  {
    "city": "Elhovo",
    "city_ascii": "Elhovo",
    "lat": "42.1667",
    "lng": "26.5667",
    "country": "Bulgaria",
    "iso2": "BG",
    "iso3": "BGR",
    "admin_name": "Yambol",
    "capital": "",
    "population": "9609",
    "id": "1100602957"
  },
  {
    "city": "Momchilgrad",
    "city_ascii": "Momchilgrad",
    "lat": "41.5333",
    "lng": "25.4167",
    "country": "Bulgaria",
    "iso2": "BG",
    "iso3": "BGR",
    "admin_name": "Kardzhali",
    "capital": "",
    "population": "9235",
    "id": "1100063207"
  },
  {
    "city": "Dospat",
    "city_ascii": "Dospat",
    "lat": "41.6500",
    "lng": "24.1667",
    "country": "Bulgaria",
    "iso2": "BG",
    "iso3": "BGR",
    "admin_name": "Smolyan",
    "capital": "minor",
    "population": "9116",
    "id": "1100747470"
  },
  {
    "city": "Tutrakan",
    "city_ascii": "Tutrakan",
    "lat": "44.0500",
    "lng": "26.6167",
    "country": "Bulgaria",
    "iso2": "BG",
    "iso3": "BGR",
    "admin_name": "Silistra",
    "capital": "minor",
    "population": "9076",
    "id": "1100290695"
  },
  {
    "city": "Bansko",
    "city_ascii": "Bansko",
    "lat": "41.8385",
    "lng": "23.4888",
    "country": "Bulgaria",
    "iso2": "BG",
    "iso3": "BGR",
    "admin_name": "Blagoevgrad",
    "capital": "",
    "population": "9032",
    "id": "1100442389"
  },
  {
    "city": "Devnya",
    "city_ascii": "Devnya",
    "lat": "43.2167",
    "lng": "27.5667",
    "country": "Bulgaria",
    "iso2": "BG",
    "iso3": "BGR",
    "admin_name": "Varna",
    "capital": "",
    "population": "8915",
    "id": "1100328780"
  },
  {
    "city": "Sopot",
    "city_ascii": "Sopot",
    "lat": "42.6500",
    "lng": "24.7500",
    "country": "Bulgaria",
    "iso2": "BG",
    "iso3": "BGR",
    "admin_name": "Plovdiv",
    "capital": "",
    "population": "8595",
    "id": "1100878976"
  },
  {
    "city": "Sredets",
    "city_ascii": "Sredets",
    "lat": "42.3500",
    "lng": "27.2000",
    "country": "Bulgaria",
    "iso2": "BG",
    "iso3": "BGR",
    "admin_name": "Burgas",
    "capital": "",
    "population": "8699",
    "id": "1100026609"
  },
  {
    "city": "Rakitovo",
    "city_ascii": "Rakitovo",
    "lat": "41.9833",
    "lng": "24.0833",
    "country": "Bulgaria",
    "iso2": "BG",
    "iso3": "BGR",
    "admin_name": "Pazardzhik",
    "capital": "minor",
    "population": "8651",
    "id": "1100370778"
  }
]