[
  {
    "city": "Helsinki",
    "city_ascii": "Helsinki",
    "lat": "60.1708",
    "lng": "24.9375",
    "country": "Finland",
    "iso2": "FI",
    "iso3": "FIN",
    "admin_name": "Uusimaa",
    "capital": "primary",
    "population": "1268296",
    "id": "1246177997"
  },
  {
    "city": "Tampere",
    "city_ascii": "Tampere",
    "lat": "61.4981",
    "lng": "23.7600",
    "country": "Finland",
    "iso2": "FI",
    "iso3": "FIN",
    "admin_name": "Pirkanmaa",
    "capital": "admin",
    "population": "334112",
    "id": "1246964318"
  },
  {
    "city": "Espoo",
    "city_ascii": "Espoo",
    "lat": "60.2056",
    "lng": "24.6556",
    "country": "Finland",
    "iso2": "FI",
    "iso3": "FIN",
    "admin_name": "Uusimaa",
    "capital": "minor",
    "population": "297132",
    "id": "1246357316"
  },
  {
    "city": "Turku",
    "city_ascii": "Turku",
    "lat": "60.4500",
    "lng": "22.2667",
    "country": "Finland",
    "iso2": "FI",
    "iso3": "FIN",
    "admin_name": "Varsinais-Suomi",
    "capital": "admin",
    "population": "252468",
    "id": "1246456609"
  },
  {
    "city": "Vantaa",
    "city_ascii": "Vantaa",
    "lat": "60.2944",
    "lng": "25.0403",
    "country": "Finland",
    "iso2": "FI",
    "iso3": "FIN",
    "admin_name": "Uusimaa",
    "capital": "minor",
    "population": "214605",
    "id": "1246957545"
  },
  {
    "city": "Oulu",
    "city_ascii": "Oulu",
    "lat": "65.0142",
    "lng": "25.4719",
    "country": "Finland",
    "iso2": "FI",
    "iso3": "FIN",
    "admin_name": "Pohjois-Pohjanmaa",
    "capital": "admin",
    "population": "208939",
    "id": "1246093273"
  },
  {
    "city": "Jyväskylä",
    "city_ascii": "Jyvaskyla",
    "lat": "62.2417",
    "lng": "25.7417",
    "country": "Finland",
    "iso2": "FI",
    "iso3": "FIN",
    "admin_name": "Keski-Suomi",
    "capital": "admin",
    "population": "141441",
    "id": "1246938345"
  },
  {
    "city": "Kuopio",
    "city_ascii": "Kuopio",
    "lat": "62.8925",
    "lng": "27.6783",
    "country": "Finland",
    "iso2": "FI",
    "iso3": "FIN",
    "admin_name": "Pohjois-Savo",
    "capital": "admin",
    "population": "121557",
    "id": "1246334067"
  },
  {
    "city": "Lahti",
    "city_ascii": "Lahti",
    "lat": "60.9833",
    "lng": "25.6500",
    "country": "Finland",
    "iso2": "FI",
    "iso3": "FIN",
    "admin_name": "Päijät-Häme",
    "capital": "admin",
    "population": "118119",
    "id": "1246538847"
  },
  {
    "city": "Kouvola",
    "city_ascii": "Kouvola",
    "lat": "60.8681",
    "lng": "26.7042",
    "country": "Finland",
    "iso2": "FI",
    "iso3": "FIN",
    "admin_name": "Kymenlaakso",
    "capital": "admin",
    "population": "85855",
    "id": "1246167296"
  },
  {
    "city": "Pori",
    "city_ascii": "Pori",
    "lat": "61.4833",
    "lng": "21.8000",
    "country": "Finland",
    "iso2": "FI",
    "iso3": "FIN",
    "admin_name": "Satakunta",
    "capital": "admin",
    "population": "85363",
    "id": "1246259412"
  },
  {
    "city": "Joensuu",
    "city_ascii": "Joensuu",
    "lat": "62.6000",
    "lng": "29.7500",
    "country": "Finland",
    "iso2": "FI",
    "iso3": "FIN",
    "admin_name": "Pohjois-Karjala",
    "capital": "admin",
    "population": "75514",
    "id": "1246489056"
  },
  {
    "city": "Lappeenranta",
    "city_ascii": "Lappeenranta",
    "lat": "61.0667",
    "lng": "28.1833",
    "country": "Finland",
    "iso2": "FI",
    "iso3": "FIN",
    "admin_name": "Etelä-Karjala",
    "capital": "admin",
    "population": "72875",
    "id": "1246492910"
  },
  {
    "city": "Hämeenlinna",
    "city_ascii": "Hameenlinna",
    "lat": "60.9944",
    "lng": "24.4667",
    "country": "Finland",
    "iso2": "FI",
    "iso3": "FIN",
    "admin_name": "Kanta-Häme",
    "capital": "admin",
    "population": "68011",
    "id": "1246026891"
  },
  {
    "city": "Vaasa",
    "city_ascii": "Vaasa",
    "lat": "63.1000",
    "lng": "21.6167",
    "country": "Finland",
    "iso2": "FI",
    "iso3": "FIN",
    "admin_name": "Pohjanmaa",
    "capital": "admin",
    "population": "67619",
    "id": "1246734710"
  },
  {
    "city": "Seinäjoki",
    "city_ascii": "Seinajoki",
    "lat": "62.7917",
    "lng": "22.8417",
    "country": "Finland",
    "iso2": "FI",
    "iso3": "FIN",
    "admin_name": "Etelä-Pohjanmaa",
    "capital": "admin",
    "population": "64150",
    "id": "1246118146"
  },
  {
    "city": "Rovaniemi",
    "city_ascii": "Rovaniemi",
    "lat": "66.5000",
    "lng": "25.7333",
    "country": "Finland",
    "iso2": "FI",
    "iso3": "FIN",
    "admin_name": "Lappi",
    "capital": "admin",
    "population": "62420",
    "id": "1246718173"
  },
  {
    "city": "Mikkeli",
    "city_ascii": "Mikkeli",
    "lat": "61.6833",
    "lng": "27.2667",
    "country": "Finland",
    "iso2": "FI",
    "iso3": "FIN",
    "admin_name": "Etelä-Savo",
    "capital": "admin",
    "population": "54665",
    "id": "1246875185"
  },
  {
    "city": "Kokkola",
    "city_ascii": "Kokkola",
    "lat": "63.8367",
    "lng": "23.1333",
    "country": "Finland",
    "iso2": "FI",
    "iso3": "FIN",
    "admin_name": "Keski-Pohjanmaa",
    "capital": "admin",
    "population": "47570",
    "id": "1246041998"
  },
  {
    "city": "Kajaani",
    "city_ascii": "Kajaani",
    "lat": "64.2311",
    "lng": "27.7194",
    "country": "Finland",
    "iso2": "FI",
    "iso3": "FIN",
    "admin_name": "Kainuu",
    "capital": "admin",
    "population": "37622",
    "id": "1246377765"
  },
  {
    "city": "Hakkila",
    "city_ascii": "Hakkila",
    "lat": "60.2869",
    "lng": "24.9522",
    "country": "Finland",
    "iso2": "FI",
    "iso3": "FIN",
    "admin_name": "Uusimaa",
    "capital": "",
    "population": "9509",
    "id": "1246076852"
  },
  {
    "city": "Mariehamn",
    "city_ascii": "Mariehamn",
    "lat": "60.1000",
    "lng": "19.9333",
    "country": "Finland",
    "iso2": "FI",
    "iso3": "FIN",
    "admin_name": "Åland",
    "capital": "admin",
    "population": "11461",
    "id": "1246614476"
  },
  {
    "city": "Kotka",
    "city_ascii": "Kotka",
    "lat": "60.4667",
    "lng": "26.9417",
    "country": "Finland",
    "iso2": "FI",
    "iso3": "FIN",
    "admin_name": "Kymenlaakso",
    "capital": "minor",
    "population": "54319",
    "id": "1246200320"
  },
  {
    "city": "Salo",
    "city_ascii": "Salo",
    "lat": "60.3861",
    "lng": "23.1250",
    "country": "Finland",
    "iso2": "FI",
    "iso3": "FIN",
    "admin_name": "Varsinais-Suomi",
    "capital": "minor",
    "population": "53890",
    "id": "1246750581"
  },
  {
    "city": "Porvoo",
    "city_ascii": "Porvoo",
    "lat": "60.3944",
    "lng": "25.6639",
    "country": "Finland",
    "iso2": "FI",
    "iso3": "FIN",
    "admin_name": "Uusimaa",
    "capital": "minor",
    "population": "49928",
    "id": "1246277728"
  },
  {
    "city": "Lohja",
    "city_ascii": "Lohja",
    "lat": "60.2500",
    "lng": "24.0667",
    "country": "Finland",
    "iso2": "FI",
    "iso3": "FIN",
    "admin_name": "Uusimaa",
    "capital": "minor",
    "population": "46785",
    "id": "1246687472"
  },
  {
    "city": "Hyvinkää",
    "city_ascii": "Hyvinkaa",
    "lat": "60.6333",
    "lng": "24.8500",
    "country": "Finland",
    "iso2": "FI",
    "iso3": "FIN",
    "admin_name": "Uusimaa",
    "capital": "minor",
    "population": "46739",
    "id": "1246789945"
  },
  {
    "city": "Nurmijärvi",
    "city_ascii": "Nurmijarvi",
    "lat": "60.4667",
    "lng": "24.8083",
    "country": "Finland",
    "iso2": "FI",
    "iso3": "FIN",
    "admin_name": "Uusimaa",
    "capital": "minor",
    "population": "42709",
    "id": "1246678771"
  },
  {
    "city": "Järvenpää",
    "city_ascii": "Jarvenpaa",
    "lat": "60.4750",
    "lng": "25.0917",
    "country": "Finland",
    "iso2": "FI",
    "iso3": "FIN",
    "admin_name": "Uusimaa",
    "capital": "minor",
    "population": "40106",
    "id": "1246825863"
  },
  {
    "city": "Rauma",
    "city_ascii": "Rauma",
    "lat": "61.1333",
    "lng": "21.5000",
    "country": "Finland",
    "iso2": "FI",
    "iso3": "FIN",
    "admin_name": "Satakunta",
    "capital": "minor",
    "population": "39809",
    "id": "1246262958"
  },
  {
    "city": "Kirkkonummi",
    "city_ascii": "Kirkkonummi",
    "lat": "60.1167",
    "lng": "24.4167",
    "country": "Finland",
    "iso2": "FI",
    "iso3": "FIN",
    "admin_name": "Uusimaa",
    "capital": "minor",
    "population": "39170",
    "id": "1246425379"
  },
  {
    "city": "Tuusula",
    "city_ascii": "Tuusula",
    "lat": "60.4333",
    "lng": "25.0500",
    "country": "Finland",
    "iso2": "FI",
    "iso3": "FIN",
    "admin_name": "Uusimaa",
    "capital": "minor",
    "population": "38646",
    "id": "1246218223"
  },
  {
    "city": "Kerava",
    "city_ascii": "Kerava",
    "lat": "60.4000",
    "lng": "25.1000",
    "country": "Finland",
    "iso2": "FI",
    "iso3": "FIN",
    "admin_name": "Uusimaa",
    "capital": "minor",
    "population": "35293",
    "id": "1246221274"
  },
  {
    "city": "Savonlinna",
    "city_ascii": "Savonlinna",
    "lat": "61.8681",
    "lng": "28.8861",
    "country": "Finland",
    "iso2": "FI",
    "iso3": "FIN",
    "admin_name": "Etelä-Savo",
    "capital": "minor",
    "population": "35523",
    "id": "1246948647"
  },
  {
    "city": "Nokia",
    "city_ascii": "Nokia",
    "lat": "61.4767",
    "lng": "23.5053",
    "country": "Finland",
    "iso2": "FI",
    "iso3": "FIN",
    "admin_name": "Pirkanmaa",
    "capital": "minor",
    "population": "33322",
    "id": "1246560498"
  },
  {
    "city": "Kaarina",
    "city_ascii": "Kaarina",
    "lat": "60.4000",
    "lng": "22.3667",
    "country": "Finland",
    "iso2": "FI",
    "iso3": "FIN",
    "admin_name": "Varsinais-Suomi",
    "capital": "minor",
    "population": "33099",
    "id": "1246381646"
  },
  {
    "city": "Ylöjärvi",
    "city_ascii": "Ylojarvi",
    "lat": "61.5500",
    "lng": "23.5833",
    "country": "Finland",
    "iso2": "FI",
    "iso3": "FIN",
    "admin_name": "Pirkanmaa",
    "capital": "minor",
    "population": "32738",
    "id": "1246651024"
  },
  {
    "city": "Kangasala",
    "city_ascii": "Kangasala",
    "lat": "61.4639",
    "lng": "24.0650",
    "country": "Finland",
    "iso2": "FI",
    "iso3": "FIN",
    "admin_name": "Pirkanmaa",
    "capital": "minor",
    "population": "32229",
    "id": "1246606231"
  },
  {
    "city": "Jyväskylän Maalaiskunta",
    "city_ascii": "Jyvaskylan Maalaiskunta",
    "lat": "62.2889",
    "lng": "25.7417",
    "country": "Finland",
    "iso2": "FI",
    "iso3": "FIN",
    "admin_name": "Keski-Suomi",
    "capital": "",
    "population": "31870",
    "id": "1246861694"
  },
  {
    "city": "Riihimäki",
    "city_ascii": "Riihimaki",
    "lat": "60.7333",
    "lng": "24.7667",
    "country": "Finland",
    "iso2": "FI",
    "iso3": "FIN",
    "admin_name": "Kanta-Häme",
    "capital": "minor",
    "population": "29269",
    "id": "1246263977"
  },
  {
    "city": "Vihti",
    "city_ascii": "Vihti",
    "lat": "60.4051",
    "lng": "24.3959",
    "country": "Finland",
    "iso2": "FI",
    "iso3": "FIN",
    "admin_name": "Uusimaa",
    "capital": "",
    "population": "28919",
    "id": "1246687261"
  },
  {
    "city": "Raseborg",
    "city_ascii": "Raseborg",
    "lat": "59.9750",
    "lng": "23.4333",
    "country": "Finland",
    "iso2": "FI",
    "iso3": "FIN",
    "admin_name": "Uusimaa",
    "capital": "minor",
    "population": "28405",
    "id": "1246414831"
  },
  {
    "city": "Imatra",
    "city_ascii": "Imatra",
    "lat": "61.1833",
    "lng": "28.7667",
    "country": "Finland",
    "iso2": "FI",
    "iso3": "FIN",
    "admin_name": "Etelä-Karjala",
    "capital": "minor",
    "population": "27835",
    "id": "1246114111"
  },
  {
    "city": "Sastamala",
    "city_ascii": "Sastamala",
    "lat": "61.3417",
    "lng": "22.9083",
    "country": "Finland",
    "iso2": "FI",
    "iso3": "FIN",
    "admin_name": "Pirkanmaa",
    "capital": "minor",
    "population": "25220",
    "id": "1246526086"
  },
  {
    "city": "Raahe",
    "city_ascii": "Raahe",
    "lat": "64.6833",
    "lng": "24.4667",
    "country": "Finland",
    "iso2": "FI",
    "iso3": "FIN",
    "admin_name": "Pohjois-Pohjanmaa",
    "capital": "minor",
    "population": "25165",
    "id": "1246712185"
  },
  {
    "city": "Raisio",
    "city_ascii": "Raisio",
    "lat": "60.4858",
    "lng": "22.1692",
    "country": "Finland",
    "iso2": "FI",
    "iso3": "FIN",
    "admin_name": "Varsinais-Suomi",
    "capital": "minor",
    "population": "24290",
    "id": "1246206941"
  },
  {
    "city": "Hollola",
    "city_ascii": "Hollola",
    "lat": "60.9886",
    "lng": "25.5128",
    "country": "Finland",
    "iso2": "FI",
    "iso3": "FIN",
    "admin_name": "Päijät-Häme",
    "capital": "minor",
    "population": "23915",
    "id": "1246266596"
  },
  {
    "city": "Karhula",
    "city_ascii": "Karhula",
    "lat": "60.5155",
    "lng": "26.9354",
    "country": "Finland",
    "iso2": "FI",
    "iso3": "FIN",
    "admin_name": "Kymenlaakso",
    "capital": "",
    "population": "22686",
    "id": "1246292106"
  },
  {
    "city": "Lempäälä",
    "city_ascii": "Lempaala",
    "lat": "61.3167",
    "lng": "23.7500",
    "country": "Finland",
    "iso2": "FI",
    "iso3": "FIN",
    "admin_name": "Pirkanmaa",
    "capital": "minor",
    "population": "22536",
    "id": "1246708138"
  },
  {
    "city": "Kemi",
    "city_ascii": "Kemi",
    "lat": "65.7361",
    "lng": "24.5636",
    "country": "Finland",
    "iso2": "FI",
    "iso3": "FIN",
    "admin_name": "Lappi",
    "capital": "minor",
    "population": "21758",
    "id": "1246411843"
  },
  {
    "city": "Iisalmi",
    "city_ascii": "Iisalmi",
    "lat": "63.5667",
    "lng": "27.1833",
    "country": "Finland",
    "iso2": "FI",
    "iso3": "FIN",
    "admin_name": "Pohjois-Savo",
    "capital": "minor",
    "population": "21945",
    "id": "1246230947"
  },
  {
    "city": "Tornio",
    "city_ascii": "Tornio",
    "lat": "65.8500",
    "lng": "24.1500",
    "country": "Finland",
    "iso2": "FI",
    "iso3": "FIN",
    "admin_name": "Lappi",
    "capital": "minor",
    "population": "21928",
    "id": "1246209112"
  },
  {
    "city": "Siilinjärvi",
    "city_ascii": "Siilinjarvi",
    "lat": "63.0750",
    "lng": "27.6600",
    "country": "Finland",
    "iso2": "FI",
    "iso3": "FIN",
    "admin_name": "Pohjois-Savo",
    "capital": "minor",
    "population": "21794",
    "id": "1246336548"
  },
  {
    "city": "Kurikka",
    "city_ascii": "Kurikka",
    "lat": "62.6167",
    "lng": "22.4000",
    "country": "Finland",
    "iso2": "FI",
    "iso3": "FIN",
    "admin_name": "Etelä-Pohjanmaa",
    "capital": "minor",
    "population": "21734",
    "id": "1246688374"
  },
  {
    "city": "Jämsä",
    "city_ascii": "Jamsa",
    "lat": "61.8667",
    "lng": "25.1833",
    "country": "Finland",
    "iso2": "FI",
    "iso3": "FIN",
    "admin_name": "Keski-Suomi",
    "capital": "minor",
    "population": "21542",
    "id": "1246902464"
  },
  {
    "city": "Varkaus",
    "city_ascii": "Varkaus",
    "lat": "62.3167",
    "lng": "27.8917",
    "country": "Finland",
    "iso2": "FI",
    "iso3": "FIN",
    "admin_name": "Pohjois-Savo",
    "capital": "minor",
    "population": "21155",
    "id": "1246449573"
  },
  {
    "city": "Klaukkala",
    "city_ascii": "Klaukkala",
    "lat": "60.3820",
    "lng": "24.7492",
    "country": "Finland",
    "iso2": "FI",
    "iso3": "FIN",
    "admin_name": "Uusimaa",
    "capital": "",
    "population": "21019",
    "id": "1246435222"
  },
  {
    "city": "Valkeakoski",
    "city_ascii": "Valkeakoski",
    "lat": "61.2667",
    "lng": "24.0333",
    "country": "Finland",
    "iso2": "FI",
    "iso3": "FIN",
    "admin_name": "Pirkanmaa",
    "capital": "minor",
    "population": "20800",
    "id": "1246028934"
  },
  {
    "city": "Mäntsälä",
    "city_ascii": "Mantsala",
    "lat": "60.6331",
    "lng": "25.3167",
    "country": "Finland",
    "iso2": "FI",
    "iso3": "FIN",
    "admin_name": "Uusimaa",
    "capital": "minor",
    "population": "20685",
    "id": "1246340286"
  },
  {
    "city": "Äänekoski",
    "city_ascii": "Aanekoski",
    "lat": "62.6000",
    "lng": "25.7250",
    "country": "Finland",
    "iso2": "FI",
    "iso3": "FIN",
    "admin_name": "Keski-Suomi",
    "capital": "minor",
    "population": "19919",
    "id": "1246710490"
  },
  {
    "city": "Hamina",
    "city_ascii": "Hamina",
    "lat": "60.5667",
    "lng": "27.2000",
    "country": "Finland",
    "iso2": "FI",
    "iso3": "FIN",
    "admin_name": "Kymenlaakso",
    "capital": "minor",
    "population": "19877",
    "id": "1246729258"
  },
  {
    "city": "Kuusankoski",
    "city_ascii": "Kuusankoski",
    "lat": "60.9083",
    "lng": "26.6236",
    "country": "Finland",
    "iso2": "FI",
    "iso3": "FIN",
    "admin_name": "Kymenlaakso",
    "capital": "",
    "population": "19831",
    "id": "1246302102"
  },
  {
    "city": "Lieto",
    "city_ascii": "Lieto",
    "lat": "60.5000",
    "lng": "22.4497",
    "country": "Finland",
    "iso2": "FI",
    "iso3": "FIN",
    "admin_name": "Varsinais-Suomi",
    "capital": "minor",
    "population": "19596",
    "id": "1246293271"
  },
  {
    "city": "Jakobstad",
    "city_ascii": "Jakobstad",
    "lat": "63.6667",
    "lng": "22.7000",
    "country": "Finland",
    "iso2": "FI",
    "iso3": "FIN",
    "admin_name": "Pohjanmaa",
    "capital": "minor",
    "population": "19436",
    "id": "1246775062"
  },
  {
    "city": "Heinola",
    "city_ascii": "Heinola",
    "lat": "61.2000",
    "lng": "26.0333",
    "country": "Finland",
    "iso2": "FI",
    "iso3": "FIN",
    "admin_name": "Päijät-Häme",
    "capital": "minor",
    "population": "19575",
    "id": "1246846423"
  },
  {
    "city": "Sipoo",
    "city_ascii": "Sipoo",
    "lat": "60.3764",
    "lng": "25.2722",
    "country": "Finland",
    "iso2": "FI",
    "iso3": "FIN",
    "admin_name": "Uusimaa",
    "capital": "minor",
    "population": "19399",
    "id": "1246836049"
  },
  {
    "city": "Korsholm",
    "city_ascii": "Korsholm",
    "lat": "63.1125",
    "lng": "21.6778",
    "country": "Finland",
    "iso2": "FI",
    "iso3": "FIN",
    "admin_name": "Pohjanmaa",
    "capital": "minor",
    "population": "19302",
    "id": "1246225569"
  },
  {
    "city": "Naantali",
    "city_ascii": "Naantali",
    "lat": "60.4667",
    "lng": "22.0333",
    "country": "Finland",
    "iso2": "FI",
    "iso3": "FIN",
    "admin_name": "Varsinais-Suomi",
    "capital": "minor",
    "population": "19167",
    "id": "1246881232"
  },
  {
    "city": "Haukipudas",
    "city_ascii": "Haukipudas",
    "lat": "65.1833",
    "lng": "25.3500",
    "country": "Finland",
    "iso2": "FI",
    "iso3": "FIN",
    "admin_name": "Pohjois-Pohjanmaa",
    "capital": "",
    "population": "18994",
    "id": "1246294051"
  },
  {
    "city": "Laukaa",
    "city_ascii": "Laukaa",
    "lat": "62.4167",
    "lng": "25.9500",
    "country": "Finland",
    "iso2": "FI",
    "iso3": "FIN",
    "admin_name": "Keski-Suomi",
    "capital": "minor",
    "population": "18978",
    "id": "1246056174"
  },
  {
    "city": "Pirkkala",
    "city_ascii": "Pirkkala",
    "lat": "61.4667",
    "lng": "23.6500",
    "country": "Finland",
    "iso2": "FI",
    "iso3": "FIN",
    "admin_name": "Pirkanmaa",
    "capital": "minor",
    "population": "18913",
    "id": "1246586300"
  },
  {
    "city": "Pieksämäki",
    "city_ascii": "Pieksamaki",
    "lat": "62.3000",
    "lng": "27.1333",
    "country": "Finland",
    "iso2": "FI",
    "iso3": "FIN",
    "admin_name": "Etelä-Savo",
    "capital": "minor",
    "population": "18220",
    "id": "1246171745"
  },
  {
    "city": "Kempele",
    "city_ascii": "Kempele",
    "lat": "64.9125",
    "lng": "25.5083",
    "country": "Finland",
    "iso2": "FI",
    "iso3": "FIN",
    "admin_name": "Pohjois-Pohjanmaa",
    "capital": "minor",
    "population": "17535",
    "id": "1246739287"
  },
  {
    "city": "Forssa",
    "city_ascii": "Forssa",
    "lat": "60.8167",
    "lng": "23.6250",
    "country": "Finland",
    "iso2": "FI",
    "iso3": "FIN",
    "admin_name": "Kanta-Häme",
    "capital": "minor",
    "population": "17422",
    "id": "1246156595"
  },
  {
    "city": "Janakkala",
    "city_ascii": "Janakkala",
    "lat": "60.9167",
    "lng": "24.6500",
    "country": "Finland",
    "iso2": "FI",
    "iso3": "FIN",
    "admin_name": "Kanta-Häme",
    "capital": "",
    "population": "16853",
    "id": "1246767263"
  },
  {
    "city": "Kauhava",
    "city_ascii": "Kauhava",
    "lat": "63.1000",
    "lng": "23.0667",
    "country": "Finland",
    "iso2": "FI",
    "iso3": "FIN",
    "admin_name": "Etelä-Pohjanmaa",
    "capital": "minor",
    "population": "16784",
    "id": "1246180633"
  },
  {
    "city": "Loimaa",
    "city_ascii": "Loimaa",
    "lat": "60.8500",
    "lng": "23.0583",
    "country": "Finland",
    "iso2": "FI",
    "iso3": "FIN",
    "admin_name": "Varsinais-Suomi",
    "capital": "minor",
    "population": "16467",
    "id": "1246923432"
  },
  {
    "city": "Orimattila",
    "city_ascii": "Orimattila",
    "lat": "60.8042",
    "lng": "25.7333",
    "country": "Finland",
    "iso2": "FI",
    "iso3": "FIN",
    "admin_name": "Päijät-Häme",
    "capital": "minor",
    "population": "16326",
    "id": "1246385500"
  },
  {
    "city": "Uusikaupunki",
    "city_ascii": "Uusikaupunki",
    "lat": "60.8000",
    "lng": "21.4167",
    "country": "Finland",
    "iso2": "FI",
    "iso3": "FIN",
    "admin_name": "Varsinais-Suomi",
    "capital": "minor",
    "population": "15752",
    "id": "1246110587"
  },
  {
    "city": "Kuusamo",
    "city_ascii": "Kuusamo",
    "lat": "65.9667",
    "lng": "29.1833",
    "country": "Finland",
    "iso2": "FI",
    "iso3": "FIN",
    "admin_name": "Pohjois-Pohjanmaa",
    "capital": "minor",
    "population": "15688",
    "id": "1246292850"
  },
  {
    "city": "Loviisa",
    "city_ascii": "Loviisa",
    "lat": "60.4583",
    "lng": "26.2333",
    "country": "Finland",
    "iso2": "FI",
    "iso3": "FIN",
    "admin_name": "Uusimaa",
    "capital": "minor",
    "population": "15311",
    "id": "1246944790"
  },
  {
    "city": "Sippola",
    "city_ascii": "Sippola",
    "lat": "60.7392",
    "lng": "27.0003",
    "country": "Finland",
    "iso2": "FI",
    "iso3": "FIN",
    "admin_name": "Kymenlaakso",
    "capital": "",
    "population": "15278",
    "id": "1246444349"
  },
  {
    "city": "Vammala",
    "city_ascii": "Vammala",
    "lat": "61.3417",
    "lng": "22.9083",
    "country": "Finland",
    "iso2": "FI",
    "iso3": "FIN",
    "admin_name": "Pirkanmaa",
    "capital": "",
    "population": "15213",
    "id": "1246493883"
  },
  {
    "city": "Ylivieska",
    "city_ascii": "Ylivieska",
    "lat": "64.0750",
    "lng": "24.5333",
    "country": "Finland",
    "iso2": "FI",
    "iso3": "FIN",
    "admin_name": "Pohjois-Pohjanmaa",
    "capital": "minor",
    "population": "15039",
    "id": "1246367983"
  },
  {
    "city": "Nastola",
    "city_ascii": "Nastola",
    "lat": "60.9500",
    "lng": "25.9333",
    "country": "Finland",
    "iso2": "FI",
    "iso3": "FIN",
    "admin_name": "Päijät-Häme",
    "capital": "minor",
    "population": "14890",
    "id": "1246731228"
  },
  {
    "city": "Kontiolahti",
    "city_ascii": "Kontiolahti",
    "lat": "62.7667",
    "lng": "29.8500",
    "country": "Finland",
    "iso2": "FI",
    "iso3": "FIN",
    "admin_name": "Pohjois-Karjala",
    "capital": "minor",
    "population": "14827",
    "id": "1246150764"
  },
  {
    "city": "Ekenäs",
    "city_ascii": "Ekenas",
    "lat": "59.9750",
    "lng": "23.4333",
    "country": "Finland",
    "iso2": "FI",
    "iso3": "FIN",
    "admin_name": "Uusimaa",
    "capital": "",
    "population": "14754",
    "id": "1246589382"
  },
  {
    "city": "Lapua",
    "city_ascii": "Lapua",
    "lat": "62.9700",
    "lng": "23.0083",
    "country": "Finland",
    "iso2": "FI",
    "iso3": "FIN",
    "admin_name": "Etelä-Pohjanmaa",
    "capital": "minor",
    "population": "14609",
    "id": "1246396654"
  },
  {
    "city": "Kauhajoki",
    "city_ascii": "Kauhajoki",
    "lat": "62.4319",
    "lng": "22.1794",
    "country": "Finland",
    "iso2": "FI",
    "iso3": "FIN",
    "admin_name": "Etelä-Pohjanmaa",
    "capital": "minor",
    "population": "13875",
    "id": "1246101648"
  },
  {
    "city": "Kiiminki",
    "city_ascii": "Kiiminki",
    "lat": "65.1333",
    "lng": "25.7750",
    "country": "Finland",
    "iso2": "FI",
    "iso3": "FIN",
    "admin_name": "Pohjois-Pohjanmaa",
    "capital": "",
    "population": "13252",
    "id": "1246609687"
  },
  {
    "city": "Ulvila",
    "city_ascii": "Ulvila",
    "lat": "61.4333",
    "lng": "21.9000",
    "country": "Finland",
    "iso2": "FI",
    "iso3": "FIN",
    "admin_name": "Satakunta",
    "capital": "minor",
    "population": "13237",
    "id": "1246357042"
  },
  {
    "city": "Lauritsala",
    "city_ascii": "Lauritsala",
    "lat": "61.0708",
    "lng": "28.2597",
    "country": "Finland",
    "iso2": "FI",
    "iso3": "FIN",
    "admin_name": "Etelä-Karjala",
    "capital": "",
    "population": "12965",
    "id": "1246391744"
  },
  {
    "city": "Kalajoki",
    "city_ascii": "Kalajoki",
    "lat": "64.2667",
    "lng": "23.9500",
    "country": "Finland",
    "iso2": "FI",
    "iso3": "FIN",
    "admin_name": "Pohjois-Pohjanmaa",
    "capital": "minor",
    "population": "12621",
    "id": "1246746115"
  },
  {
    "city": "Pargas",
    "city_ascii": "Pargas",
    "lat": "60.3000",
    "lng": "22.3000",
    "country": "Finland",
    "iso2": "FI",
    "iso3": "FIN",
    "admin_name": "Varsinais-Suomi",
    "capital": "minor",
    "population": "12266",
    "id": "1246990890"
  },
  {
    "city": "Ilmajoki",
    "city_ascii": "Ilmajoki",
    "lat": "62.7333",
    "lng": "22.5833",
    "country": "Finland",
    "iso2": "FI",
    "iso3": "FIN",
    "admin_name": "Etelä-Pohjanmaa",
    "capital": "minor",
    "population": "12159",
    "id": "1246721686"
  },
  {
    "city": "Liperi",
    "city_ascii": "Liperi",
    "lat": "62.5333",
    "lng": "29.3833",
    "country": "Finland",
    "iso2": "FI",
    "iso3": "FIN",
    "admin_name": "Pohjois-Karjala",
    "capital": "minor",
    "population": "12150",
    "id": "1246184654"
  },
  {
    "city": "Eura",
    "city_ascii": "Eura",
    "lat": "61.1333",
    "lng": "22.0833",
    "country": "Finland",
    "iso2": "FI",
    "iso3": "FIN",
    "admin_name": "Satakunta",
    "capital": "minor",
    "population": "12128",
    "id": "1246784292"
  },
  {
    "city": "Alavus",
    "city_ascii": "Alavus",
    "lat": "62.5917",
    "lng": "23.6167",
    "country": "Finland",
    "iso2": "FI",
    "iso3": "FIN",
    "admin_name": "Etelä-Pohjanmaa",
    "capital": "minor",
    "population": "12044",
    "id": "1246444159"
  },
  {
    "city": "Mikkelin Maalaiskunta",
    "city_ascii": "Mikkelin Maalaiskunta",
    "lat": "61.6776",
    "lng": "27.2021",
    "country": "Finland",
    "iso2": "FI",
    "iso3": "FIN",
    "admin_name": "Etelä-Savo",
    "capital": "",
    "population": "11988",
    "id": "1246254997"
  },
  {
    "city": "Vehkalahti",
    "city_ascii": "Vehkalahti",
    "lat": "60.5756",
    "lng": "27.1439",
    "country": "Finland",
    "iso2": "FI",
    "iso3": "FIN",
    "admin_name": "Kymenlaakso",
    "capital": "",
    "population": "11922",
    "id": "1246542463"
  },
  {
    "city": "Kankaanpää",
    "city_ascii": "Kankaanpaa",
    "lat": "61.8000",
    "lng": "22.4000",
    "country": "Finland",
    "iso2": "FI",
    "iso3": "FIN",
    "admin_name": "Satakunta",
    "capital": "minor",
    "population": "11769",
    "id": "1246054276"
  },
  {
    "city": "Lieksa",
    "city_ascii": "Lieksa",
    "lat": "63.3167",
    "lng": "30.0167",
    "country": "Finland",
    "iso2": "FI",
    "iso3": "FIN",
    "admin_name": "Pohjois-Karjala",
    "capital": "minor",
    "population": "11772",
    "id": "1246128959"
  },
  {
    "city": "Sääminki",
    "city_ascii": "Saaminki",
    "lat": "61.8675",
    "lng": "28.8786",
    "country": "Finland",
    "iso2": "FI",
    "iso3": "FIN",
    "admin_name": "Etelä-Savo",
    "capital": "",
    "population": "11710",
    "id": "1246566624"
  },
  {
    "city": "Pedersöre",
    "city_ascii": "Pedersore",
    "lat": "63.6642",
    "lng": "22.7006",
    "country": "Finland",
    "iso2": "FI",
    "iso3": "FIN",
    "admin_name": "Pohjanmaa",
    "capital": "",
    "population": "11084",
    "id": "1246231936"
  },
  {
    "city": "Valkeala",
    "city_ascii": "Valkeala",
    "lat": "60.9389",
    "lng": "26.7972",
    "country": "Finland",
    "iso2": "FI",
    "iso3": "FIN",
    "admin_name": "Kymenlaakso",
    "capital": "",
    "population": "11195",
    "id": "1246894132"
  },
  {
    "city": "Kivistö",
    "city_ascii": "Kivisto",
    "lat": "60.3236",
    "lng": "24.8453",
    "country": "Finland",
    "iso2": "FI",
    "iso3": "FIN",
    "admin_name": "Uusimaa",
    "capital": "",
    "population": "10665",
    "id": "1246650293"
  },
  {
    "city": "Nivala",
    "city_ascii": "Nivala",
    "lat": "63.9250",
    "lng": "24.9750",
    "country": "Finland",
    "iso2": "FI",
    "iso3": "FIN",
    "admin_name": "Pohjois-Pohjanmaa",
    "capital": "minor",
    "population": "10876",
    "id": "1246609695"
  },
  {
    "city": "Kitee",
    "city_ascii": "Kitee",
    "lat": "62.1000",
    "lng": "30.1333",
    "country": "Finland",
    "iso2": "FI",
    "iso3": "FIN",
    "admin_name": "Pohjois-Karjala",
    "capital": "minor",
    "population": "10832",
    "id": "1246458844"
  },
  {
    "city": "Nurmo",
    "city_ascii": "Nurmo",
    "lat": "62.8278",
    "lng": "22.9083",
    "country": "Finland",
    "iso2": "FI",
    "iso3": "FIN",
    "admin_name": "Etelä-Pohjanmaa",
    "capital": "",
    "population": "10785",
    "id": "1246405413"
  },
  {
    "city": "Joutseno",
    "city_ascii": "Joutseno",
    "lat": "61.1230",
    "lng": "28.5015",
    "country": "Finland",
    "iso2": "FI",
    "iso3": "FIN",
    "admin_name": "Etelä-Karjala",
    "capital": "",
    "population": "10750",
    "id": "1246814717"
  },
  {
    "city": "Kauniainen",
    "city_ascii": "Kauniainen",
    "lat": "60.2167",
    "lng": "24.7333",
    "country": "Finland",
    "iso2": "FI",
    "iso3": "FIN",
    "admin_name": "Uusimaa",
    "capital": "minor",
    "population": "9624",
    "id": "1246749773"
  },
  {
    "city": "Hämeenkyrö",
    "city_ascii": "Hameenkyro",
    "lat": "61.6333",
    "lng": "23.2000",
    "country": "Finland",
    "iso2": "FI",
    "iso3": "FIN",
    "admin_name": "Pirkanmaa",
    "capital": "minor",
    "population": "10667",
    "id": "1246915870"
  },
  {
    "city": "Paimio",
    "city_ascii": "Paimio",
    "lat": "60.4500",
    "lng": "22.7000",
    "country": "Finland",
    "iso2": "FI",
    "iso3": "FIN",
    "admin_name": "Varsinais-Suomi",
    "capital": "minor",
    "population": "10620",
    "id": "1246967951"
  },
  {
    "city": "Sotkamo",
    "city_ascii": "Sotkamo",
    "lat": "64.1333",
    "lng": "28.3833",
    "country": "Finland",
    "iso2": "FI",
    "iso3": "FIN",
    "admin_name": "Kainuu",
    "capital": "minor",
    "population": "10523",
    "id": "1246600504"
  },
  {
    "city": "Huittinen",
    "city_ascii": "Huittinen",
    "lat": "61.1750",
    "lng": "22.7000",
    "country": "Finland",
    "iso2": "FI",
    "iso3": "FIN",
    "admin_name": "Satakunta",
    "capital": "minor",
    "population": "10473",
    "id": "1246269907"
  },
  {
    "city": "Muurame",
    "city_ascii": "Muurame",
    "lat": "62.1292",
    "lng": "25.6722",
    "country": "Finland",
    "iso2": "FI",
    "iso3": "FIN",
    "admin_name": "Keski-Suomi",
    "capital": "minor",
    "population": "10097",
    "id": "1246611594"
  },
  {
    "city": "Liminka",
    "city_ascii": "Liminka",
    "lat": "64.8083",
    "lng": "25.4167",
    "country": "Finland",
    "iso2": "FI",
    "iso3": "FIN",
    "admin_name": "Pohjois-Pohjanmaa",
    "capital": "minor",
    "population": "10133",
    "id": "1246654014"
  },
  {
    "city": "Keuruu",
    "city_ascii": "Keuruu",
    "lat": "62.2583",
    "lng": "24.7083",
    "country": "Finland",
    "iso2": "FI",
    "iso3": "FIN",
    "admin_name": "Keski-Suomi",
    "capital": "minor",
    "population": "10117",
    "id": "1246102142"
  },
  {
    "city": "Alajärvi",
    "city_ascii": "Alajarvi",
    "lat": "63.0000",
    "lng": "23.8167",
    "country": "Finland",
    "iso2": "FI",
    "iso3": "FIN",
    "admin_name": "Etelä-Pohjanmaa",
    "capital": "minor",
    "population": "10006",
    "id": "1246799974"
  },
  {
    "city": "Lapinlahti",
    "city_ascii": "Lapinlahti",
    "lat": "63.3667",
    "lng": "27.3833",
    "country": "Finland",
    "iso2": "FI",
    "iso3": "FIN",
    "admin_name": "Pohjois-Savo",
    "capital": "minor",
    "population": "9982",
    "id": "1246095473"
  },
  {
    "city": "Ii",
    "city_ascii": "Ii",
    "lat": "65.3167",
    "lng": "25.3722",
    "country": "Finland",
    "iso2": "FI",
    "iso3": "FIN",
    "admin_name": "Pohjois-Pohjanmaa",
    "capital": "minor",
    "population": "9966",
    "id": "1246489328"
  },
  {
    "city": "Leppävirta",
    "city_ascii": "Leppavirta",
    "lat": "62.4917",
    "lng": "27.7875",
    "country": "Finland",
    "iso2": "FI",
    "iso3": "FIN",
    "admin_name": "Pohjois-Savo",
    "capital": "minor",
    "population": "9953",
    "id": "1246237547"
  },
  {
    "city": "Saarijärvi",
    "city_ascii": "Saarijarvi",
    "lat": "62.7050",
    "lng": "25.2583",
    "country": "Finland",
    "iso2": "FI",
    "iso3": "FIN",
    "admin_name": "Keski-Suomi",
    "capital": "minor",
    "population": "9915",
    "id": "1246361506"
  },
  {
    "city": "Oulunsalo",
    "city_ascii": "Oulunsalo",
    "lat": "64.9333",
    "lng": "25.4167",
    "country": "Finland",
    "iso2": "FI",
    "iso3": "FIN",
    "admin_name": "Pohjois-Pohjanmaa",
    "capital": "",
    "population": "9771",
    "id": "1246091710"
  },
  {
    "city": "Masku",
    "city_ascii": "Masku",
    "lat": "60.5708",
    "lng": "22.1000",
    "country": "Finland",
    "iso2": "FI",
    "iso3": "FIN",
    "admin_name": "Varsinais-Suomi",
    "capital": "minor",
    "population": "9706",
    "id": "1246315542"
  },
  {
    "city": "Hattula",
    "city_ascii": "Hattula",
    "lat": "61.0556",
    "lng": "24.3708",
    "country": "Finland",
    "iso2": "FI",
    "iso3": "FIN",
    "admin_name": "Kanta-Häme",
    "capital": "",
    "population": "9747",
    "id": "1246551746"
  },
  {
    "city": "Eurajoki",
    "city_ascii": "Eurajoki",
    "lat": "61.2000",
    "lng": "21.7333",
    "country": "Finland",
    "iso2": "FI",
    "iso3": "FIN",
    "admin_name": "Satakunta",
    "capital": "minor",
    "population": "9521",
    "id": "1246054353"
  },
  {
    "city": "Orivesi",
    "city_ascii": "Orivesi",
    "lat": "61.6750",
    "lng": "24.3583",
    "country": "Finland",
    "iso2": "FI",
    "iso3": "FIN",
    "admin_name": "Pirkanmaa",
    "capital": "minor",
    "population": "9408",
    "id": "1246191762"
  },
  {
    "city": "Närpes",
    "city_ascii": "Narpes",
    "lat": "62.4667",
    "lng": "21.3333",
    "country": "Finland",
    "iso2": "FI",
    "iso3": "FIN",
    "admin_name": "Pohjanmaa",
    "capital": "minor",
    "population": "9387",
    "id": "1246805566"
  },
  {
    "city": "Somero",
    "city_ascii": "Somero",
    "lat": "60.6333",
    "lng": "23.5167",
    "country": "Finland",
    "iso2": "FI",
    "iso3": "FIN",
    "admin_name": "Varsinais-Suomi",
    "capital": "minor",
    "population": "9093",
    "id": "1246015002"
  },
  {
    "city": "Muhos",
    "city_ascii": "Muhos",
    "lat": "64.8000",
    "lng": "26.0000",
    "country": "Finland",
    "iso2": "FI",
    "iso3": "FIN",
    "admin_name": "Pohjois-Pohjanmaa",
    "capital": "minor",
    "population": "9063",
    "id": "1246245450"
  },
  {
    "city": "Karkkila",
    "city_ascii": "Karkkila",
    "lat": "60.5333",
    "lng": "24.2167",
    "country": "Finland",
    "iso2": "FI",
    "iso3": "FIN",
    "admin_name": "Uusimaa",
    "capital": "minor",
    "population": "8969",
    "id": "1246261386"
  },
  {
    "city": "Hanko",
    "city_ascii": "Hanko",
    "lat": "59.8333",
    "lng": "22.9667",
    "country": "Finland",
    "iso2": "FI",
    "iso3": "FIN",
    "admin_name": "Uusimaa",
    "capital": "minor",
    "population": "8864",
    "id": "1246686751"
  },
  {
    "city": "Halikko",
    "city_ascii": "Halikko",
    "lat": "60.3972",
    "lng": "23.0778",
    "country": "Finland",
    "iso2": "FI",
    "iso3": "FIN",
    "admin_name": "Varsinais-Suomi",
    "capital": "",
    "population": "8879",
    "id": "1246263188"
  },
  {
    "city": "Karis",
    "city_ascii": "Karis",
    "lat": "60.0708",
    "lng": "23.6625",
    "country": "Finland",
    "iso2": "FI",
    "iso3": "FIN",
    "admin_name": "Uusimaa",
    "capital": "",
    "population": "8787",
    "id": "1246155619"
  },
  {
    "city": "Kuhmo",
    "city_ascii": "Kuhmo",
    "lat": "64.1250",
    "lng": "29.5167",
    "country": "Finland",
    "iso2": "FI",
    "iso3": "FIN",
    "admin_name": "Kainuu",
    "capital": "minor",
    "population": "8806",
    "id": "1246485252"
  },
  {
    "city": "Sodankylä",
    "city_ascii": "Sodankyla",
    "lat": "67.4167",
    "lng": "26.5833",
    "country": "Finland",
    "iso2": "FI",
    "iso3": "FIN",
    "admin_name": "Lappi",
    "capital": "minor",
    "population": "8782",
    "id": "1246413171"
  },
  {
    "city": "Hausjärvi",
    "city_ascii": "Hausjarvi",
    "lat": "60.7884",
    "lng": "25.0247",
    "country": "Finland",
    "iso2": "FI",
    "iso3": "FIN",
    "admin_name": "Kanta-Häme",
    "capital": "",
    "population": "8729",
    "id": "1246683126"
  },
  {
    "city": "Kiuruvesi",
    "city_ascii": "Kiuruvesi",
    "lat": "63.6500",
    "lng": "26.6167",
    "country": "Finland",
    "iso2": "FI",
    "iso3": "FIN",
    "admin_name": "Pohjois-Savo",
    "capital": "minor",
    "population": "8600",
    "id": "1246969515"
  },
  {
    "city": "Pöytyä",
    "city_ascii": "Poytya",
    "lat": "60.7167",
    "lng": "22.6000",
    "country": "Finland",
    "iso2": "FI",
    "iso3": "FIN",
    "admin_name": "Varsinais-Suomi",
    "capital": "",
    "population": "8562",
    "id": "1246790283"
  },
  {
    "city": "Laitila",
    "city_ascii": "Laitila",
    "lat": "60.8833",
    "lng": "21.7000",
    "country": "Finland",
    "iso2": "FI",
    "iso3": "FIN",
    "admin_name": "Varsinais-Suomi",
    "capital": "minor",
    "population": "8520",
    "id": "1246064059"
  },
  {
    "city": "Kemijärvi",
    "city_ascii": "Kemijarvi",
    "lat": "66.7167",
    "lng": "27.4333",
    "country": "Finland",
    "iso2": "FI",
    "iso3": "FIN",
    "admin_name": "Lappi",
    "capital": "minor",
    "population": "7766",
    "id": "1246358285"
  }
]