[
  {
    "city": "Port of Spain",
    "city_ascii": "Port of Spain",
    "lat": "10.6667",
    "lng": "-61.5167",
    "country": "Trinidad and Tobago",
    "iso2": "TT",
    "iso3": "TTO",
    "admin_name": "Port of Spain",
    "capital": "primary",
    "population": "81142",
    "id": "1780670676"
  },
  {
    "city": "Chaguanas",
    "city_ascii": "Chaguanas",
    "lat": "10.5167",
    "lng": "-61.4000",
    "country": "Trinidad and Tobago",
    "iso2": "TT",
    "iso3": "TTO",
    "admin_name": "Chaguanas",
    "capital": "admin",
    "population": "101297",
    "id": "1780795054"
  },
  {
    "city": "San Fernando",
    "city_ascii": "San Fernando",
    "lat": "10.2833",
    "lng": "-61.4667",
    "country": "Trinidad and Tobago",
    "iso2": "TT",
    "iso3": "TTO",
    "admin_name": "San Fernando",
    "capital": "admin",
    "population": "82997",
    "id": "1780361077"
  },
  {
    "city": "Arima",
    "city_ascii": "Arima",
    "lat": "10.6333",
    "lng": "-61.2833",
    "country": "Trinidad and Tobago",
    "iso2": "TT",
    "iso3": "TTO",
    "admin_name": "Arima",
    "capital": "admin",
    "population": "65623",
    "id": "1780753308"
  },
  {
    "city": "Couva",
    "city_ascii": "Couva",
    "lat": "10.4167",
    "lng": "-61.4500",
    "country": "Trinidad and Tobago",
    "iso2": "TT",
    "iso3": "TTO",
    "admin_name": "Couva/Tabaquite/Talparo",
    "capital": "admin",
    "population": "48858",
    "id": "1780835692"
  },
  {
    "city": "Point Fortin",
    "city_ascii": "Point Fortin",
    "lat": "10.1667",
    "lng": "-61.6667",
    "country": "Trinidad and Tobago",
    "iso2": "TT",
    "iso3": "TTO",
    "admin_name": "Point Fortin",
    "capital": "admin",
    "population": "29579",
    "id": "1780702349"
  },
  {
    "city": "Princes Town",
    "city_ascii": "Princes Town",
    "lat": "10.2667",
    "lng": "-61.3833",
    "country": "Trinidad and Tobago",
    "iso2": "TT",
    "iso3": "TTO",
    "admin_name": "Princes Town",
    "capital": "admin",
    "population": "28335",
    "id": "1780714817"
  },
  {
    "city": "Diego Martin",
    "city_ascii": "Diego Martin",
    "lat": "10.7167",
    "lng": "-61.5667",
    "country": "Trinidad and Tobago",
    "iso2": "TT",
    "iso3": "TTO",
    "admin_name": "Diego Martin",
    "capital": "admin",
    "population": "25370",
    "id": "1780534918"
  },
  {
    "city": "Scarborough",
    "city_ascii": "Scarborough",
    "lat": "11.1833",
    "lng": "-60.7375",
    "country": "Trinidad and Tobago",
    "iso2": "TT",
    "iso3": "TTO",
    "admin_name": "Tobago",
    "capital": "admin",
    "population": "17537",
    "id": "1780875399"
  },
  {
    "city": "Sangre Grande",
    "city_ascii": "Sangre Grande",
    "lat": "10.5667",
    "lng": "-61.1333",
    "country": "Trinidad and Tobago",
    "iso2": "TT",
    "iso3": "TTO",
    "admin_name": "Sangre Grande",
    "capital": "admin",
    "population": "18127",
    "id": "1780469686"
  },
  {
    "city": "Tunapuna",
    "city_ascii": "Tunapuna",
    "lat": "10.6333",
    "lng": "-61.3833",
    "country": "Trinidad and Tobago",
    "iso2": "TT",
    "iso3": "TTO",
    "admin_name": "Tunapuna/Piarco",
    "capital": "admin",
    "population": "17650",
    "id": "1780508155"
  },
  {
    "city": "Marabella",
    "city_ascii": "Marabella",
    "lat": "10.3000",
    "lng": "-61.4500",
    "country": "Trinidad and Tobago",
    "iso2": "TT",
    "iso3": "TTO",
    "admin_name": "San Fernando",
    "capital": "",
    "population": "12508",
    "id": "1780714221"
  },
  {
    "city": "Siparia",
    "city_ascii": "Siparia",
    "lat": "10.1333",
    "lng": "-61.5000",
    "country": "Trinidad and Tobago",
    "iso2": "TT",
    "iso3": "TTO",
    "admin_name": "Siparia",
    "capital": "admin",
    "population": "10254",
    "id": "1780418671"
  },
  {
    "city": "Rio Claro",
    "city_ascii": "Rio Claro",
    "lat": "10.3042",
    "lng": "-61.1708",
    "country": "Trinidad and Tobago",
    "iso2": "TT",
    "iso3": "TTO",
    "admin_name": "Mayaro/Rio Claro",
    "capital": "admin",
    "population": "8881",
    "id": "1780883666"
  },
  {
    "city": "Debe",
    "city_ascii": "Debe",
    "lat": "10.2000",
    "lng": "-61.4500",
    "country": "Trinidad and Tobago",
    "iso2": "TT",
    "iso3": "TTO",
    "admin_name": "Penal/Debe",
    "capital": "admin",
    "population": "7084",
    "id": "1780510715"
  },
  {
    "city": "Aranguez",
    "city_ascii": "Aranguez",
    "lat": "10.6472",
    "lng": "-61.4461",
    "country": "Trinidad and Tobago",
    "iso2": "TT",
    "iso3": "TTO",
    "admin_name": "San Juan/Laventille",
    "capital": "admin",
    "population": "",
    "id": "1780000001"
  },
  {
    "city": "Laventille",
    "city_ascii": "Laventille",
    "lat": "10.6500",
    "lng": "-61.4833",
    "country": "Trinidad and Tobago",
    "iso2": "TT",
    "iso3": "TTO",
    "admin_name": "San Juan/Laventille",
    "capital": "",
    "population": "21454",
    "id": "1780201146"
  },
  {
    "city": "Gasparillo",
    "city_ascii": "Gasparillo",
    "lat": "10.3167",
    "lng": "-61.4167",
    "country": "Trinidad and Tobago",
    "iso2": "TT",
    "iso3": "TTO",
    "admin_name": "Couva/Tabaquite/Talparo",
    "capital": "",
    "population": "16426",
    "id": "1780142944"
  },
  {
    "city": "Saint Joseph",
    "city_ascii": "Saint Joseph",
    "lat": "10.6556",
    "lng": "-61.4167",
    "country": "Trinidad and Tobago",
    "iso2": "TT",
    "iso3": "TTO",
    "admin_name": "Tunapuna/Piarco",
    "capital": "",
    "population": "14376",
    "id": "1780256893"
  },
  {
    "city": "Claxton Bay",
    "city_ascii": "Claxton Bay",
    "lat": "10.3405",
    "lng": "-61.4555",
    "country": "Trinidad and Tobago",
    "iso2": "TT",
    "iso3": "TTO",
    "admin_name": "Couva/Tabaquite/Talparo",
    "capital": "",
    "population": "14436",
    "id": "1780203587"
  },
  {
    "city": "San Juan",
    "city_ascii": "San Juan",
    "lat": "10.6500",
    "lng": "-61.4500",
    "country": "Trinidad and Tobago",
    "iso2": "TT",
    "iso3": "TTO",
    "admin_name": "San Juan/Laventille",
    "capital": "",
    "population": "13797",
    "id": "1780554728"
  },
  {
    "city": "Fyzabad",
    "city_ascii": "Fyzabad",
    "lat": "10.1833",
    "lng": "-61.5500",
    "country": "Trinidad and Tobago",
    "iso2": "TT",
    "iso3": "TTO",
    "admin_name": "Siparia",
    "capital": "",
    "population": "13099",
    "id": "1780514222"
  },
  {
    "city": "Penal",
    "city_ascii": "Penal",
    "lat": "10.1667",
    "lng": "-61.4667",
    "country": "Trinidad and Tobago",
    "iso2": "TT",
    "iso3": "TTO",
    "admin_name": "Penal/Debe",
    "capital": "",
    "population": "12281",
    "id": "1780976981"
  },
  {
    "city": "Valencia",
    "city_ascii": "Valencia",
    "lat": "10.6500",
    "lng": "-61.2000",
    "country": "Trinidad and Tobago",
    "iso2": "TT",
    "iso3": "TTO",
    "admin_name": "Sangre Grande",
    "capital": "",
    "population": "12327",
    "id": "1780842812"
  },
  {
    "city": "Freeport",
    "city_ascii": "Freeport",
    "lat": "10.4500",
    "lng": "-61.4167",
    "country": "Trinidad and Tobago",
    "iso2": "TT",
    "iso3": "TTO",
    "admin_name": "Couva/Tabaquite/Talparo",
    "capital": "",
    "population": "11850",
    "id": "1780420196"
  },
  {
    "city": "Arouca",
    "city_ascii": "Arouca",
    "lat": "10.6333",
    "lng": "-61.3333",
    "country": "Trinidad and Tobago",
    "iso2": "TT",
    "iso3": "TTO",
    "admin_name": "Tunapuna/Piarco",
    "capital": "",
    "population": "10869",
    "id": "1780178879"
  },
  {
    "city": "Cunupia",
    "city_ascii": "Cunupia",
    "lat": "10.5500",
    "lng": "-61.3667",
    "country": "Trinidad and Tobago",
    "iso2": "TT",
    "iso3": "TTO",
    "admin_name": "Chaguanas",
    "capital": "",
    "population": "8768",
    "id": "1780256527"
  }
]