[
  {
    "city": "Istanbul",
    "city_ascii": "Istanbul",
    "lat": "41.0136",
    "lng": "28.9550",
    "country": "Turkey",
    "iso2": "TR",
    "iso3": "TUR",
    "admin_name": "İstanbul",
    "capital": "admin",
    "population": "16079000",
    "id": "1792756324"
  },
  {
    "city": "Ankara",
    "city_ascii": "Ankara",
    "lat": "39.9300",
    "lng": "32.8500",
    "country": "Turkey",
    "iso2": "TR",
    "iso3": "TUR",
    "admin_name": "Ankara",
    "capital": "primary",
    "population": "5503985",
    "id": "1792572891"
  },
  {
    "city": "İzmir",
    "city_ascii": "Izmir",
    "lat": "38.4200",
    "lng": "27.1400",
    "country": "Turkey",
    "iso2": "TR",
    "iso3": "TUR",
    "admin_name": "İzmir",
    "capital": "admin",
    "population": "4320519",
    "id": "1792725579"
  },
  {
    "city": "Bursa",
    "city_ascii": "Bursa",
    "lat": "40.1833",
    "lng": "29.0500",
    "country": "Turkey",
    "iso2": "TR",
    "iso3": "TUR",
    "admin_name": "Bursa",
    "capital": "admin",
    "population": "2901396",
    "id": "1792903330"
  },
  {
    "city": "Antalya",
    "city_ascii": "Antalya",
    "lat": "36.8874",
    "lng": "30.7075",
    "country": "Turkey",
    "iso2": "TR",
    "iso3": "TUR",
    "admin_name": "Antalya",
    "capital": "admin",
    "population": "2426356",
    "id": "1792988434"
  },
  {
    "city": "Konya",
    "city_ascii": "Konya",
    "lat": "37.8667",
    "lng": "32.4833",
    "country": "Turkey",
    "iso2": "TR",
    "iso3": "TUR",
    "admin_name": "Konya",
    "capital": "admin",
    "population": "2232374",
    "id": "1792014004"
  },
  {
    "city": "Gaziantep",
    "city_ascii": "Gaziantep",
    "lat": "37.0628",
    "lng": "37.3792",
    "country": "Turkey",
    "iso2": "TR",
    "iso3": "TUR",
    "admin_name": "Gaziantep",
    "capital": "admin",
    "population": "2028563",
    "id": "1792911843"
  },
  {
    "city": "Şanlıurfa",
    "city_ascii": "Sanliurfa",
    "lat": "37.1583",
    "lng": "38.7917",
    "country": "Turkey",
    "iso2": "TR",
    "iso3": "TUR",
    "admin_name": "Şanlıurfa",
    "capital": "admin",
    "population": "1985753",
    "id": "1792937570"
  },
  {
    "city": "Mersin",
    "city_ascii": "Mersin",
    "lat": "36.8000",
    "lng": "34.6333",
    "country": "Turkey",
    "iso2": "TR",
    "iso3": "TUR",
    "admin_name": "Mersin",
    "capital": "admin",
    "population": "1814468",
    "id": "1792520282"
  },
  {
    "city": "Adana",
    "city_ascii": "Adana",
    "lat": "37.0000",
    "lng": "35.3213",
    "country": "Turkey",
    "iso2": "TR",
    "iso3": "TUR",
    "admin_name": "Adana",
    "capital": "admin",
    "population": "1765981",
    "id": "1792783772"
  },
  {
    "city": "Diyarbakır",
    "city_ascii": "Diyarbakir",
    "lat": "37.9100",
    "lng": "40.2400",
    "country": "Turkey",
    "iso2": "TR",
    "iso3": "TUR",
    "admin_name": "Diyarbakır",
    "capital": "admin",
    "population": "1732396",
    "id": "1792536241"
  },
  {
    "city": "Kayseri",
    "city_ascii": "Kayseri",
    "lat": "38.7225",
    "lng": "35.4875",
    "country": "Turkey",
    "iso2": "TR",
    "iso3": "TUR",
    "admin_name": "Kayseri",
    "capital": "admin",
    "population": "1389680",
    "id": "1792945815"
  },
  {
    "city": "Samsun",
    "city_ascii": "Samsun",
    "lat": "41.2903",
    "lng": "36.3336",
    "country": "Turkey",
    "iso2": "TR",
    "iso3": "TUR",
    "admin_name": "Samsun",
    "capital": "admin",
    "population": "1335716",
    "id": "1792169057"
  },
  {
    "city": "Akçaabat",
    "city_ascii": "Akcaabat",
    "lat": "41.0167",
    "lng": "39.5500",
    "country": "Turkey",
    "iso2": "TR",
    "iso3": "TUR",
    "admin_name": "Trabzon",
    "capital": "minor",
    "population": "1215351",
    "id": "1792536331"
  },
  {
    "city": "Denizli",
    "city_ascii": "Denizli",
    "lat": "37.7667",
    "lng": "29.0833",
    "country": "Turkey",
    "iso2": "TR",
    "iso3": "TUR",
    "admin_name": "Denizli",
    "capital": "admin",
    "population": "1027782",
    "id": "1792161179"
  },
  {
    "city": "Çankaya",
    "city_ascii": "Cankaya",
    "lat": "39.9244",
    "lng": "32.8856",
    "country": "Turkey",
    "iso2": "TR",
    "iso3": "TUR",
    "admin_name": "Ankara",
    "capital": "minor",
    "population": "914501",
    "id": "1792458894"
  },
  {
    "city": "Esenyurt",
    "city_ascii": "Esenyurt",
    "lat": "41.0470",
    "lng": "28.6580",
    "country": "Turkey",
    "iso2": "TR",
    "iso3": "TUR",
    "admin_name": "İstanbul",
    "capital": "",
    "population": "891120",
    "id": "1792759121"
  },
  {
    "city": "Eskişehir",
    "city_ascii": "Eskisehir",
    "lat": "39.7767",
    "lng": "30.5206",
    "country": "Turkey",
    "iso2": "TR",
    "iso3": "TUR",
    "admin_name": "Eskişehir",
    "capital": "admin",
    "population": "871187",
    "id": "1792933981"
  },
  {
    "city": "Seyhan",
    "city_ascii": "Seyhan",
    "lat": "36.9831",
    "lng": "35.3328",
    "country": "Turkey",
    "iso2": "TR",
    "iso3": "TUR",
    "admin_name": "Adana",
    "capital": "minor",
    "population": "792536",
    "id": "1792655353"
  },
  {
    "city": "Bağcılar",
    "city_ascii": "Bagcilar",
    "lat": "41.0344",
    "lng": "28.8564",
    "country": "Turkey",
    "iso2": "TR",
    "iso3": "TUR",
    "admin_name": "İstanbul",
    "capital": "",
    "population": "734369",
    "id": "1792374908"
  },
  {
    "city": "Küçükçekmece",
    "city_ascii": "Kucukcekmece",
    "lat": "41.0000",
    "lng": "28.8000",
    "country": "Turkey",
    "iso2": "TR",
    "iso3": "TUR",
    "admin_name": "İstanbul",
    "capital": "minor",
    "population": "770317",
    "id": "1792992349"
  },
  {
    "city": "Erzurum",
    "city_ascii": "Erzurum",
    "lat": "39.9086",
    "lng": "41.2769",
    "country": "Turkey",
    "iso2": "TR",
    "iso3": "TUR",
    "admin_name": "Erzurum",
    "capital": "admin",
    "population": "767848",
    "id": "1792511957"
  },
  {
    "city": "Pendik",
    "city_ascii": "Pendik",
    "lat": "40.8747",
    "lng": "29.2350",
    "country": "Turkey",
    "iso2": "TR",
    "iso3": "TUR",
    "admin_name": "İstanbul",
    "capital": "minor",
    "population": "693599",
    "id": "1792824929"
  },
  {
    "city": "Selçuklu",
    "city_ascii": "Selcuklu",
    "lat": "37.8814",
    "lng": "32.4922",
    "country": "Turkey",
    "iso2": "TR",
    "iso3": "TUR",
    "admin_name": "Konya",
    "capital": "minor",
    "population": "648850",
    "id": "1792683478"
  },
  {
    "city": "Yıldırım",
    "city_ascii": "Yildirim",
    "lat": "40.1100",
    "lng": "29.0821",
    "country": "Turkey",
    "iso2": "TR",
    "iso3": "TUR",
    "admin_name": "Bursa",
    "capital": "minor",
    "population": "643681",
    "id": "1792764051"
  },
  {
    "city": "Kartal",
    "city_ascii": "Kartal",
    "lat": "40.8872",
    "lng": "29.1900",
    "country": "Turkey",
    "iso2": "TR",
    "iso3": "TUR",
    "admin_name": "İstanbul",
    "capital": "minor",
    "population": "461155",
    "id": "1792988658"
  },
  {
    "city": "Kâğıthane",
    "city_ascii": "Kagithane",
    "lat": "41.0719",
    "lng": "28.9664",
    "country": "Turkey",
    "iso2": "TR",
    "iso3": "TUR",
    "admin_name": "İstanbul",
    "capital": "",
    "population": "437026",
    "id": "1792526380"
  },
  {
    "city": "Esenler",
    "city_ascii": "Esenler",
    "lat": "41.0339",
    "lng": "28.8903",
    "country": "Turkey",
    "iso2": "TR",
    "iso3": "TUR",
    "admin_name": "İstanbul",
    "capital": "",
    "population": "444561",
    "id": "1792000667"
  },
  {
    "city": "Batman",
    "city_ascii": "Batman",
    "lat": "37.8870",
    "lng": "41.1320",
    "country": "Turkey",
    "iso2": "TR",
    "iso3": "TUR",
    "admin_name": "Batman",
    "capital": "admin",
    "population": "447106",
    "id": "1792630786"
  },
  {
    "city": "Avcılar",
    "city_ascii": "Avcilar",
    "lat": "40.9792",
    "lng": "28.7214",
    "country": "Turkey",
    "iso2": "TR",
    "iso3": "TUR",
    "admin_name": "İstanbul",
    "capital": "",
    "population": "435625",
    "id": "1792144759"
  },
  {
    "city": "Kahramanmaraş",
    "city_ascii": "Kahramanmaras",
    "lat": "37.5833",
    "lng": "36.9333",
    "country": "Turkey",
    "iso2": "TR",
    "iso3": "TUR",
    "admin_name": "Kahramanmaraş",
    "capital": "admin",
    "population": "443575",
    "id": "1792726797"
  },
  {
    "city": "Trabzon",
    "city_ascii": "Trabzon",
    "lat": "41.0050",
    "lng": "39.7225",
    "country": "Turkey",
    "iso2": "TR",
    "iso3": "TUR",
    "admin_name": "Trabzon",
    "capital": "admin",
    "population": "426882",
    "id": "1792019202"
  },
  {
    "city": "Malatya",
    "city_ascii": "Malatya",
    "lat": "38.3486",
    "lng": "38.3194",
    "country": "Turkey",
    "iso2": "TR",
    "iso3": "TUR",
    "admin_name": "Malatya",
    "capital": "admin",
    "population": "426381",
    "id": "1792485155"
  },
  {
    "city": "Elazığ",
    "city_ascii": "Elazig",
    "lat": "38.6744",
    "lng": "39.2228",
    "country": "Turkey",
    "iso2": "TR",
    "iso3": "TUR",
    "admin_name": "Elazığ",
    "capital": "admin",
    "population": "421726",
    "id": "1792156766"
  },
  {
    "city": "Yüreğir",
    "city_ascii": "Yuregir",
    "lat": "36.9981",
    "lng": "35.3439",
    "country": "Turkey",
    "iso2": "TR",
    "iso3": "TUR",
    "admin_name": "Adana",
    "capital": "minor",
    "population": "407054",
    "id": "1792234391"
  },
  {
    "city": "Hatay",
    "city_ascii": "Hatay",
    "lat": "36.2025",
    "lng": "36.1606",
    "country": "Turkey",
    "iso2": "TR",
    "iso3": "TUR",
    "admin_name": "Hatay",
    "capital": "admin",
    "population": "377793",
    "id": "1792115763"
  },
  {
    "city": "Sivas",
    "city_ascii": "Sivas",
    "lat": "39.7500",
    "lng": "37.0167",
    "country": "Turkey",
    "iso2": "TR",
    "iso3": "TUR",
    "admin_name": "Sivas",
    "capital": "admin",
    "population": "377561",
    "id": "1792938326"
  },
  {
    "city": "Gebze",
    "city_ascii": "Gebze",
    "lat": "40.8000",
    "lng": "29.4333",
    "country": "Turkey",
    "iso2": "TR",
    "iso3": "TUR",
    "admin_name": "Kocaeli",
    "capital": "minor",
    "population": "371000",
    "id": "1792650082"
  },
  {
    "city": "Kocaeli",
    "city_ascii": "Kocaeli",
    "lat": "40.7625",
    "lng": "29.9175",
    "country": "Turkey",
    "iso2": "TR",
    "iso3": "TUR",
    "admin_name": "Kocaeli",
    "capital": "admin",
    "population": "363416",
    "id": "1792965114"
  },
  {
    "city": "Kayapınar",
    "city_ascii": "Kayapinar",
    "lat": "37.9400",
    "lng": "40.1900",
    "country": "Turkey",
    "iso2": "TR",
    "iso3": "TUR",
    "admin_name": "Diyarbakır",
    "capital": "minor",
    "population": "362407",
    "id": "1792910994"
  },
  {
    "city": "Konak",
    "city_ascii": "Konak",
    "lat": "38.4189",
    "lng": "27.1285",
    "country": "Turkey",
    "iso2": "TR",
    "iso3": "TUR",
    "admin_name": "İzmir",
    "capital": "minor",
    "population": "356563",
    "id": "1792668647"
  },
  {
    "city": "Manisa",
    "city_ascii": "Manisa",
    "lat": "38.6306",
    "lng": "27.4222",
    "country": "Turkey",
    "iso2": "TR",
    "iso3": "TUR",
    "admin_name": "Manisa",
    "capital": "admin",
    "population": "356702",
    "id": "1792804328"
  },
  {
    "city": "Van",
    "city_ascii": "Van",
    "lat": "38.4942",
    "lng": "43.3800",
    "country": "Turkey",
    "iso2": "TR",
    "iso3": "TUR",
    "admin_name": "Van",
    "capital": "admin",
    "population": "353419",
    "id": "1792940471"
  },
  {
    "city": "Pamukkale",
    "city_ascii": "Pamukkale",
    "lat": "37.9167",
    "lng": "29.1167",
    "country": "Turkey",
    "iso2": "TR",
    "iso3": "TUR",
    "admin_name": "Denizli",
    "capital": "",
    "population": "346625",
    "id": "1792749284"
  },
  {
    "city": "Sarıyer",
    "city_ascii": "Sariyer",
    "lat": "41.1669",
    "lng": "29.0572",
    "country": "Turkey",
    "iso2": "TR",
    "iso3": "TUR",
    "admin_name": "İstanbul",
    "capital": "minor",
    "population": "342503",
    "id": "1792425356"
  },
  {
    "city": "Meram",
    "city_ascii": "Meram",
    "lat": "37.8364",
    "lng": "32.4383",
    "country": "Turkey",
    "iso2": "TR",
    "iso3": "TUR",
    "admin_name": "Konya",
    "capital": "minor",
    "population": "342315",
    "id": "1792895883"
  },
  {
    "city": "Tarsus",
    "city_ascii": "Tarsus",
    "lat": "36.9165",
    "lng": "34.8951",
    "country": "Turkey",
    "iso2": "TR",
    "iso3": "TUR",
    "admin_name": "Mersin",
    "capital": "minor",
    "population": "339676",
    "id": "1792003860"
  },
  {
    "city": "Sultanbeyli",
    "city_ascii": "Sultanbeyli",
    "lat": "40.9683",
    "lng": "29.2617",
    "country": "Turkey",
    "iso2": "TR",
    "iso3": "TUR",
    "admin_name": "İstanbul",
    "capital": "",
    "population": "327798",
    "id": "1792744270"
  },
  {
    "city": "Beylikdüzü",
    "city_ascii": "Beylikduzu",
    "lat": "41.0011",
    "lng": "28.6419",
    "country": "Turkey",
    "iso2": "TR",
    "iso3": "TUR",
    "admin_name": "İstanbul",
    "capital": "",
    "population": "331525",
    "id": "1792504666"
  },
  {
    "city": "Balıkesir",
    "city_ascii": "Balikesir",
    "lat": "39.6333",
    "lng": "27.8833",
    "country": "Turkey",
    "iso2": "TR",
    "iso3": "TUR",
    "admin_name": "Balıkesir",
    "capital": "admin",
    "population": "331788",
    "id": "1792020804"
  },
  {
    "city": "Güngören",
    "city_ascii": "Gungoren",
    "lat": "41.0225",
    "lng": "28.8717",
    "country": "Turkey",
    "iso2": "TR",
    "iso3": "TUR",
    "admin_name": "İstanbul",
    "capital": "",
    "population": "289331",
    "id": "1792090978"
  },
  {
    "city": "Aksaray",
    "city_ascii": "Aksaray",
    "lat": "38.3742",
    "lng": "34.0289",
    "country": "Turkey",
    "iso2": "TR",
    "iso3": "TUR",
    "admin_name": "Aksaray",
    "capital": "admin",
    "population": "319865",
    "id": "1792650390"
  },
  {
    "city": "Alanya",
    "city_ascii": "Alanya",
    "lat": "36.5500",
    "lng": "32.0000",
    "country": "Turkey",
    "iso2": "TR",
    "iso3": "TUR",
    "admin_name": "Antalya",
    "capital": "minor",
    "population": "312319",
    "id": "1792233416"
  },
  {
    "city": "Yeşilyurt",
    "city_ascii": "Yesilyurt",
    "lat": "38.2961",
    "lng": "38.2489",
    "country": "Turkey",
    "iso2": "TR",
    "iso3": "TUR",
    "admin_name": "Malatya",
    "capital": "minor",
    "population": "304839",
    "id": "1792143860"
  },
  {
    "city": "Adıyaman",
    "city_ascii": "Adiyaman",
    "lat": "37.7639",
    "lng": "38.2778",
    "country": "Turkey",
    "iso2": "TR",
    "iso3": "TUR",
    "admin_name": "Adıyaman",
    "capital": "admin",
    "population": "304615",
    "id": "1792686663"
  },
  {
    "city": "Afyonkarahisar",
    "city_ascii": "Afyonkarahisar",
    "lat": "38.7578",
    "lng": "30.5386",
    "country": "Turkey",
    "iso2": "TR",
    "iso3": "TUR",
    "admin_name": "Afyonkarahisar",
    "capital": "admin",
    "population": "299673",
    "id": "1792855788"
  },
  {
    "city": "İskenderun",
    "city_ascii": "Iskenderun",
    "lat": "36.5817",
    "lng": "36.1650",
    "country": "Turkey",
    "iso2": "TR",
    "iso3": "TUR",
    "admin_name": "Hatay",
    "capital": "minor",
    "population": "297943",
    "id": "1792962911"
  },
  {
    "city": "Battalgazi",
    "city_ascii": "Battalgazi",
    "lat": "38.4228",
    "lng": "38.3656",
    "country": "Turkey",
    "iso2": "TR",
    "iso3": "TUR",
    "admin_name": "Malatya",
    "capital": "minor",
    "population": "295821",
    "id": "1792965811"
  },
  {
    "city": "Çorum",
    "city_ascii": "Corum",
    "lat": "40.5455",
    "lng": "34.9570",
    "country": "Turkey",
    "iso2": "TR",
    "iso3": "TUR",
    "admin_name": "Çorum",
    "capital": "admin",
    "population": "294807",
    "id": "1792065200"
  },
  {
    "city": "Çorlu",
    "city_ascii": "Corlu",
    "lat": "41.1500",
    "lng": "27.8000",
    "country": "Turkey",
    "iso2": "TR",
    "iso3": "TUR",
    "admin_name": "Tekirdağ",
    "capital": "minor",
    "population": "279251",
    "id": "1792855069"
  },
  {
    "city": "Sakarya",
    "city_ascii": "Sakarya",
    "lat": "40.7833",
    "lng": "30.4000",
    "country": "Turkey",
    "iso2": "TR",
    "iso3": "TUR",
    "admin_name": "Sakarya",
    "capital": "admin",
    "population": "271515",
    "id": "1792191587"
  },
  {
    "city": "Arnavutköy",
    "city_ascii": "Arnavutkoy",
    "lat": "41.1856",
    "lng": "28.7406",
    "country": "Turkey",
    "iso2": "TR",
    "iso3": "TUR",
    "admin_name": "İstanbul",
    "capital": "",
    "population": "270549",
    "id": "1792049367"
  },
  {
    "city": "İnegöl",
    "city_ascii": "Inegol",
    "lat": "40.0806",
    "lng": "29.5097",
    "country": "Turkey",
    "iso2": "TR",
    "iso3": "TUR",
    "admin_name": "Bursa",
    "capital": "minor",
    "population": "268155",
    "id": "1792592205"
  },
  {
    "city": "Kütahya",
    "city_ascii": "Kutahya",
    "lat": "39.4167",
    "lng": "29.9833",
    "country": "Turkey",
    "iso2": "TR",
    "iso3": "TUR",
    "admin_name": "Kütahya",
    "capital": "admin",
    "population": "266784",
    "id": "1792671735"
  },
  {
    "city": "Osmaniye",
    "city_ascii": "Osmaniye",
    "lat": "37.0750",
    "lng": "36.2500",
    "country": "Turkey",
    "iso2": "TR",
    "iso3": "TUR",
    "admin_name": "Osmaniye",
    "capital": "admin",
    "population": "264373",
    "id": "1792340207"
  },
  {
    "city": "Tuzla",
    "city_ascii": "Tuzla",
    "lat": "40.8161",
    "lng": "29.3006",
    "country": "Turkey",
    "iso2": "TR",
    "iso3": "TUR",
    "admin_name": "İstanbul",
    "capital": "",
    "population": "255468",
    "id": "1792174991"
  },
  {
    "city": "Isparta",
    "city_ascii": "Isparta",
    "lat": "37.7647",
    "lng": "30.5567",
    "country": "Turkey",
    "iso2": "TR",
    "iso3": "TUR",
    "admin_name": "Isparta",
    "capital": "admin",
    "population": "258375",
    "id": "1792105249"
  },
  {
    "city": "Siverek",
    "city_ascii": "Siverek",
    "lat": "37.7500",
    "lng": "39.3167",
    "country": "Turkey",
    "iso2": "TR",
    "iso3": "TUR",
    "admin_name": "Şanlıurfa",
    "capital": "minor",
    "population": "258265",
    "id": "1792479307"
  },
  {
    "city": "Çekme",
    "city_ascii": "Cekme",
    "lat": "41.0369",
    "lng": "29.1786",
    "country": "Turkey",
    "iso2": "TR",
    "iso3": "TUR",
    "admin_name": "İstanbul",
    "capital": "",
    "population": "251937",
    "id": "1792015771"
  },
  {
    "city": "Kızıltepe",
    "city_ascii": "Kiziltepe",
    "lat": "37.1939",
    "lng": "40.5861",
    "country": "Turkey",
    "iso2": "TR",
    "iso3": "TUR",
    "admin_name": "Mardin",
    "capital": "minor",
    "population": "252656",
    "id": "1792229490"
  },
  {
    "city": "Uşak",
    "city_ascii": "Usak",
    "lat": "38.6778",
    "lng": "29.4042",
    "country": "Turkey",
    "iso2": "TR",
    "iso3": "TUR",
    "admin_name": "Uşak",
    "capital": "admin",
    "population": "252044",
    "id": "1792360822"
  },
  {
    "city": "Büyükçekmece",
    "city_ascii": "Buyukcekmece",
    "lat": "41.0200",
    "lng": "28.5775",
    "country": "Turkey",
    "iso2": "TR",
    "iso3": "TUR",
    "admin_name": "İstanbul",
    "capital": "minor",
    "population": "247736",
    "id": "1792118443"
  },
  {
    "city": "Beykoz",
    "city_ascii": "Beykoz",
    "lat": "41.1342",
    "lng": "29.0922",
    "country": "Turkey",
    "iso2": "TR",
    "iso3": "TUR",
    "admin_name": "İstanbul",
    "capital": "minor",
    "population": "246700",
    "id": "1792084939"
  },
  {
    "city": "Düzce",
    "city_ascii": "Duzce",
    "lat": "40.8417",
    "lng": "31.1583",
    "country": "Turkey",
    "iso2": "TR",
    "iso3": "TUR",
    "admin_name": "Düzce",
    "capital": "admin",
    "population": "240633",
    "id": "1792999306"
  },
  {
    "city": "Manavgat",
    "city_ascii": "Manavgat",
    "lat": "36.7833",
    "lng": "31.4333",
    "country": "Turkey",
    "iso2": "TR",
    "iso3": "TUR",
    "admin_name": "Antalya",
    "capital": "minor",
    "population": "230597",
    "id": "1792832111"
  },
  {
    "city": "Ordu",
    "city_ascii": "Ordu",
    "lat": "40.9833",
    "lng": "37.8833",
    "country": "Turkey",
    "iso2": "TR",
    "iso3": "TUR",
    "admin_name": "Ordu",
    "capital": "admin",
    "population": "229214",
    "id": "1792540951"
  },
  {
    "city": "Bolu",
    "city_ascii": "Bolu",
    "lat": "40.7347",
    "lng": "31.6075",
    "country": "Turkey",
    "iso2": "TR",
    "iso3": "TUR",
    "admin_name": "Bolu",
    "capital": "admin",
    "population": "205525",
    "id": "1792807068"
  },
  {
    "city": "Tekirdağ",
    "city_ascii": "Tekirdag",
    "lat": "40.9778",
    "lng": "27.5153",
    "country": "Turkey",
    "iso2": "TR",
    "iso3": "TUR",
    "admin_name": "Tekirdağ",
    "capital": "admin",
    "population": "204001",
    "id": "1792519395"
  },
  {
    "city": "Tokat",
    "city_ascii": "Tokat",
    "lat": "40.3139",
    "lng": "36.5542",
    "country": "Turkey",
    "iso2": "TR",
    "iso3": "TUR",
    "admin_name": "Tokat",
    "capital": "admin",
    "population": "201294",
    "id": "1792534905"
  },
  {
    "city": "Viranşehir",
    "city_ascii": "Viransehir",
    "lat": "37.2306",
    "lng": "39.7653",
    "country": "Turkey",
    "iso2": "TR",
    "iso3": "TUR",
    "admin_name": "Şanlıurfa",
    "capital": "minor",
    "population": "195910",
    "id": "1792566461"
  },
  {
    "city": "Karaköprü",
    "city_ascii": "Karakopru",
    "lat": "37.1847",
    "lng": "38.7908",
    "country": "Turkey",
    "iso2": "TR",
    "iso3": "TUR",
    "admin_name": "Şanlıurfa",
    "capital": "minor",
    "population": "195552",
    "id": "1792525360"
  },
  {
    "city": "Karaman",
    "city_ascii": "Karaman",
    "lat": "37.1819",
    "lng": "33.2181",
    "country": "Turkey",
    "iso2": "TR",
    "iso3": "TUR",
    "admin_name": "Karaman",
    "capital": "admin",
    "population": "194018",
    "id": "1792285496"
  },
  {
    "city": "Muş",
    "city_ascii": "Mus",
    "lat": "38.7333",
    "lng": "41.4911",
    "country": "Turkey",
    "iso2": "TR",
    "iso3": "TUR",
    "admin_name": "Muş",
    "capital": "admin",
    "population": "193394",
    "id": "1792530937"
  },
  {
    "city": "Kırıkkale",
    "city_ascii": "Kirikkale",
    "lat": "39.8417",
    "lng": "33.5139",
    "country": "Turkey",
    "iso2": "TR",
    "iso3": "TUR",
    "admin_name": "Kırıkkale",
    "capital": "admin",
    "population": "193093",
    "id": "1792859558"
  },
  {
    "city": "Aydın",
    "city_ascii": "Aydin",
    "lat": "37.8481",
    "lng": "27.8453",
    "country": "Turkey",
    "iso2": "TR",
    "iso3": "TUR",
    "admin_name": "Aydın",
    "capital": "admin",
    "population": "191037",
    "id": "1792696058"
  },
  {
    "city": "Çanakkale",
    "city_ascii": "Canakkale",
    "lat": "40.1519",
    "lng": "26.4056",
    "country": "Turkey",
    "iso2": "TR",
    "iso3": "TUR",
    "admin_name": "Çanakkale",
    "capital": "admin",
    "population": "180823",
    "id": "1792403093"
  },
  {
    "city": "Edirne",
    "city_ascii": "Edirne",
    "lat": "41.6769",
    "lng": "26.5556",
    "country": "Turkey",
    "iso2": "TR",
    "iso3": "TUR",
    "admin_name": "Edirne",
    "capital": "admin",
    "population": "180327",
    "id": "1792102607"
  },
  {
    "city": "Torbalı",
    "city_ascii": "Torbali",
    "lat": "38.1619",
    "lng": "27.3583",
    "country": "Turkey",
    "iso2": "TR",
    "iso3": "TUR",
    "admin_name": "İzmir",
    "capital": "minor",
    "population": "178772",
    "id": "1792319298"
  },
  {
    "city": "Ereğli",
    "city_ascii": "Eregli",
    "lat": "41.2792",
    "lng": "31.4208",
    "country": "Turkey",
    "iso2": "TR",
    "iso3": "TUR",
    "admin_name": "Zonguldak",
    "capital": "minor",
    "population": "175605",
    "id": "1792160689"
  },
  {
    "city": "Bodrum",
    "city_ascii": "Bodrum",
    "lat": "37.0378",
    "lng": "27.4242",
    "country": "Turkey",
    "iso2": "TR",
    "iso3": "TUR",
    "admin_name": "Muğla",
    "capital": "minor",
    "population": "175000",
    "id": "1792047777"
  },
  {
    "city": "Menemen",
    "city_ascii": "Menemen",
    "lat": "38.6000",
    "lng": "27.0667",
    "country": "Turkey",
    "iso2": "TR",
    "iso3": "TUR",
    "admin_name": "İzmir",
    "capital": "minor",
    "population": "174564",
    "id": "1792699814"
  },
  {
    "city": "Akhisar",
    "city_ascii": "Akhisar",
    "lat": "38.9167",
    "lng": "27.8333",
    "country": "Turkey",
    "iso2": "TR",
    "iso3": "TUR",
    "admin_name": "Manisa",
    "capital": "minor",
    "population": "173026",
    "id": "1792301869"
  },
  {
    "city": "Talas",
    "city_ascii": "Talas",
    "lat": "38.6833",
    "lng": "35.5667",
    "country": "Turkey",
    "iso2": "TR",
    "iso3": "TUR",
    "admin_name": "Kayseri",
    "capital": "minor",
    "population": "165127",
    "id": "1792443013"
  },
  {
    "city": "Çerkezköy",
    "city_ascii": "Cerkezkoy",
    "lat": "41.2833",
    "lng": "28.0000",
    "country": "Turkey",
    "iso2": "TR",
    "iso3": "TUR",
    "admin_name": "Tekirdağ",
    "capital": "minor",
    "population": "166789",
    "id": "1792345398"
  },
  {
    "city": "Siirt",
    "city_ascii": "Siirt",
    "lat": "37.9250",
    "lng": "41.9458",
    "country": "Turkey",
    "iso2": "TR",
    "iso3": "TUR",
    "admin_name": "Siirt",
    "capital": "admin",
    "population": "166332",
    "id": "1792190820"
  },
  {
    "city": "Körfez",
    "city_ascii": "Korfez",
    "lat": "40.7833",
    "lng": "29.7333",
    "country": "Turkey",
    "iso2": "TR",
    "iso3": "TUR",
    "admin_name": "Kocaeli",
    "capital": "minor",
    "population": "165503",
    "id": "1792917174"
  },
  {
    "city": "Turgutlu",
    "city_ascii": "Turgutlu",
    "lat": "38.5000",
    "lng": "27.7000",
    "country": "Turkey",
    "iso2": "TR",
    "iso3": "TUR",
    "admin_name": "Manisa",
    "capital": "minor",
    "population": "163223",
    "id": "1792010631"
  },
  {
    "city": "Gölcük",
    "city_ascii": "Golcuk",
    "lat": "40.6667",
    "lng": "29.8333",
    "country": "Turkey",
    "iso2": "TR",
    "iso3": "TUR",
    "admin_name": "Kocaeli",
    "capital": "minor",
    "population": "162584",
    "id": "1792590945"
  },
  {
    "city": "Salihli",
    "city_ascii": "Salihli",
    "lat": "38.4811",
    "lng": "28.1392",
    "country": "Turkey",
    "iso2": "TR",
    "iso3": "TUR",
    "admin_name": "Manisa",
    "capital": "minor",
    "population": "161562",
    "id": "1792382417"
  },
  {
    "city": "Ceyhan",
    "city_ascii": "Ceyhan",
    "lat": "37.0289",
    "lng": "35.8125",
    "country": "Turkey",
    "iso2": "TR",
    "iso3": "TUR",
    "admin_name": "Adana",
    "capital": "minor",
    "population": "160474",
    "id": "1792949917"
  },
  {
    "city": "Bingöl",
    "city_ascii": "Bingol",
    "lat": "38.8861",
    "lng": "40.5017",
    "country": "Turkey",
    "iso2": "TR",
    "iso3": "TUR",
    "admin_name": "Bingöl",
    "capital": "admin",
    "population": "160165",
    "id": "1792920183"
  },
  {
    "city": "Fethiye",
    "city_ascii": "Fethiye",
    "lat": "36.6514",
    "lng": "29.1231",
    "country": "Turkey",
    "iso2": "TR",
    "iso3": "TUR",
    "admin_name": "Muğla",
    "capital": "minor",
    "population": "157745",
    "id": "1792001223"
  },
  {
    "city": "Erzincan",
    "city_ascii": "Erzincan",
    "lat": "39.7464",
    "lng": "39.4914",
    "country": "Turkey",
    "iso2": "TR",
    "iso3": "TUR",
    "admin_name": "Erzincan",
    "capital": "admin",
    "population": "157452",
    "id": "1792742754"
  },
  {
    "city": "Nazilli",
    "city_ascii": "Nazilli",
    "lat": "37.9125",
    "lng": "28.3206",
    "country": "Turkey",
    "iso2": "TR",
    "iso3": "TUR",
    "admin_name": "Aydın",
    "capital": "minor",
    "population": "156748",
    "id": "1792517713"
  },
  {
    "city": "Bartın",
    "city_ascii": "Bartin",
    "lat": "41.6344",
    "lng": "32.3375",
    "country": "Turkey",
    "iso2": "TR",
    "iso3": "TUR",
    "admin_name": "Bartın",
    "capital": "admin",
    "population": "155016",
    "id": "1792863603"
  },
  {
    "city": "Edremit",
    "city_ascii": "Edremit",
    "lat": "39.5922",
    "lng": "27.0200",
    "country": "Turkey",
    "iso2": "TR",
    "iso3": "TUR",
    "admin_name": "Balıkesir",
    "capital": "minor",
    "population": "154487",
    "id": "1792678708"
  },
  {
    "city": "Bandırma",
    "city_ascii": "Bandirma",
    "lat": "40.3500",
    "lng": "27.9667",
    "country": "Turkey",
    "iso2": "TR",
    "iso3": "TUR",
    "admin_name": "Balıkesir",
    "capital": "minor",
    "population": "154359",
    "id": "1792423107"
  },
  {
    "city": "Kırşehir",
    "city_ascii": "Kirsehir",
    "lat": "39.1456",
    "lng": "34.1608",
    "country": "Turkey",
    "iso2": "TR",
    "iso3": "TUR",
    "admin_name": "Kırşehir",
    "capital": "admin",
    "population": "153511",
    "id": "1792825471"
  },
  {
    "city": "Nevşehir",
    "city_ascii": "Nevsehir",
    "lat": "38.6264",
    "lng": "34.7139",
    "country": "Turkey",
    "iso2": "TR",
    "iso3": "TUR",
    "admin_name": "Nevşehir",
    "capital": "admin",
    "population": "153117",
    "id": "1792583760"
  },
  {
    "city": "Ağrı",
    "city_ascii": "Agri",
    "lat": "39.7186",
    "lng": "43.0508",
    "country": "Turkey",
    "iso2": "TR",
    "iso3": "TUR",
    "admin_name": "Ağrı",
    "capital": "admin",
    "population": "149188",
    "id": "1792385654"
  },
  {
    "city": "Amasya",
    "city_ascii": "Amasya",
    "lat": "40.6500",
    "lng": "35.8331",
    "country": "Turkey",
    "iso2": "TR",
    "iso3": "TUR",
    "admin_name": "Amasya",
    "capital": "admin",
    "population": "149084",
    "id": "1792344167"
  },
  {
    "city": "Kastamonu",
    "city_ascii": "Kastamonu",
    "lat": "41.3764",
    "lng": "33.7764",
    "country": "Turkey",
    "iso2": "TR",
    "iso3": "TUR",
    "admin_name": "Kastamonu",
    "capital": "admin",
    "population": "148931",
    "id": "1792386602"
  },
  {
    "city": "Lüleburgaz",
    "city_ascii": "Luleburgaz",
    "lat": "41.4056",
    "lng": "27.3569",
    "country": "Turkey",
    "iso2": "TR",
    "iso3": "TUR",
    "admin_name": "Kırklareli",
    "capital": "minor",
    "population": "148037",
    "id": "1792000752"
  },
  {
    "city": "Yalova",
    "city_ascii": "Yalova",
    "lat": "40.6556",
    "lng": "29.2750",
    "country": "Turkey",
    "iso2": "TR",
    "iso3": "TUR",
    "admin_name": "Yalova",
    "capital": "admin",
    "population": "144407",
    "id": "1792838138"
  },
  {
    "city": "Ereğli",
    "city_ascii": "Eregli",
    "lat": "37.5167",
    "lng": "34.0500",
    "country": "Turkey",
    "iso2": "TR",
    "iso3": "TUR",
    "admin_name": "Konya",
    "capital": "minor",
    "population": "145389",
    "id": "1792110470"
  },
  {
    "city": "Cizre",
    "city_ascii": "Cizre",
    "lat": "37.3320",
    "lng": "42.1870",
    "country": "Turkey",
    "iso2": "TR",
    "iso3": "TUR",
    "admin_name": "Şırnak",
    "capital": "minor",
    "population": "143124",
    "id": "1792431845"
  },
  {
    "city": "Elbistan",
    "city_ascii": "Elbistan",
    "lat": "38.2014",
    "lng": "37.1883",
    "country": "Turkey",
    "iso2": "TR",
    "iso3": "TUR",
    "admin_name": "Kahramanmaraş",
    "capital": "minor",
    "population": "143000",
    "id": "1792888538"
  },
  {
    "city": "Nizip",
    "city_ascii": "Nizip",
    "lat": "37.0100",
    "lng": "37.7972",
    "country": "Turkey",
    "iso2": "TR",
    "iso3": "TUR",
    "admin_name": "Gaziantep",
    "capital": "minor",
    "population": "142389",
    "id": "1792748330"
  },
  {
    "city": "Rize",
    "city_ascii": "Rize",
    "lat": "41.0247",
    "lng": "40.5222",
    "country": "Turkey",
    "iso2": "TR",
    "iso3": "TUR",
    "admin_name": "Rize",
    "capital": "admin",
    "population": "141143",
    "id": "1792024731"
  },
  {
    "city": "Çarşamba",
    "city_ascii": "Carsamba",
    "lat": "41.1992",
    "lng": "36.7275",
    "country": "Turkey",
    "iso2": "TR",
    "iso3": "TUR",
    "admin_name": "Samsun",
    "capital": "minor",
    "population": "138840",
    "id": "1792437640"
  },
  {
    "city": "Silivri",
    "city_ascii": "Silivri",
    "lat": "41.0736",
    "lng": "28.2478",
    "country": "Turkey",
    "iso2": "TR",
    "iso3": "TUR",
    "admin_name": "İstanbul",
    "capital": "minor",
    "population": "137861",
    "id": "1792110769"
  },
  {
    "city": "Iğdır",
    "city_ascii": "Igdir",
    "lat": "39.9208",
    "lng": "44.0444",
    "country": "Turkey",
    "iso2": "TR",
    "iso3": "TUR",
    "admin_name": "Iğdır",
    "capital": "admin",
    "population": "137613",
    "id": "1792813007"
  },
  {
    "city": "Giresun",
    "city_ascii": "Giresun",
    "lat": "40.9153",
    "lng": "38.3894",
    "country": "Turkey",
    "iso2": "TR",
    "iso3": "TUR",
    "admin_name": "Giresun",
    "capital": "admin",
    "population": "135920",
    "id": "1792486859"
  },
  {
    "city": "Silopi",
    "city_ascii": "Silopi",
    "lat": "37.2486",
    "lng": "42.4703",
    "country": "Turkey",
    "iso2": "TR",
    "iso3": "TUR",
    "admin_name": "Şırnak",
    "capital": "minor",
    "population": "134754",
    "id": "1792772640"
  },
  {
    "city": "Ödemiş",
    "city_ascii": "Odemis",
    "lat": "38.2311",
    "lng": "27.9719",
    "country": "Turkey",
    "iso2": "TR",
    "iso3": "TUR",
    "admin_name": "İzmir",
    "capital": "minor",
    "population": "132511",
    "id": "1792140925"
  },
  {
    "city": "Karabük",
    "city_ascii": "Karabuk",
    "lat": "41.1986",
    "lng": "32.6264",
    "country": "Turkey",
    "iso2": "TR",
    "iso3": "TUR",
    "admin_name": "Karabük",
    "capital": "admin",
    "population": "131989",
    "id": "1792834766"
  },
  {
    "city": "Kozan",
    "city_ascii": "Kozan",
    "lat": "37.4500",
    "lng": "35.8000",
    "country": "Turkey",
    "iso2": "TR",
    "iso3": "TUR",
    "admin_name": "Adana",
    "capital": "minor",
    "population": "130495",
    "id": "1792567030"
  },
  {
    "city": "Ergani",
    "city_ascii": "Ergani",
    "lat": "38.2692",
    "lng": "39.7617",
    "country": "Turkey",
    "iso2": "TR",
    "iso3": "TUR",
    "admin_name": "Diyarbakır",
    "capital": "minor",
    "population": "130105",
    "id": "1792939849"
  },
  {
    "city": "Çayırova",
    "city_ascii": "Cayirova",
    "lat": "40.8265",
    "lng": "29.3745",
    "country": "Turkey",
    "iso2": "TR",
    "iso3": "TUR",
    "admin_name": "Kocaeli",
    "capital": "minor",
    "population": "129655",
    "id": "1792546631"
  },
  {
    "city": "Ünye",
    "city_ascii": "Unye",
    "lat": "41.1333",
    "lng": "37.2833",
    "country": "Turkey",
    "iso2": "TR",
    "iso3": "TUR",
    "admin_name": "Ordu",
    "capital": "minor",
    "population": "126702",
    "id": "1792053028"
  },
  {
    "city": "Polatlı",
    "city_ascii": "Polatli",
    "lat": "39.5842",
    "lng": "32.1472",
    "country": "Turkey",
    "iso2": "TR",
    "iso3": "TUR",
    "admin_name": "Ankara",
    "capital": "minor",
    "population": "125075",
    "id": "1792124981"
  },
  {
    "city": "Serik",
    "city_ascii": "Serik",
    "lat": "36.9167",
    "lng": "31.1000",
    "country": "Turkey",
    "iso2": "TR",
    "iso3": "TUR",
    "admin_name": "Antalya",
    "capital": "minor",
    "population": "124335",
    "id": "1792809548"
  },
  {
    "city": "Kadirli",
    "city_ascii": "Kadirli",
    "lat": "37.3697",
    "lng": "36.1000",
    "country": "Turkey",
    "iso2": "TR",
    "iso3": "TUR",
    "admin_name": "Osmaniye",
    "capital": "minor",
    "population": "124053",
    "id": "1792113133"
  },
  {
    "city": "Patnos",
    "city_ascii": "Patnos",
    "lat": "39.2358",
    "lng": "42.8686",
    "country": "Turkey",
    "iso2": "TR",
    "iso3": "TUR",
    "admin_name": "Ağrı",
    "capital": "minor",
    "population": "122833",
    "id": "1792386113"
  },
  {
    "city": "Kâhta",
    "city_ascii": "Kahta",
    "lat": "37.7803",
    "lng": "38.6217",
    "country": "Turkey",
    "iso2": "TR",
    "iso3": "TUR",
    "admin_name": "Adıyaman",
    "capital": "minor",
    "population": "122774",
    "id": "1792788928"
  },
  {
    "city": "Samandağ",
    "city_ascii": "Samandag",
    "lat": "36.0850",
    "lng": "35.9806",
    "country": "Turkey",
    "iso2": "TR",
    "iso3": "TUR",
    "admin_name": "Hatay",
    "capital": "minor",
    "population": "121109",
    "id": "1792813864"
  },
  {
    "city": "Doğubayazıt",
    "city_ascii": "Dogubayazit",
    "lat": "39.5472",
    "lng": "44.0833",
    "country": "Turkey",
    "iso2": "TR",
    "iso3": "TUR",
    "admin_name": "Ağrı",
    "capital": "minor",
    "population": "121263",
    "id": "1792572929"
  },
  {
    "city": "Zonguldak",
    "city_ascii": "Zonguldak",
    "lat": "41.4564",
    "lng": "31.7986",
    "country": "Turkey",
    "iso2": "TR",
    "iso3": "TUR",
    "admin_name": "Zonguldak",
    "capital": "admin",
    "population": "120395",
    "id": "1792410633"
  },
  {
    "city": "Söke",
    "city_ascii": "Soke",
    "lat": "37.7508",
    "lng": "27.4103",
    "country": "Turkey",
    "iso2": "TR",
    "iso3": "TUR",
    "admin_name": "Aydın",
    "capital": "minor",
    "population": "120217",
    "id": "1792512916"
  },
  {
    "city": "Yüksekova",
    "city_ascii": "Yuksekova",
    "lat": "37.5690",
    "lng": "44.2830",
    "country": "Turkey",
    "iso2": "TR",
    "iso3": "TUR",
    "admin_name": "Hakkâri",
    "capital": "minor",
    "population": "119760",
    "id": "1792812119"
  },
  {
    "city": "Silifke",
    "city_ascii": "Silifke",
    "lat": "36.3761",
    "lng": "33.9322",
    "country": "Turkey",
    "iso2": "TR",
    "iso3": "TUR",
    "admin_name": "Mersin",
    "capital": "minor",
    "population": "119303",
    "id": "1792517279"
  },
  {
    "city": "Karatepe",
    "city_ascii": "Karatepe",
    "lat": "40.7333",
    "lng": "29.9667",
    "country": "Turkey",
    "iso2": "TR",
    "iso3": "TUR",
    "admin_name": "Kocaeli",
    "capital": "",
    "population": "118066",
    "id": "1792291745"
  },
  {
    "city": "Niğde",
    "city_ascii": "Nigde",
    "lat": "37.9667",
    "lng": "34.6792",
    "country": "Turkey",
    "iso2": "TR",
    "iso3": "TUR",
    "admin_name": "Niğde",
    "capital": "admin",
    "population": "118186",
    "id": "1792867993"
  },
  {
    "city": "Kapaklı",
    "city_ascii": "Kapakli",
    "lat": "41.3333",
    "lng": "27.9667",
    "country": "Turkey",
    "iso2": "TR",
    "iso3": "TUR",
    "admin_name": "Tekirdağ",
    "capital": "minor",
    "population": "116882",
    "id": "1792061507"
  },
  {
    "city": "Fatsa",
    "city_ascii": "Fatsa",
    "lat": "41.0333",
    "lng": "37.5000",
    "country": "Turkey",
    "iso2": "TR",
    "iso3": "TUR",
    "admin_name": "Ordu",
    "capital": "minor",
    "population": "116154",
    "id": "1792778914"
  },
  {
    "city": "Kilis",
    "city_ascii": "Kilis",
    "lat": "36.7167",
    "lng": "37.1167",
    "country": "Turkey",
    "iso2": "TR",
    "iso3": "TUR",
    "admin_name": "Kilis",
    "capital": "admin",
    "population": "116034",
    "id": "1792866362"
  },
  {
    "city": "Kars",
    "city_ascii": "Kars",
    "lat": "40.6078",
    "lng": "43.0958",
    "country": "Turkey",
    "iso2": "TR",
    "iso3": "TUR",
    "admin_name": "Kars",
    "capital": "admin",
    "population": "115891",
    "id": "1792000464"
  },
  {
    "city": "Kuşadası",
    "city_ascii": "Kusadasi",
    "lat": "37.8597",
    "lng": "27.2597",
    "country": "Turkey",
    "iso2": "TR",
    "iso3": "TUR",
    "admin_name": "İzmir",
    "capital": "minor",
    "population": "113580",
    "id": "1792759260"
  },
  {
    "city": "Midyat",
    "city_ascii": "Midyat",
    "lat": "37.4167",
    "lng": "41.3697",
    "country": "Turkey",
    "iso2": "TR",
    "iso3": "TUR",
    "admin_name": "Mardin",
    "capital": "minor",
    "population": "113367",
    "id": "1792815153"
  },
  {
    "city": "Akçakale",
    "city_ascii": "Akcakale",
    "lat": "36.7108",
    "lng": "38.9478",
    "country": "Turkey",
    "iso2": "TR",
    "iso3": "TUR",
    "admin_name": "Şanlıurfa",
    "capital": "minor",
    "population": "113194",
    "id": "1792050087"
  },
  {
    "city": "Burdur",
    "city_ascii": "Burdur",
    "lat": "37.7194",
    "lng": "30.2833",
    "country": "Turkey",
    "iso2": "TR",
    "iso3": "TUR",
    "admin_name": "Burdur",
    "capital": "admin",
    "population": "113077",
    "id": "1792413556"
  },
  {
    "city": "Soma",
    "city_ascii": "Soma",
    "lat": "39.1883",
    "lng": "27.6089",
    "country": "Turkey",
    "iso2": "TR",
    "iso3": "TUR",
    "admin_name": "Manisa",
    "capital": "minor",
    "population": "108981",
    "id": "1792461536"
  },
  {
    "city": "Kemalpaşa",
    "city_ascii": "Kemalpasa",
    "lat": "38.4278",
    "lng": "27.4161",
    "country": "Turkey",
    "iso2": "TR",
    "iso3": "TUR",
    "admin_name": "İzmir",
    "capital": "minor",
    "population": "106298",
    "id": "1792611875"
  },
  {
    "city": "Nusaybin",
    "city_ascii": "Nusaybin",
    "lat": "37.0750",
    "lng": "41.2153",
    "country": "Turkey",
    "iso2": "TR",
    "iso3": "TUR",
    "admin_name": "Mardin",
    "capital": "minor",
    "population": "105856",
    "id": "1792327949"
  },
  {
    "city": "Alaşehir",
    "city_ascii": "Alasehir",
    "lat": "38.3500",
    "lng": "28.5167",
    "country": "Turkey",
    "iso2": "TR",
    "iso3": "TUR",
    "admin_name": "Manisa",
    "capital": "minor",
    "population": "105145",
    "id": "1792803121"
  },
  {
    "city": "Yozgat",
    "city_ascii": "Yozgat",
    "lat": "39.8208",
    "lng": "34.8083",
    "country": "Turkey",
    "iso2": "TR",
    "iso3": "TUR",
    "admin_name": "Yozgat",
    "capital": "admin",
    "population": "105167",
    "id": "1792862455"
  },
  {
    "city": "Suruç",
    "city_ascii": "Suruc",
    "lat": "36.9764",
    "lng": "38.4269",
    "country": "Turkey",
    "iso2": "TR",
    "iso3": "TUR",
    "admin_name": "Şanlıurfa",
    "capital": "minor",
    "population": "104302",
    "id": "1792909050"
  },
  {
    "city": "Bergama",
    "city_ascii": "Bergama",
    "lat": "39.1167",
    "lng": "27.1833",
    "country": "Turkey",
    "iso2": "TR",
    "iso3": "TUR",
    "admin_name": "İzmir",
    "capital": "minor",
    "population": "103185",
    "id": "1792434888"
  },
  {
    "city": "Tavşanlı",
    "city_ascii": "Tavsanli",
    "lat": "39.5333",
    "lng": "29.4833",
    "country": "Turkey",
    "iso2": "TR",
    "iso3": "TUR",
    "admin_name": "Kütahya",
    "capital": "minor",
    "population": "101903",
    "id": "1792642994"
  },
  {
    "city": "Çankırı",
    "city_ascii": "Cankiri",
    "lat": "40.5986",
    "lng": "33.6192",
    "country": "Turkey",
    "iso2": "TR",
    "iso3": "TUR",
    "admin_name": "Çankırı",
    "capital": "admin",
    "population": "96025",
    "id": "1792584248"
  },
  {
    "city": "Şırnak",
    "city_ascii": "Sirnak",
    "lat": "37.5200",
    "lng": "42.4590",
    "country": "Turkey",
    "iso2": "TR",
    "iso3": "TUR",
    "admin_name": "Şırnak",
    "capital": "admin",
    "population": "93431",
    "id": "1792867633"
  },
  {
    "city": "Mardin",
    "city_ascii": "Mardin",
    "lat": "37.3131",
    "lng": "40.7350",
    "country": "Turkey",
    "iso2": "TR",
    "iso3": "TUR",
    "admin_name": "Mardin",
    "capital": "admin",
    "population": "86948",
    "id": "1792546179"
  },
  {
    "city": "Bilecik",
    "city_ascii": "Bilecik",
    "lat": "40.1431",
    "lng": "29.9792",
    "country": "Turkey",
    "iso2": "TR",
    "iso3": "TUR",
    "admin_name": "Bilecik",
    "capital": "admin",
    "population": "81723",
    "id": "1792408667"
  },
  {
    "city": "Hakkari",
    "city_ascii": "Hakkari",
    "lat": "37.5770",
    "lng": "43.7390",
    "country": "Turkey",
    "iso2": "TR",
    "iso3": "TUR",
    "admin_name": "Hakkâri",
    "capital": "admin",
    "population": "81424",
    "id": "1792629133"
  },
  {
    "city": "Bitlis",
    "city_ascii": "Bitlis",
    "lat": "38.4000",
    "lng": "42.1083",
    "country": "Turkey",
    "iso2": "TR",
    "iso3": "TUR",
    "admin_name": "Bitlis",
    "capital": "admin",
    "population": "71501",
    "id": "1792490436"
  },
  {
    "city": "Bayburt",
    "city_ascii": "Bayburt",
    "lat": "40.2597",
    "lng": "40.2278",
    "country": "Turkey",
    "iso2": "TR",
    "iso3": "TUR",
    "admin_name": "Bayburt",
    "capital": "admin",
    "population": "66633",
    "id": "1792400872"
  },
  {
    "city": "Kırklareli",
    "city_ascii": "Kirklareli",
    "lat": "41.7347",
    "lng": "27.2253",
    "country": "Turkey",
    "iso2": "TR",
    "iso3": "TUR",
    "admin_name": "Kırklareli",
    "capital": "admin",
    "population": "61880",
    "id": "1792182918"
  },
  {
    "city": "Gümüşhane",
    "city_ascii": "Gumushane",
    "lat": "40.4597",
    "lng": "39.4778",
    "country": "Turkey",
    "iso2": "TR",
    "iso3": "TUR",
    "admin_name": "Gümüşhane",
    "capital": "admin",
    "population": "57269",
    "id": "1792559945"
  },
  {
    "city": "Muğla",
    "city_ascii": "Mugla",
    "lat": "37.2167",
    "lng": "28.3667",
    "country": "Turkey",
    "iso2": "TR",
    "iso3": "TUR",
    "admin_name": "Muğla",
    "capital": "admin",
    "population": "56619",
    "id": "1792992104"
  },
  {
    "city": "Ardahan",
    "city_ascii": "Ardahan",
    "lat": "41.1111",
    "lng": "42.7022",
    "country": "Turkey",
    "iso2": "TR",
    "iso3": "TUR",
    "admin_name": "Ardahan",
    "capital": "admin",
    "population": "42226",
    "id": "1792379425"
  },
  {
    "city": "Tunceli",
    "city_ascii": "Tunceli",
    "lat": "39.1064",
    "lng": "39.5472",
    "country": "Turkey",
    "iso2": "TR",
    "iso3": "TUR",
    "admin_name": "Tunceli",
    "capital": "admin",
    "population": "38504",
    "id": "1792507574"
  },
  {
    "city": "Artvin",
    "city_ascii": "Artvin",
    "lat": "41.1833",
    "lng": "41.8181",
    "country": "Turkey",
    "iso2": "TR",
    "iso3": "TUR",
    "admin_name": "Artvin",
    "capital": "admin",
    "population": "35081",
    "id": "1792320984"
  },
  {
    "city": "Sinop",
    "city_ascii": "Sinop",
    "lat": "42.0267",
    "lng": "35.1511",
    "country": "Turkey",
    "iso2": "TR",
    "iso3": "TUR",
    "admin_name": "Sinop",
    "capital": "admin",
    "population": "13354",
    "id": "1792497865"
  },
  {
    "city": "Reyhanlı",
    "city_ascii": "Reyhanli",
    "lat": "36.2692",
    "lng": "36.5672",
    "country": "Turkey",
    "iso2": "TR",
    "iso3": "TUR",
    "admin_name": "Hatay",
    "capital": "minor",
    "population": "98534",
    "id": "1792253206"
  },
  {
    "city": "Aşağıçinik",
    "city_ascii": "Asagicinik",
    "lat": "41.2719",
    "lng": "36.3508",
    "country": "Turkey",
    "iso2": "TR",
    "iso3": "TUR",
    "admin_name": "Samsun",
    "capital": "",
    "population": "97564",
    "id": "1792977425"
  },
  {
    "city": "Bafra",
    "city_ascii": "Bafra",
    "lat": "41.5722",
    "lng": "35.9147",
    "country": "Turkey",
    "iso2": "TR",
    "iso3": "TUR",
    "admin_name": "Samsun",
    "capital": "minor",
    "population": "97452",
    "id": "1792560571"
  },
  {
    "city": "Aliağa",
    "city_ascii": "Aliaga",
    "lat": "38.8008",
    "lng": "26.9728",
    "country": "Turkey",
    "iso2": "TR",
    "iso3": "TUR",
    "admin_name": "İzmir",
    "capital": "minor",
    "population": "95392",
    "id": "1792034311"
  },
  {
    "city": "Erbaa",
    "city_ascii": "Erbaa",
    "lat": "40.6667",
    "lng": "36.5667",
    "country": "Turkey",
    "iso2": "TR",
    "iso3": "TUR",
    "admin_name": "Tokat",
    "capital": "minor",
    "population": "95361",
    "id": "1792516897"
  },
  {
    "city": "Birecik",
    "city_ascii": "Birecik",
    "lat": "37.0250",
    "lng": "37.9769",
    "country": "Turkey",
    "iso2": "TR",
    "iso3": "TUR",
    "admin_name": "Şanlıurfa",
    "capital": "minor",
    "population": "95149",
    "id": "1792775983"
  },
  {
    "city": "Marmaris",
    "city_ascii": "Marmaris",
    "lat": "36.8500",
    "lng": "28.2667",
    "country": "Turkey",
    "iso2": "TR",
    "iso3": "TUR",
    "admin_name": "Muğla",
    "capital": "minor",
    "population": "94247",
    "id": "1792982553"
  },
  {
    "city": "Menderes",
    "city_ascii": "Menderes",
    "lat": "38.2540",
    "lng": "27.1340",
    "country": "Turkey",
    "iso2": "TR",
    "iso3": "TUR",
    "admin_name": "İzmir",
    "capital": "minor",
    "population": "93796",
    "id": "1792033881"
  },
  {
    "city": "Akşehir",
    "city_ascii": "Aksehir",
    "lat": "38.3575",
    "lng": "31.4164",
    "country": "Turkey",
    "iso2": "TR",
    "iso3": "TUR",
    "admin_name": "Konya",
    "capital": "minor",
    "population": "93233",
    "id": "1792359338"
  },
  {
    "city": "Erciş",
    "city_ascii": "Ercis",
    "lat": "39.0311",
    "lng": "43.3597",
    "country": "Turkey",
    "iso2": "TR",
    "iso3": "TUR",
    "admin_name": "Van",
    "capital": "minor",
    "population": "92945",
    "id": "1792489856"
  },
  {
    "city": "Tatvan",
    "city_ascii": "Tatvan",
    "lat": "38.5022",
    "lng": "42.2814",
    "country": "Turkey",
    "iso2": "TR",
    "iso3": "TUR",
    "admin_name": "Bitlis",
    "capital": "minor",
    "population": "92695",
    "id": "1792530559"
  },
  {
    "city": "Çaycuma",
    "city_ascii": "Caycuma",
    "lat": "41.4267",
    "lng": "32.0758",
    "country": "Turkey",
    "iso2": "TR",
    "iso3": "TUR",
    "admin_name": "Zonguldak",
    "capital": "minor",
    "population": "91569",
    "id": "1792376720"
  },
  {
    "city": "Biga",
    "city_ascii": "Biga",
    "lat": "40.2281",
    "lng": "27.2422",
    "country": "Turkey",
    "iso2": "TR",
    "iso3": "TUR",
    "admin_name": "Çanakkale",
    "capital": "minor",
    "population": "90576",
    "id": "1792033601"
  },
  {
    "city": "Arsuz",
    "city_ascii": "Arsuz",
    "lat": "36.4128",
    "lng": "35.8867",
    "country": "Turkey",
    "iso2": "TR",
    "iso3": "TUR",
    "admin_name": "Hatay",
    "capital": "minor",
    "population": "90456",
    "id": "1792450466"
  },
  {
    "city": "Akyazı",
    "city_ascii": "Akyazi",
    "lat": "40.6833",
    "lng": "30.6253",
    "country": "Turkey",
    "iso2": "TR",
    "iso3": "TUR",
    "admin_name": "Sakarya",
    "capital": "minor",
    "population": "89301",
    "id": "1792667046"
  },
  {
    "city": "Ceylanpınar",
    "city_ascii": "Ceylanpinar",
    "lat": "36.8461",
    "lng": "40.0489",
    "country": "Turkey",
    "iso2": "TR",
    "iso3": "TUR",
    "admin_name": "Şanlıurfa",
    "capital": "minor",
    "population": "87684",
    "id": "1792768664"
  },
  {
    "city": "Tire",
    "city_ascii": "Tire",
    "lat": "38.0833",
    "lng": "27.7333",
    "country": "Turkey",
    "iso2": "TR",
    "iso3": "TUR",
    "admin_name": "İzmir",
    "capital": "minor",
    "population": "84457",
    "id": "1792346729"
  },
  {
    "city": "Afşin",
    "city_ascii": "Afsin",
    "lat": "38.2500",
    "lng": "36.9167",
    "country": "Turkey",
    "iso2": "TR",
    "iso3": "TUR",
    "admin_name": "Kahramanmaraş",
    "capital": "minor",
    "population": "81423",
    "id": "1792739931"
  },
  {
    "city": "Bulanık",
    "city_ascii": "Bulanik",
    "lat": "39.0950",
    "lng": "42.2667",
    "country": "Turkey",
    "iso2": "TR",
    "iso3": "TUR",
    "admin_name": "Muş",
    "capital": "minor",
    "population": "80540",
    "id": "1792108880"
  },
  {
    "city": "Turhal",
    "city_ascii": "Turhal",
    "lat": "40.3900",
    "lng": "36.0900",
    "country": "Turkey",
    "iso2": "TR",
    "iso3": "TUR",
    "admin_name": "Tokat",
    "capital": "minor",
    "population": "79916",
    "id": "1792534249"
  },
  {
    "city": "Sorgun",
    "city_ascii": "Sorgun",
    "lat": "39.8144",
    "lng": "35.1903",
    "country": "Turkey",
    "iso2": "TR",
    "iso3": "TUR",
    "admin_name": "Yozgat",
    "capital": "minor",
    "population": "79314",
    "id": "1792669012"
  },
  {
    "city": "İdil",
    "city_ascii": "Idil",
    "lat": "37.3410",
    "lng": "41.8940",
    "country": "Turkey",
    "iso2": "TR",
    "iso3": "TUR",
    "admin_name": "Şırnak",
    "capital": "minor",
    "population": "76523",
    "id": "1792618230"
  },
  {
    "city": "Bozüyük",
    "city_ascii": "Bozuyuk",
    "lat": "39.9078",
    "lng": "30.0367",
    "country": "Turkey",
    "iso2": "TR",
    "iso3": "TUR",
    "admin_name": "Bilecik",
    "capital": "minor",
    "population": "74441",
    "id": "1792194878"
  },
  {
    "city": "Çınar",
    "city_ascii": "Cinar",
    "lat": "37.7242",
    "lng": "40.4150",
    "country": "Turkey",
    "iso2": "TR",
    "iso3": "TUR",
    "admin_name": "Diyarbakır",
    "capital": "minor",
    "population": "74207",
    "id": "1792038099"
  },
  {
    "city": "Türkoğlu",
    "city_ascii": "Turkoglu",
    "lat": "37.3914",
    "lng": "36.8522",
    "country": "Turkey",
    "iso2": "TR",
    "iso3": "TUR",
    "admin_name": "Kahramanmaraş",
    "capital": "minor",
    "population": "73770",
    "id": "1792828944"
  },
  {
    "city": "Beyşehir",
    "city_ascii": "Beysehir",
    "lat": "37.6764",
    "lng": "31.7261",
    "country": "Turkey",
    "iso2": "TR",
    "iso3": "TUR",
    "admin_name": "Konya",
    "capital": "minor",
    "population": "73768",
    "id": "1792946985"
  },
  {
    "city": "Belek",
    "city_ascii": "Belek",
    "lat": "36.8500",
    "lng": "31.0500",
    "country": "Turkey",
    "iso2": "TR",
    "iso3": "TUR",
    "admin_name": "Antalya",
    "capital": "",
    "population": "73260",
    "id": "1792081004"
  },
  {
    "city": "Çatalca",
    "city_ascii": "Catalca",
    "lat": "41.1417",
    "lng": "28.4631",
    "country": "Turkey",
    "iso2": "TR",
    "iso3": "TUR",
    "admin_name": "İstanbul",
    "capital": "minor",
    "population": "72966",
    "id": "1792373818"
  },
  {
    "city": "Merzifon",
    "city_ascii": "Merzifon",
    "lat": "40.8750",
    "lng": "35.4633",
    "country": "Turkey",
    "iso2": "TR",
    "iso3": "TUR",
    "admin_name": "Amasya",
    "capital": "minor",
    "population": "71916",
    "id": "1792470511"
  },
  {
    "city": "Ayvalık",
    "city_ascii": "Ayvalik",
    "lat": "39.3167",
    "lng": "26.6944",
    "country": "Turkey",
    "iso2": "TR",
    "iso3": "TUR",
    "admin_name": "Balıkesir",
    "capital": "minor",
    "population": "71063",
    "id": "1792417776"
  },
  {
    "city": "İslahiye",
    "city_ascii": "Islahiye",
    "lat": "37.0250",
    "lng": "36.6345",
    "country": "Turkey",
    "iso2": "TR",
    "iso3": "TUR",
    "admin_name": "Gaziantep",
    "capital": "minor",
    "population": "67674",
    "id": "1792369096"
  },
  {
    "city": "Bulancak",
    "city_ascii": "Bulancak",
    "lat": "40.9333",
    "lng": "38.2333",
    "country": "Turkey",
    "iso2": "TR",
    "iso3": "TUR",
    "admin_name": "Giresun",
    "capital": "minor",
    "population": "66736",
    "id": "1792627106"
  },
  {
    "city": "Çumra",
    "city_ascii": "Cumra",
    "lat": "37.5750",
    "lng": "32.7747",
    "country": "Turkey",
    "iso2": "TR",
    "iso3": "TUR",
    "admin_name": "Konya",
    "capital": "minor",
    "population": "66794",
    "id": "1792642488"
  },
  {
    "city": "Urla",
    "city_ascii": "Urla",
    "lat": "38.3222",
    "lng": "26.7647",
    "country": "Turkey",
    "iso2": "TR",
    "iso3": "TUR",
    "admin_name": "İzmir",
    "capital": "minor",
    "population": "66360",
    "id": "1792891509"
  },
  {
    "city": "Anamur",
    "city_ascii": "Anamur",
    "lat": "36.0243",
    "lng": "32.8026",
    "country": "Turkey",
    "iso2": "TR",
    "iso3": "TUR",
    "admin_name": "Mersin",
    "capital": "minor",
    "population": "65920",
    "id": "1792088719"
  },
  {
    "city": "Develi",
    "city_ascii": "Develi",
    "lat": "38.3886",
    "lng": "35.4925",
    "country": "Turkey",
    "iso2": "TR",
    "iso3": "TUR",
    "admin_name": "Kayseri",
    "capital": "minor",
    "population": "65322",
    "id": "1792088923"
  },
  {
    "city": "Bucak",
    "city_ascii": "Bucak",
    "lat": "37.4592",
    "lng": "30.5953",
    "country": "Turkey",
    "iso2": "TR",
    "iso3": "TUR",
    "admin_name": "Burdur",
    "capital": "minor",
    "population": "64943",
    "id": "1792073114"
  },
  {
    "city": "Seydişehir",
    "city_ascii": "Seydisehir",
    "lat": "37.4183",
    "lng": "31.8506",
    "country": "Turkey",
    "iso2": "TR",
    "iso3": "TUR",
    "admin_name": "Konya",
    "capital": "minor",
    "population": "64687",
    "id": "1792010255"
  },
  {
    "city": "Niksar",
    "city_ascii": "Niksar",
    "lat": "40.5833",
    "lng": "36.9667",
    "country": "Turkey",
    "iso2": "TR",
    "iso3": "TUR",
    "admin_name": "Tokat",
    "capital": "minor",
    "population": "64119",
    "id": "1792863464"
  },
  {
    "city": "Simav",
    "city_ascii": "Simav",
    "lat": "39.0833",
    "lng": "28.9833",
    "country": "Turkey",
    "iso2": "TR",
    "iso3": "TUR",
    "admin_name": "Kütahya",
    "capital": "minor",
    "population": "64015",
    "id": "1792011375"
  },
  {
    "city": "Çaldıran",
    "city_ascii": "Caldiran",
    "lat": "39.1419",
    "lng": "43.9139",
    "country": "Turkey",
    "iso2": "TR",
    "iso3": "TUR",
    "admin_name": "Van",
    "capital": "minor",
    "population": "63013",
    "id": "1792259607"
  },
  {
    "city": "Mut",
    "city_ascii": "Mut",
    "lat": "36.6333",
    "lng": "33.4333",
    "country": "Turkey",
    "iso2": "TR",
    "iso3": "TUR",
    "admin_name": "Mersin",
    "capital": "minor",
    "population": "62853",
    "id": "1792759065"
  },
  {
    "city": "Derik",
    "city_ascii": "Derik",
    "lat": "37.3658",
    "lng": "40.2697",
    "country": "Turkey",
    "iso2": "TR",
    "iso3": "TUR",
    "admin_name": "Mardin",
    "capital": "minor",
    "population": "61830",
    "id": "1792566919"
  },
  {
    "city": "Uzunköprü",
    "city_ascii": "Uzunkopru",
    "lat": "41.2669",
    "lng": "26.6875",
    "country": "Turkey",
    "iso2": "TR",
    "iso3": "TUR",
    "admin_name": "Edirne",
    "capital": "minor",
    "population": "61485",
    "id": "1792592620"
  },
  {
    "city": "Kozluk",
    "city_ascii": "Kozluk",
    "lat": "38.1944",
    "lng": "41.4911",
    "country": "Turkey",
    "iso2": "TR",
    "iso3": "TUR",
    "admin_name": "Batman",
    "capital": "minor",
    "population": "61437",
    "id": "1792509022"
  },
  {
    "city": "Burhaniye",
    "city_ascii": "Burhaniye",
    "lat": "39.5000",
    "lng": "26.9500",
    "country": "Turkey",
    "iso2": "TR",
    "iso3": "TUR",
    "admin_name": "Balıkesir",
    "capital": "minor",
    "population": "60799",
    "id": "1792560053"
  },
  {
    "city": "Çivril",
    "city_ascii": "Civril",
    "lat": "38.3014",
    "lng": "29.7386",
    "country": "Turkey",
    "iso2": "TR",
    "iso3": "TUR",
    "admin_name": "Denizli",
    "capital": "minor",
    "population": "60429",
    "id": "1792021395"
  },
  {
    "city": "Bor",
    "city_ascii": "Bor",
    "lat": "37.8833",
    "lng": "34.5667",
    "country": "Turkey",
    "iso2": "TR",
    "iso3": "TUR",
    "admin_name": "Niğde",
    "capital": "minor",
    "population": "60335",
    "id": "1792531194"
  },
  {
    "city": "Kaş",
    "city_ascii": "Kas",
    "lat": "36.2000",
    "lng": "29.6349",
    "country": "Turkey",
    "iso2": "TR",
    "iso3": "TUR",
    "admin_name": "Antalya",
    "capital": "minor",
    "population": "58600",
    "id": "1792585060"
  },
  {
    "city": "Hassa",
    "city_ascii": "Hassa",
    "lat": "36.7994",
    "lng": "36.5178",
    "country": "Turkey",
    "iso2": "TR",
    "iso3": "TUR",
    "admin_name": "Hatay",
    "capital": "minor",
    "population": "56409",
    "id": "1792468657"
  },
  {
    "city": "Zile",
    "city_ascii": "Zile",
    "lat": "40.3000",
    "lng": "35.8833",
    "country": "Turkey",
    "iso2": "TR",
    "iso3": "TUR",
    "admin_name": "Tokat",
    "capital": "minor",
    "population": "55673",
    "id": "1792365916"
  },
  {
    "city": "Acıpayam",
    "city_ascii": "Acipayam",
    "lat": "37.4250",
    "lng": "29.3539",
    "country": "Turkey",
    "iso2": "TR",
    "iso3": "TUR",
    "admin_name": "Denizli",
    "capital": "minor",
    "population": "55141",
    "id": "1792192202"
  },
  {
    "city": "Saruhanlı",
    "city_ascii": "Saruhanli",
    "lat": "38.7342",
    "lng": "27.5658",
    "country": "Turkey",
    "iso2": "TR",
    "iso3": "TUR",
    "admin_name": "Manisa",
    "capital": "minor",
    "population": "54660",
    "id": "1792520921"
  },
  {
    "city": "Kızılpınar",
    "city_ascii": "Kizilpinar",
    "lat": "41.2667",
    "lng": "27.9667",
    "country": "Turkey",
    "iso2": "TR",
    "iso3": "TUR",
    "admin_name": "Tekirdağ",
    "capital": "",
    "population": "54268",
    "id": "1792011924"
  },
  {
    "city": "Malkara",
    "city_ascii": "Malkara",
    "lat": "40.8933",
    "lng": "26.9042",
    "country": "Turkey",
    "iso2": "TR",
    "iso3": "TUR",
    "admin_name": "Tekirdağ",
    "capital": "minor",
    "population": "52758",
    "id": "1792489159"
  },
  {
    "city": "Başkale",
    "city_ascii": "Baskale",
    "lat": "38.0475",
    "lng": "44.0150",
    "country": "Turkey",
    "iso2": "TR",
    "iso3": "TUR",
    "admin_name": "Van",
    "capital": "minor",
    "population": "52544",
    "id": "1792787410"
  },
  {
    "city": "Cihanbeyli",
    "city_ascii": "Cihanbeyli",
    "lat": "38.6581",
    "lng": "32.9281",
    "country": "Turkey",
    "iso2": "TR",
    "iso3": "TUR",
    "admin_name": "Konya",
    "capital": "minor",
    "population": "52525",
    "id": "1792274655"
  },
  {
    "city": "Tekkeköy",
    "city_ascii": "Tekkekoy",
    "lat": "41.2125",
    "lng": "36.4569",
    "country": "Turkey",
    "iso2": "TR",
    "iso3": "TUR",
    "admin_name": "Samsun",
    "capital": "minor",
    "population": "52258",
    "id": "1792843617"
  },
  {
    "city": "İncirliova",
    "city_ascii": "Incirliova",
    "lat": "37.8547",
    "lng": "27.7236",
    "country": "Turkey",
    "iso2": "TR",
    "iso3": "TUR",
    "admin_name": "Aydın",
    "capital": "minor",
    "population": "51526",
    "id": "1792559579"
  },
  {
    "city": "Çermik",
    "city_ascii": "Cermik",
    "lat": "38.1372",
    "lng": "39.4511",
    "country": "Turkey",
    "iso2": "TR",
    "iso3": "TUR",
    "admin_name": "Diyarbakır",
    "capital": "minor",
    "population": "50812",
    "id": "1792975687"
  },
  {
    "city": "Bigadiç",
    "city_ascii": "Bigadic",
    "lat": "39.3925",
    "lng": "28.1311",
    "country": "Turkey",
    "iso2": "TR",
    "iso3": "TUR",
    "admin_name": "Balıkesir",
    "capital": "minor",
    "population": "49887",
    "id": "1792014763"
  },
  {
    "city": "Gediz",
    "city_ascii": "Gediz",
    "lat": "39.0417",
    "lng": "29.4100",
    "country": "Turkey",
    "iso2": "TR",
    "iso3": "TUR",
    "admin_name": "Kütahya",
    "capital": "minor",
    "population": "49827",
    "id": "1792980894"
  },
  {
    "city": "Çine",
    "city_ascii": "Cine",
    "lat": "37.6117",
    "lng": "28.0614",
    "country": "Turkey",
    "iso2": "TR",
    "iso3": "TUR",
    "admin_name": "Aydın",
    "capital": "minor",
    "population": "49760",
    "id": "1792704381"
  },
  {
    "city": "Karapınar",
    "city_ascii": "Karapinar",
    "lat": "37.7147",
    "lng": "33.5508",
    "country": "Turkey",
    "iso2": "TR",
    "iso3": "TUR",
    "admin_name": "Konya",
    "capital": "minor",
    "population": "49766",
    "id": "1792985511"
  },
  {
    "city": "Araklı",
    "city_ascii": "Arakli",
    "lat": "40.9333",
    "lng": "40.0500",
    "country": "Turkey",
    "iso2": "TR",
    "iso3": "TUR",
    "admin_name": "Trabzon",
    "capital": "minor",
    "population": "49496",
    "id": "1792527664"
  },
  {
    "city": "Saray",
    "city_ascii": "Saray",
    "lat": "41.4411",
    "lng": "27.9216",
    "country": "Turkey",
    "iso2": "TR",
    "iso3": "TUR",
    "admin_name": "Tekirdağ",
    "capital": "minor",
    "population": "49106",
    "id": "1792499882"
  },
  {
    "city": "Sungurlu",
    "city_ascii": "Sungurlu",
    "lat": "40.1610",
    "lng": "34.3770",
    "country": "Turkey",
    "iso2": "TR",
    "iso3": "TUR",
    "admin_name": "Çorum",
    "capital": "minor",
    "population": "49082",
    "id": "1792574243"
  },
  {
    "city": "Kozlu",
    "city_ascii": "Kozlu",
    "lat": "41.4333",
    "lng": "31.7500",
    "country": "Turkey",
    "iso2": "TR",
    "iso3": "TUR",
    "admin_name": "Zonguldak",
    "capital": "minor",
    "population": "48381",
    "id": "1792656929"
  },
  {
    "city": "Babaeski",
    "city_ascii": "Babaeski",
    "lat": "41.4325",
    "lng": "27.0931",
    "country": "Turkey",
    "iso2": "TR",
    "iso3": "TUR",
    "admin_name": "Kırklareli",
    "capital": "minor",
    "population": "48391",
    "id": "1792082896"
  },
  {
    "city": "Beypazarı",
    "city_ascii": "Beypazari",
    "lat": "40.1703",
    "lng": "31.9211",
    "country": "Turkey",
    "iso2": "TR",
    "iso3": "TUR",
    "admin_name": "Ankara",
    "capital": "minor",
    "population": "48274",
    "id": "1792374799"
  },
  {
    "city": "Çan",
    "city_ascii": "Can",
    "lat": "40.0275",
    "lng": "27.0475",
    "country": "Turkey",
    "iso2": "TR",
    "iso3": "TUR",
    "admin_name": "Çanakkale",
    "capital": "minor",
    "population": "48215",
    "id": "1792440839"
  },
  {
    "city": "Finike",
    "city_ascii": "Finike",
    "lat": "36.3000",
    "lng": "30.1500",
    "country": "Turkey",
    "iso2": "TR",
    "iso3": "TUR",
    "admin_name": "Antalya",
    "capital": "minor",
    "population": "48131",
    "id": "1792503494"
  },
  {
    "city": "Güroymak",
    "city_ascii": "Guroymak",
    "lat": "38.5769",
    "lng": "42.0211",
    "country": "Turkey",
    "iso2": "TR",
    "iso3": "TUR",
    "admin_name": "Bitlis",
    "capital": "minor",
    "population": "47742",
    "id": "1792781278"
  },
  {
    "city": "Suluova",
    "city_ascii": "Suluova",
    "lat": "40.8333",
    "lng": "35.6500",
    "country": "Turkey",
    "iso2": "TR",
    "iso3": "TUR",
    "admin_name": "Amasya",
    "capital": "minor",
    "population": "46608",
    "id": "1792191874"
  },
  {
    "city": "Yalvaç",
    "city_ascii": "Yalvac",
    "lat": "38.2956",
    "lng": "31.1800",
    "country": "Turkey",
    "iso2": "TR",
    "iso3": "TUR",
    "admin_name": "Isparta",
    "capital": "minor",
    "population": "46646",
    "id": "1792064802"
  },
  {
    "city": "Haymana",
    "city_ascii": "Haymana",
    "lat": "39.4311",
    "lng": "32.4956",
    "country": "Turkey",
    "iso2": "TR",
    "iso3": "TUR",
    "admin_name": "Ankara",
    "capital": "minor",
    "population": "45931",
    "id": "1792299517"
  },
  {
    "city": "Yatağan",
    "city_ascii": "Yatagan",
    "lat": "37.3425",
    "lng": "28.1393",
    "country": "Turkey",
    "iso2": "TR",
    "iso3": "TUR",
    "admin_name": "Muğla",
    "capital": "minor",
    "population": "44940",
    "id": "1792053956"
  },
  {
    "city": "Seferhisar",
    "city_ascii": "Seferhisar",
    "lat": "38.2000",
    "lng": "26.8333",
    "country": "Turkey",
    "iso2": "TR",
    "iso3": "TUR",
    "admin_name": "İzmir",
    "capital": "minor",
    "population": "44526",
    "id": "1792680946"
  },
  {
    "city": "Alaplı",
    "city_ascii": "Alapli",
    "lat": "41.1833",
    "lng": "31.3833",
    "country": "Turkey",
    "iso2": "TR",
    "iso3": "TUR",
    "admin_name": "Zonguldak",
    "capital": "minor",
    "population": "44286",
    "id": "1792284635"
  },
  {
    "city": "Çayeli",
    "city_ascii": "Cayeli",
    "lat": "41.0880",
    "lng": "40.7232",
    "country": "Turkey",
    "iso2": "TR",
    "iso3": "TUR",
    "admin_name": "Rize",
    "capital": "minor",
    "population": "44304",
    "id": "1792569066"
  },
  {
    "city": "Dikili",
    "city_ascii": "Dikili",
    "lat": "39.0667",
    "lng": "26.8833",
    "country": "Turkey",
    "iso2": "TR",
    "iso3": "TUR",
    "admin_name": "İzmir",
    "capital": "minor",
    "population": "44172",
    "id": "1792392506"
  },
  {
    "city": "Boyabat",
    "city_ascii": "Boyabat",
    "lat": "41.4653",
    "lng": "34.7708",
    "country": "Turkey",
    "iso2": "TR",
    "iso3": "TUR",
    "admin_name": "Sinop",
    "capital": "minor",
    "population": "44004",
    "id": "1792072042"
  },
  {
    "city": "Tavas",
    "city_ascii": "Tavas",
    "lat": "37.5728",
    "lng": "29.0714",
    "country": "Turkey",
    "iso2": "TR",
    "iso3": "TUR",
    "admin_name": "Denizli",
    "capital": "minor",
    "population": "43845",
    "id": "1792649925"
  },
  {
    "city": "Of",
    "city_ascii": "Of",
    "lat": "40.9450",
    "lng": "40.2644",
    "country": "Turkey",
    "iso2": "TR",
    "iso3": "TUR",
    "admin_name": "Trabzon",
    "capital": "minor",
    "population": "43499",
    "id": "1792121137"
  },
  {
    "city": "Çeşme",
    "city_ascii": "Cesme",
    "lat": "38.3236",
    "lng": "26.3028",
    "country": "Turkey",
    "iso2": "TR",
    "iso3": "TUR",
    "admin_name": "İzmir",
    "capital": "minor",
    "population": "43489",
    "id": "1792570179"
  },
  {
    "city": "Bolvadin",
    "city_ascii": "Bolvadin",
    "lat": "38.7167",
    "lng": "31.0500",
    "country": "Turkey",
    "iso2": "TR",
    "iso3": "TUR",
    "admin_name": "Afyonkarahisar",
    "capital": "minor",
    "population": "43398",
    "id": "1792646513"
  },
  {
    "city": "Kemer",
    "city_ascii": "Kemer",
    "lat": "36.6000",
    "lng": "30.5500",
    "country": "Turkey",
    "iso2": "TR",
    "iso3": "TUR",
    "admin_name": "Antalya",
    "capital": "minor",
    "population": "43226",
    "id": "1792680664"
  },
  {
    "city": "Akdağmadeni",
    "city_ascii": "Akdagmadeni",
    "lat": "39.6658",
    "lng": "35.8836",
    "country": "Turkey",
    "iso2": "TR",
    "iso3": "TUR",
    "admin_name": "Yozgat",
    "capital": "minor",
    "population": "42919",
    "id": "1792201700"
  },
  {
    "city": "Sarıkamış",
    "city_ascii": "Sarikamis",
    "lat": "40.3381",
    "lng": "42.5731",
    "country": "Turkey",
    "iso2": "TR",
    "iso3": "TUR",
    "admin_name": "Kars",
    "capital": "minor",
    "population": "42683",
    "id": "1792341380"
  },
  {
    "city": "Diyadin",
    "city_ascii": "Diyadin",
    "lat": "39.5400",
    "lng": "43.6772",
    "country": "Turkey",
    "iso2": "TR",
    "iso3": "TUR",
    "admin_name": "Ağrı",
    "capital": "minor",
    "population": "42123",
    "id": "1792559543"
  },
  {
    "city": "Yakacık",
    "city_ascii": "Yakacik",
    "lat": "36.7500",
    "lng": "36.2167",
    "country": "Turkey",
    "iso2": "TR",
    "iso3": "TUR",
    "admin_name": "Hatay",
    "capital": "minor",
    "population": "41409",
    "id": "1792903398"
  },
  {
    "city": "Sinanpaşa",
    "city_ascii": "Sinanpasa",
    "lat": "38.7500",
    "lng": "30.2500",
    "country": "Turkey",
    "iso2": "TR",
    "iso3": "TUR",
    "admin_name": "Afyonkarahisar",
    "capital": "minor",
    "population": "41468",
    "id": "1792852826"
  },
  {
    "city": "Erzin",
    "city_ascii": "Erzin",
    "lat": "36.9533",
    "lng": "36.2033",
    "country": "Turkey",
    "iso2": "TR",
    "iso3": "TUR",
    "admin_name": "Hatay",
    "capital": "minor",
    "population": "41368",
    "id": "1792613172"
  },
  {
    "city": "Halfeti",
    "city_ascii": "Halfeti",
    "lat": "37.2489",
    "lng": "37.8658",
    "country": "Turkey",
    "iso2": "TR",
    "iso3": "TUR",
    "admin_name": "Şanlıurfa",
    "capital": "minor",
    "population": "41142",
    "id": "1792654742"
  },
  {
    "city": "Ardeşen",
    "city_ascii": "Ardesen",
    "lat": "41.1900",
    "lng": "40.9831",
    "country": "Turkey",
    "iso2": "TR",
    "iso3": "TUR",
    "admin_name": "Rize",
    "capital": "minor",
    "population": "41084",
    "id": "1792160424"
  },
  {
    "city": "Ahlat",
    "city_ascii": "Ahlat",
    "lat": "38.7528",
    "lng": "42.4944",
    "country": "Turkey",
    "iso2": "TR",
    "iso3": "TUR",
    "admin_name": "Bitlis",
    "capital": "minor",
    "population": "40806",
    "id": "1792335913"
  },
  {
    "city": "Bayındır",
    "city_ascii": "Bayindir",
    "lat": "38.2192",
    "lng": "27.6481",
    "country": "Turkey",
    "iso2": "TR",
    "iso3": "TUR",
    "admin_name": "İzmir",
    "capital": "minor",
    "population": "40584",
    "id": "1792970598"
  },
  {
    "city": "Ilıca",
    "city_ascii": "Ilica",
    "lat": "39.9458",
    "lng": "41.1053",
    "country": "Turkey",
    "iso2": "TR",
    "iso3": "TUR",
    "admin_name": "Erzurum",
    "capital": "minor",
    "population": "40350",
    "id": "1792419586"
  },
  {
    "city": "Tosya",
    "city_ascii": "Tosya",
    "lat": "41.0172",
    "lng": "34.0383",
    "country": "Turkey",
    "iso2": "TR",
    "iso3": "TUR",
    "admin_name": "Kastamonu",
    "capital": "minor",
    "population": "40245",
    "id": "1792502805"
  },
  {
    "city": "Havza",
    "city_ascii": "Havza",
    "lat": "40.9667",
    "lng": "35.6667",
    "country": "Turkey",
    "iso2": "TR",
    "iso3": "TUR",
    "admin_name": "Samsun",
    "capital": "minor",
    "population": "40194",
    "id": "1792980537"
  },
  {
    "city": "Kırkağaç",
    "city_ascii": "Kirkagac",
    "lat": "39.1039",
    "lng": "27.6700",
    "country": "Turkey",
    "iso2": "TR",
    "iso3": "TUR",
    "admin_name": "Manisa",
    "capital": "minor",
    "population": "39790",
    "id": "1792580975"
  },
  {
    "city": "Yomra",
    "city_ascii": "Yomra",
    "lat": "40.9667",
    "lng": "39.9000",
    "country": "Turkey",
    "iso2": "TR",
    "iso3": "TUR",
    "admin_name": "Trabzon",
    "capital": "minor",
    "population": "39624",
    "id": "1792187318"
  },
  {
    "city": "Doğanşehir",
    "city_ascii": "Dogansehir",
    "lat": "38.0958",
    "lng": "37.8792",
    "country": "Turkey",
    "iso2": "TR",
    "iso3": "TUR",
    "admin_name": "Malatya",
    "capital": "minor",
    "population": "39454",
    "id": "1792000270"
  },
  {
    "city": "Çiftlikköy",
    "city_ascii": "Ciftlikkoy",
    "lat": "40.6603",
    "lng": "29.3236",
    "country": "Turkey",
    "iso2": "TR",
    "iso3": "TUR",
    "admin_name": "Yalova",
    "capital": "minor",
    "population": "39110",
    "id": "1792919002"
  },
  {
    "city": "Susurluk",
    "city_ascii": "Susurluk",
    "lat": "39.9139",
    "lng": "28.1603",
    "country": "Turkey",
    "iso2": "TR",
    "iso3": "TUR",
    "admin_name": "Balıkesir",
    "capital": "minor",
    "population": "39058",
    "id": "1792726063"
  },
  {
    "city": "Akçakoca",
    "city_ascii": "Akcakoca",
    "lat": "41.0833",
    "lng": "31.1167",
    "country": "Turkey",
    "iso2": "TR",
    "iso3": "TUR",
    "admin_name": "Düzce",
    "capital": "minor",
    "population": "38846",
    "id": "1792736613"
  },
  {
    "city": "Taşköprü",
    "city_ascii": "Taskopru",
    "lat": "41.5097",
    "lng": "34.2142",
    "country": "Turkey",
    "iso2": "TR",
    "iso3": "TUR",
    "admin_name": "Kastamonu",
    "capital": "minor",
    "population": "38849",
    "id": "1792159059"
  },
  {
    "city": "Genç",
    "city_ascii": "Genc",
    "lat": "38.7500",
    "lng": "40.5560",
    "country": "Turkey",
    "iso2": "TR",
    "iso3": "TUR",
    "admin_name": "Bingöl",
    "capital": "minor",
    "population": "38428",
    "id": "1792927831"
  },
  {
    "city": "Şarkışla",
    "city_ascii": "Sarkisla",
    "lat": "39.3500",
    "lng": "36.4000",
    "country": "Turkey",
    "iso2": "TR",
    "iso3": "TUR",
    "admin_name": "Sivas",
    "capital": "minor",
    "population": "38314",
    "id": "1792917755"
  },
  {
    "city": "Dicle",
    "city_ascii": "Dicle",
    "lat": "38.3750",
    "lng": "40.0733",
    "country": "Turkey",
    "iso2": "TR",
    "iso3": "TUR",
    "admin_name": "Diyarbakır",
    "capital": "minor",
    "population": "38220",
    "id": "1792095932"
  },
  {
    "city": "Emirdağ",
    "city_ascii": "Emirdag",
    "lat": "39.0167",
    "lng": "31.1500",
    "country": "Turkey",
    "iso2": "TR",
    "iso3": "TUR",
    "admin_name": "Afyonkarahisar",
    "capital": "minor",
    "population": "37817",
    "id": "1792515671"
  },
  {
    "city": "Besni",
    "city_ascii": "Besni",
    "lat": "37.6942",
    "lng": "37.8614",
    "country": "Turkey",
    "iso2": "TR",
    "iso3": "TUR",
    "admin_name": "Adıyaman",
    "capital": "minor",
    "population": "37323",
    "id": "1792891287"
  },
  {
    "city": "Kaman",
    "city_ascii": "Kaman",
    "lat": "39.3575",
    "lng": "33.7239",
    "country": "Turkey",
    "iso2": "TR",
    "iso3": "TUR",
    "admin_name": "Kırşehir",
    "capital": "minor",
    "population": "37223",
    "id": "1792722636"
  },
  {
    "city": "Şuhut",
    "city_ascii": "Suhut",
    "lat": "38.5311",
    "lng": "30.5458",
    "country": "Turkey",
    "iso2": "TR",
    "iso3": "TUR",
    "admin_name": "Afyonkarahisar",
    "capital": "minor",
    "population": "36947",
    "id": "1792959774"
  },
  {
    "city": "Kulp",
    "city_ascii": "Kulp",
    "lat": "38.5017",
    "lng": "41.0117",
    "country": "Turkey",
    "iso2": "TR",
    "iso3": "TUR",
    "admin_name": "Diyarbakır",
    "capital": "minor",
    "population": "36640",
    "id": "1792693843"
  },
  {
    "city": "Şile",
    "city_ascii": "Sile",
    "lat": "41.1764",
    "lng": "29.6128",
    "country": "Turkey",
    "iso2": "TR",
    "iso3": "TUR",
    "admin_name": "İstanbul",
    "capital": "minor",
    "population": "36516",
    "id": "1792880825"
  },
  {
    "city": "Selçuk",
    "city_ascii": "Selcuk",
    "lat": "37.9500",
    "lng": "27.3667",
    "country": "Turkey",
    "iso2": "TR",
    "iso3": "TUR",
    "admin_name": "İzmir",
    "capital": "minor",
    "population": "36360",
    "id": "1792359915"
  },
  {
    "city": "Banaz",
    "city_ascii": "Banaz",
    "lat": "38.7333",
    "lng": "29.7500",
    "country": "Turkey",
    "iso2": "TR",
    "iso3": "TUR",
    "admin_name": "Uşak",
    "capital": "minor",
    "population": "36373",
    "id": "1792411962"
  },
  {
    "city": "Yahyalı",
    "city_ascii": "Yahyali",
    "lat": "38.1000",
    "lng": "35.3608",
    "country": "Turkey",
    "iso2": "TR",
    "iso3": "TUR",
    "admin_name": "Kayseri",
    "capital": "minor",
    "population": "36331",
    "id": "1792969584"
  },
  {
    "city": "Kurtalan",
    "city_ascii": "Kurtalan",
    "lat": "37.9261",
    "lng": "41.7003",
    "country": "Turkey",
    "iso2": "TR",
    "iso3": "TUR",
    "admin_name": "Siirt",
    "capital": "minor",
    "population": "36273",
    "id": "1792384710"
  },
  {
    "city": "Sarıgöl",
    "city_ascii": "Sarigol",
    "lat": "38.2403",
    "lng": "28.6989",
    "country": "Turkey",
    "iso2": "TR",
    "iso3": "TUR",
    "admin_name": "Manisa",
    "capital": "minor",
    "population": "35957",
    "id": "1792940712"
  },
  {
    "city": "Gürpınar",
    "city_ascii": "Gurpinar",
    "lat": "38.3269",
    "lng": "43.4133",
    "country": "Turkey",
    "iso2": "TR",
    "iso3": "TUR",
    "admin_name": "Van",
    "capital": "minor",
    "population": "35663",
    "id": "1792954694"
  },
  {
    "city": "Kilimli",
    "city_ascii": "Kilimli",
    "lat": "41.4833",
    "lng": "31.8333",
    "country": "Turkey",
    "iso2": "TR",
    "iso3": "TUR",
    "admin_name": "Zonguldak",
    "capital": "minor",
    "population": "35323",
    "id": "1792892281"
  },
  {
    "city": "Hamidiye",
    "city_ascii": "Hamidiye",
    "lat": "40.0997",
    "lng": "26.3967",
    "country": "Turkey",
    "iso2": "TR",
    "iso3": "TUR",
    "admin_name": "Çanakkale",
    "capital": "",
    "population": "35390",
    "id": "1792326639"
  },
  {
    "city": "Yerköy",
    "city_ascii": "Yerkoy",
    "lat": "39.6381",
    "lng": "34.4672",
    "country": "Turkey",
    "iso2": "TR",
    "iso3": "TUR",
    "admin_name": "Yozgat",
    "capital": "minor",
    "population": "35561",
    "id": "1792072941"
  },
  {
    "city": "Yayladağı",
    "city_ascii": "Yayladagi",
    "lat": "35.9025",
    "lng": "36.0606",
    "country": "Turkey",
    "iso2": "TR",
    "iso3": "TUR",
    "admin_name": "Hatay",
    "capital": "minor",
    "population": "35460",
    "id": "1792355233"
  },
  {
    "city": "Ürgüp",
    "city_ascii": "Urgup",
    "lat": "38.6314",
    "lng": "34.9131",
    "country": "Turkey",
    "iso2": "TR",
    "iso3": "TUR",
    "admin_name": "Nevşehir",
    "capital": "minor",
    "population": "35352",
    "id": "1792233908"
  },
  {
    "city": "Akçadağ",
    "city_ascii": "Akcadag",
    "lat": "38.3450",
    "lng": "37.9686",
    "country": "Turkey",
    "iso2": "TR",
    "iso3": "TUR",
    "admin_name": "Malatya",
    "capital": "minor",
    "population": "35359",
    "id": "1792886616"
  },
  {
    "city": "Eşme",
    "city_ascii": "Esme",
    "lat": "38.4000",
    "lng": "28.9667",
    "country": "Turkey",
    "iso2": "TR",
    "iso3": "TUR",
    "admin_name": "Uşak",
    "capital": "minor",
    "population": "34932",
    "id": "1792758797"
  },
  {
    "city": "Arsin",
    "city_ascii": "Arsin",
    "lat": "40.9500",
    "lng": "39.9333",
    "country": "Turkey",
    "iso2": "TR",
    "iso3": "TUR",
    "admin_name": "Trabzon",
    "capital": "minor",
    "population": "34831",
    "id": "1792115072"
  },
  {
    "city": "Espiye",
    "city_ascii": "Espiye",
    "lat": "40.9500",
    "lng": "38.7333",
    "country": "Turkey",
    "iso2": "TR",
    "iso3": "TUR",
    "admin_name": "Giresun",
    "capital": "minor",
    "population": "34592",
    "id": "1792099876"
  },
  {
    "city": "Çınarcık",
    "city_ascii": "Cinarcik",
    "lat": "40.6422",
    "lng": "29.1203",
    "country": "Turkey",
    "iso2": "TR",
    "iso3": "TUR",
    "admin_name": "Yalova",
    "capital": "minor",
    "population": "34076",
    "id": "1792016755"
  },
  {
    "city": "Şereflikoçhisar",
    "city_ascii": "Sereflikochisar",
    "lat": "38.9444",
    "lng": "33.5419",
    "country": "Turkey",
    "iso2": "TR",
    "iso3": "TUR",
    "admin_name": "Ankara",
    "capital": "minor",
    "population": "34202",
    "id": "1792505999"
  },
  {
    "city": "Boğazlıyan",
    "city_ascii": "Bogazliyan",
    "lat": "39.1942",
    "lng": "35.2472",
    "country": "Turkey",
    "iso2": "TR",
    "iso3": "TUR",
    "admin_name": "Yozgat",
    "capital": "minor",
    "population": "34121",
    "id": "1792773324"
  },
  {
    "city": "Sındırgı",
    "city_ascii": "Sindirgi",
    "lat": "39.2400",
    "lng": "28.1750",
    "country": "Turkey",
    "iso2": "TR",
    "iso3": "TUR",
    "admin_name": "Balıkesir",
    "capital": "minor",
    "population": "33924",
    "id": "1792952422"
  },
  {
    "city": "Bozdoğan",
    "city_ascii": "Bozdogan",
    "lat": "37.6728",
    "lng": "28.3103",
    "country": "Turkey",
    "iso2": "TR",
    "iso3": "TUR",
    "admin_name": "Aydın",
    "capital": "minor",
    "population": "33843",
    "id": "1792268434"
  },
  {
    "city": "Belen",
    "city_ascii": "Belen",
    "lat": "36.4889",
    "lng": "36.1944",
    "country": "Turkey",
    "iso2": "TR",
    "iso3": "TUR",
    "admin_name": "Hatay",
    "capital": "minor",
    "population": "33540",
    "id": "1792296962"
  },
  {
    "city": "Ayvacık",
    "city_ascii": "Ayvacik",
    "lat": "39.6011",
    "lng": "26.4047",
    "country": "Turkey",
    "iso2": "TR",
    "iso3": "TUR",
    "admin_name": "Çanakkale",
    "capital": "minor",
    "population": "33568",
    "id": "1792135489"
  },
  {
    "city": "Gölbaşı",
    "city_ascii": "Golbasi",
    "lat": "37.7839",
    "lng": "37.6444",
    "country": "Turkey",
    "iso2": "TR",
    "iso3": "TUR",
    "admin_name": "Adıyaman",
    "capital": "minor",
    "population": "33373",
    "id": "1792595244"
  },
  {
    "city": "Perşembe",
    "city_ascii": "Persembe",
    "lat": "41.0656",
    "lng": "37.7714",
    "country": "Turkey",
    "iso2": "TR",
    "iso3": "TUR",
    "admin_name": "Ordu",
    "capital": "minor",
    "population": "33253",
    "id": "1792543078"
  },
  {
    "city": "Andırın",
    "city_ascii": "Andirin",
    "lat": "37.5764",
    "lng": "36.3506",
    "country": "Turkey",
    "iso2": "TR",
    "iso3": "TUR",
    "admin_name": "Kahramanmaraş",
    "capital": "minor",
    "population": "33193",
    "id": "1792314196"
  },
  {
    "city": "Kadınhanı",
    "city_ascii": "Kadinhani",
    "lat": "38.2397",
    "lng": "32.2114",
    "country": "Turkey",
    "iso2": "TR",
    "iso3": "TUR",
    "admin_name": "Konya",
    "capital": "minor",
    "population": "33036",
    "id": "1792310502"
  },
  {
    "city": "Sarıkaya",
    "city_ascii": "Sarikaya",
    "lat": "39.4936",
    "lng": "35.3769",
    "country": "Turkey",
    "iso2": "TR",
    "iso3": "TUR",
    "admin_name": "Yozgat",
    "capital": "minor",
    "population": "33010",
    "id": "1792208662"
  },
  {
    "city": "Araban",
    "city_ascii": "Araban",
    "lat": "37.4247",
    "lng": "37.6928",
    "country": "Turkey",
    "iso2": "TR",
    "iso3": "TUR",
    "admin_name": "Gaziantep",
    "capital": "minor",
    "population": "32846",
    "id": "1792472790"
  },
  {
    "city": "Oğuzeli",
    "city_ascii": "Oguzeli",
    "lat": "36.9650",
    "lng": "37.5092",
    "country": "Turkey",
    "iso2": "TR",
    "iso3": "TUR",
    "admin_name": "Gaziantep",
    "capital": "minor",
    "population": "32653",
    "id": "1792753596"
  },
  {
    "city": "Avanos",
    "city_ascii": "Avanos",
    "lat": "38.7150",
    "lng": "34.8467",
    "country": "Turkey",
    "iso2": "TR",
    "iso3": "TUR",
    "admin_name": "Nevşehir",
    "capital": "minor",
    "population": "32618",
    "id": "1792692545"
  },
  {
    "city": "Şarköy",
    "city_ascii": "Sarkoy",
    "lat": "40.6039",
    "lng": "27.1064",
    "country": "Turkey",
    "iso2": "TR",
    "iso3": "TUR",
    "admin_name": "Tekirdağ",
    "capital": "minor",
    "population": "32565",
    "id": "1792319237"
  },
  {
    "city": "Foça",
    "city_ascii": "Foca",
    "lat": "38.6667",
    "lng": "26.7667",
    "country": "Turkey",
    "iso2": "TR",
    "iso3": "TUR",
    "admin_name": "İzmir",
    "capital": "minor",
    "population": "32264",
    "id": "1792410342"
  },
  {
    "city": "Pervari",
    "city_ascii": "Pervari",
    "lat": "37.9331",
    "lng": "42.5469",
    "country": "Turkey",
    "iso2": "TR",
    "iso3": "TUR",
    "admin_name": "Siirt",
    "capital": "minor",
    "population": "32128",
    "id": "1792426838"
  },
  {
    "city": "Mutki",
    "city_ascii": "Mutki",
    "lat": "38.4092",
    "lng": "41.9219",
    "country": "Turkey",
    "iso2": "TR",
    "iso3": "TUR",
    "admin_name": "Bitlis",
    "capital": "minor",
    "population": "32090",
    "id": "1792505661"
  },
  {
    "city": "Tirebolu",
    "city_ascii": "Tirebolu",
    "lat": "41.0056",
    "lng": "38.8167",
    "country": "Turkey",
    "iso2": "TR",
    "iso3": "TUR",
    "admin_name": "Giresun",
    "capital": "minor",
    "population": "32008",
    "id": "1792367671"
  },
  {
    "city": "Yenice",
    "city_ascii": "Yenice",
    "lat": "39.9308",
    "lng": "27.2581",
    "country": "Turkey",
    "iso2": "TR",
    "iso3": "TUR",
    "admin_name": "Çanakkale",
    "capital": "minor",
    "population": "31907",
    "id": "1792433763"
  },
  {
    "city": "Ortaköy",
    "city_ascii": "Ortakoy",
    "lat": "38.7372",
    "lng": "34.0386",
    "country": "Turkey",
    "iso2": "TR",
    "iso3": "TUR",
    "admin_name": "Aksaray",
    "capital": "minor",
    "population": "31818",
    "id": "1792138980"
  },
  {
    "city": "Gallipoli",
    "city_ascii": "Gallipoli",
    "lat": "40.4139",
    "lng": "26.6703",
    "country": "Turkey",
    "iso2": "TR",
    "iso3": "TUR",
    "admin_name": "Çanakkale",
    "capital": "minor",
    "population": "31782",
    "id": "1792594888"
  },
  {
    "city": "Yıldızeli",
    "city_ascii": "Yildizeli",
    "lat": "39.8642",
    "lng": "36.5983",
    "country": "Turkey",
    "iso2": "TR",
    "iso3": "TUR",
    "admin_name": "Sivas",
    "capital": "minor",
    "population": "31748",
    "id": "1792870647"
  },
  {
    "city": "Bünyan",
    "city_ascii": "Bunyan",
    "lat": "38.8486",
    "lng": "35.8592",
    "country": "Turkey",
    "iso2": "TR",
    "iso3": "TUR",
    "admin_name": "Kayseri",
    "capital": "minor",
    "population": "31497",
    "id": "1792359826"
  },
  {
    "city": "Çay",
    "city_ascii": "Cay",
    "lat": "38.5926",
    "lng": "31.0274",
    "country": "Turkey",
    "iso2": "TR",
    "iso3": "TUR",
    "admin_name": "Afyonkarahisar",
    "capital": "minor",
    "population": "31412",
    "id": "1792955156"
  },
  {
    "city": "Yahşihan",
    "city_ascii": "Yahsihan",
    "lat": "39.8503",
    "lng": "33.4536",
    "country": "Turkey",
    "iso2": "TR",
    "iso3": "TUR",
    "admin_name": "Kırıkkale",
    "capital": "minor",
    "population": "31308",
    "id": "1792504360"
  },
  {
    "city": "Varto",
    "city_ascii": "Varto",
    "lat": "39.1731",
    "lng": "41.4558",
    "country": "Turkey",
    "iso2": "TR",
    "iso3": "TUR",
    "admin_name": "Muş",
    "capital": "minor",
    "population": "31169",
    "id": "1792985807"
  },
  {
    "city": "Sarayköy",
    "city_ascii": "Saraykoy",
    "lat": "37.9265",
    "lng": "28.9267",
    "country": "Turkey",
    "iso2": "TR",
    "iso3": "TUR",
    "admin_name": "Denizli",
    "capital": "minor",
    "population": "30768",
    "id": "1792181527"
  },
  {
    "city": "Beşiri",
    "city_ascii": "Besiri",
    "lat": "37.9210",
    "lng": "41.2920",
    "country": "Turkey",
    "iso2": "TR",
    "iso3": "TUR",
    "admin_name": "Batman",
    "capital": "minor",
    "population": "30445",
    "id": "1792978558"
  },
  {
    "city": "Adilcevaz",
    "city_ascii": "Adilcevaz",
    "lat": "38.8058",
    "lng": "42.7469",
    "country": "Turkey",
    "iso2": "TR",
    "iso3": "TUR",
    "admin_name": "Bitlis",
    "capital": "minor",
    "population": "30376",
    "id": "1792411490"
  },
  {
    "city": "Taşova",
    "city_ascii": "Tasova",
    "lat": "40.7500",
    "lng": "36.3167",
    "country": "Turkey",
    "iso2": "TR",
    "iso3": "TUR",
    "admin_name": "Amasya",
    "capital": "minor",
    "population": "30123",
    "id": "1792881496"
  },
  {
    "city": "Kınık",
    "city_ascii": "Kinik",
    "lat": "39.0939",
    "lng": "27.3767",
    "country": "Turkey",
    "iso2": "TR",
    "iso3": "TUR",
    "admin_name": "İzmir",
    "capital": "minor",
    "population": "29803",
    "id": "1792776515"
  },
  {
    "city": "Bayramiç",
    "city_ascii": "Bayramic",
    "lat": "39.8128",
    "lng": "26.6100",
    "country": "Turkey",
    "iso2": "TR",
    "iso3": "TUR",
    "admin_name": "Çanakkale",
    "capital": "minor",
    "population": "29716",
    "id": "1792600918"
  },
  {
    "city": "Karakoçan",
    "city_ascii": "Karakocan",
    "lat": "38.9500",
    "lng": "40.0333",
    "country": "Turkey",
    "iso2": "TR",
    "iso3": "TUR",
    "admin_name": "Elazığ",
    "capital": "minor",
    "population": "28702",
    "id": "1792070024"
  },
  {
    "city": "Gevaş",
    "city_ascii": "Gevas",
    "lat": "38.2978",
    "lng": "43.1056",
    "country": "Turkey",
    "iso2": "TR",
    "iso3": "TUR",
    "admin_name": "Van",
    "capital": "minor",
    "population": "28620",
    "id": "1792623763"
  },
  {
    "city": "Pazarcık",
    "city_ascii": "Pazarcik",
    "lat": "37.4860",
    "lng": "37.2970",
    "country": "Turkey",
    "iso2": "TR",
    "iso3": "TUR",
    "admin_name": "Kahramanmaraş",
    "capital": "minor",
    "population": "28582",
    "id": "1792266473"
  },
  {
    "city": "İhsaniye",
    "city_ascii": "Ihsaniye",
    "lat": "39.0333",
    "lng": "30.4167",
    "country": "Turkey",
    "iso2": "TR",
    "iso3": "TUR",
    "admin_name": "Afyonkarahisar",
    "capital": "minor",
    "population": "28603",
    "id": "1792841421"
  },
  {
    "city": "Almus",
    "city_ascii": "Almus",
    "lat": "40.3748",
    "lng": "36.9031",
    "country": "Turkey",
    "iso2": "TR",
    "iso3": "TUR",
    "admin_name": "Tokat",
    "capital": "minor",
    "population": "28413",
    "id": "1792278732"
  },
  {
    "city": "Altınova",
    "city_ascii": "Altinova",
    "lat": "40.6975",
    "lng": "29.5114",
    "country": "Turkey",
    "iso2": "TR",
    "iso3": "TUR",
    "admin_name": "Yalova",
    "capital": "minor",
    "population": "28232",
    "id": "1792919647"
  },
  {
    "city": "Vakfıkebir",
    "city_ascii": "Vakfikebir",
    "lat": "41.0475",
    "lng": "39.2798",
    "country": "Turkey",
    "iso2": "TR",
    "iso3": "TUR",
    "admin_name": "Trabzon",
    "capital": "minor",
    "population": "28209",
    "id": "1792101092"
  },
  {
    "city": "Çiftlik",
    "city_ascii": "Ciftlik",
    "lat": "38.1667",
    "lng": "34.4833",
    "country": "Turkey",
    "iso2": "TR",
    "iso3": "TUR",
    "admin_name": "Niğde",
    "capital": "minor",
    "population": "28168",
    "id": "1792535198"
  },
  {
    "city": "Nallıhan",
    "city_ascii": "Nallihan",
    "lat": "40.1836",
    "lng": "31.3506",
    "country": "Turkey",
    "iso2": "TR",
    "iso3": "TUR",
    "admin_name": "Ankara",
    "capital": "minor",
    "population": "28091",
    "id": "1792689244"
  },
  {
    "city": "Havran",
    "city_ascii": "Havran",
    "lat": "39.5583",
    "lng": "27.0983",
    "country": "Turkey",
    "iso2": "TR",
    "iso3": "TUR",
    "admin_name": "Balıkesir",
    "capital": "minor",
    "population": "27741",
    "id": "1792883078"
  },
  {
    "city": "İpsala",
    "city_ascii": "Ipsala",
    "lat": "40.9217",
    "lng": "26.3819",
    "country": "Turkey",
    "iso2": "TR",
    "iso3": "TUR",
    "admin_name": "Edirne",
    "capital": "minor",
    "population": "27498",
    "id": "1792000511"
  },
  {
    "city": "Sürmene",
    "city_ascii": "Surmene",
    "lat": "40.9142",
    "lng": "40.1125",
    "country": "Turkey",
    "iso2": "TR",
    "iso3": "TUR",
    "admin_name": "Trabzon",
    "capital": "minor",
    "population": "27428",
    "id": "1792859106"
  },
  {
    "city": "Savur",
    "city_ascii": "Savur",
    "lat": "37.5375",
    "lng": "40.8892",
    "country": "Turkey",
    "iso2": "TR",
    "iso3": "TUR",
    "admin_name": "Mardin",
    "capital": "minor",
    "population": "27304",
    "id": "1792346583"
  },
  {
    "city": "Buldan",
    "city_ascii": "Buldan",
    "lat": "38.0450",
    "lng": "28.8306",
    "country": "Turkey",
    "iso2": "TR",
    "iso3": "TUR",
    "admin_name": "Denizli",
    "capital": "minor",
    "population": "27241",
    "id": "1792112571"
  },
  {
    "city": "Pınarbaşı",
    "city_ascii": "Pinarbasi",
    "lat": "38.7220",
    "lng": "36.3910",
    "country": "Turkey",
    "iso2": "TR",
    "iso3": "TUR",
    "admin_name": "Kayseri",
    "capital": "minor",
    "population": "26911",
    "id": "1792740700"
  },
  {
    "city": "Sarayönü",
    "city_ascii": "Sarayonu",
    "lat": "38.2661",
    "lng": "32.4064",
    "country": "Turkey",
    "iso2": "TR",
    "iso3": "TUR",
    "admin_name": "Konya",
    "capital": "minor",
    "population": "26875",
    "id": "1792347742"
  },
  {
    "city": "Bozyazı",
    "city_ascii": "Bozyazi",
    "lat": "36.1000",
    "lng": "32.9667",
    "country": "Turkey",
    "iso2": "TR",
    "iso3": "TUR",
    "admin_name": "Mersin",
    "capital": "minor",
    "population": "26840",
    "id": "1792667292"
  },
  {
    "city": "Ulubey",
    "city_ascii": "Ulubey",
    "lat": "40.8761",
    "lng": "37.7406",
    "country": "Turkey",
    "iso2": "TR",
    "iso3": "TUR",
    "admin_name": "Ordu",
    "capital": "minor",
    "population": "26737",
    "id": "1792933054"
  },
  {
    "city": "Maçka",
    "city_ascii": "Macka",
    "lat": "40.8167",
    "lng": "39.6167",
    "country": "Turkey",
    "iso2": "TR",
    "iso3": "TUR",
    "admin_name": "Trabzon",
    "capital": "minor",
    "population": "26626",
    "id": "1792354178"
  },
  {
    "city": "Ondokuzmayıs",
    "city_ascii": "Ondokuzmayis",
    "lat": "41.4944",
    "lng": "36.0789",
    "country": "Turkey",
    "iso2": "TR",
    "iso3": "TUR",
    "admin_name": "Samsun",
    "capital": "minor",
    "population": "26337",
    "id": "1792287985"
  },
  {
    "city": "İncesu",
    "city_ascii": "Incesu",
    "lat": "38.6222",
    "lng": "35.1847",
    "country": "Turkey",
    "iso2": "TR",
    "iso3": "TUR",
    "admin_name": "Kayseri",
    "capital": "minor",
    "population": "26353",
    "id": "1792170018"
  },
  {
    "city": "Bozkır",
    "city_ascii": "Bozkir",
    "lat": "37.1886",
    "lng": "32.2456",
    "country": "Turkey",
    "iso2": "TR",
    "iso3": "TUR",
    "admin_name": "Konya",
    "capital": "minor",
    "population": "26287",
    "id": "1792736010"
  },
  {
    "city": "Baykan",
    "city_ascii": "Baykan",
    "lat": "38.1639",
    "lng": "41.7847",
    "country": "Turkey",
    "iso2": "TR",
    "iso3": "TUR",
    "admin_name": "Siirt",
    "capital": "minor",
    "population": "26160",
    "id": "1792353918"
  },
  {
    "city": "Lice",
    "city_ascii": "Lice",
    "lat": "38.4500",
    "lng": "40.6500",
    "country": "Turkey",
    "iso2": "TR",
    "iso3": "TUR",
    "admin_name": "Diyarbakır",
    "capital": "minor",
    "population": "26163",
    "id": "1792106480"
  },
  {
    "city": "Tekman",
    "city_ascii": "Tekman",
    "lat": "39.6450",
    "lng": "41.5083",
    "country": "Turkey",
    "iso2": "TR",
    "iso3": "TUR",
    "admin_name": "Erzurum",
    "capital": "minor",
    "population": "25969",
    "id": "1792042705"
  },
  {
    "city": "Marmara Ereğlisi",
    "city_ascii": "Marmara Ereglisi",
    "lat": "40.9697",
    "lng": "27.9553",
    "country": "Turkey",
    "iso2": "TR",
    "iso3": "TUR",
    "admin_name": "Tekirdağ",
    "capital": "minor",
    "population": "25873",
    "id": "1792522233"
  },
  {
    "city": "Demre",
    "city_ascii": "Demre",
    "lat": "36.2472",
    "lng": "29.9828",
    "country": "Turkey",
    "iso2": "TR",
    "iso3": "TUR",
    "admin_name": "Antalya",
    "capital": "minor",
    "population": "25893",
    "id": "1792936795"
  },
  {
    "city": "Alaçam",
    "city_ascii": "Alacam",
    "lat": "41.6100",
    "lng": "35.5950",
    "country": "Turkey",
    "iso2": "TR",
    "iso3": "TUR",
    "admin_name": "Samsun",
    "capital": "minor",
    "population": "25854",
    "id": "1792375686"
  },
  {
    "city": "Korkut",
    "city_ascii": "Korkut",
    "lat": "38.7386",
    "lng": "41.7828",
    "country": "Turkey",
    "iso2": "TR",
    "iso3": "TUR",
    "admin_name": "Muş",
    "capital": "minor",
    "population": "25817",
    "id": "1792285237"
  },
  {
    "city": "Hasköy",
    "city_ascii": "Haskoy",
    "lat": "38.6822",
    "lng": "41.6894",
    "country": "Turkey",
    "iso2": "TR",
    "iso3": "TUR",
    "admin_name": "Muş",
    "capital": "minor",
    "population": "25749",
    "id": "1792439039"
  },
  {
    "city": "Harbiye",
    "city_ascii": "Harbiye",
    "lat": "36.1167",
    "lng": "36.1333",
    "country": "Turkey",
    "iso2": "TR",
    "iso3": "TUR",
    "admin_name": "Hatay",
    "capital": "minor",
    "population": "25118",
    "id": "1792958920"
  },
  {
    "city": "Şarkîkaraağaç",
    "city_ascii": "Sarkikaraagac",
    "lat": "38.0803",
    "lng": "31.3658",
    "country": "Turkey",
    "iso2": "TR",
    "iso3": "TUR",
    "admin_name": "Isparta",
    "capital": "minor",
    "population": "25578",
    "id": "1792228308"
  },