[
  {
    "city": "Tokyo",
    "city_ascii": "Tokyo",
    "lat": "35.6897",
    "lng": "139.6922",
    "country": "Japan",
    "iso2": "JP",
    "iso3": "JPN",
    "admin_name": "Tōkyō",
    "capital": "primary",
    "population": "37732000",
    "id": "1392685764"
  },
  {
    "city": "Ōsaka",
    "city_ascii": "Osaka",
    "lat": "34.6939",
    "lng": "135.5022",
    "country": "Japan",
    "iso2": "JP",
    "iso3": "JPN",
    "admin_name": "Ōsaka",
    "capital": "admin",
    "population": "15126000",
    "id": "1392419823"
  },
  {
    "city": "Nagoya",
    "city_ascii": "Nagoya",
    "lat": "35.1833",
    "lng": "136.9000",
    "country": "Japan",
    "iso2": "JP",
    "iso3": "JPN",
    "admin_name": "Aichi",
    "capital": "admin",
    "population": "9197000",
    "id": "1392407472"
  },
  {
    "city": "Yokohama",
    "city_ascii": "Yokohama",
    "lat": "35.4442",
    "lng": "139.6381",
    "country": "Japan",
    "iso2": "JP",
    "iso3": "JPN",
    "admin_name": "Kanagawa",
    "capital": "admin",
    "population": "3757630",
    "id": "1392118339"
  },
  {
    "city": "Fukuoka",
    "city_ascii": "Fukuoka",
    "lat": "33.5833",
    "lng": "130.4000",
    "country": "Japan",
    "iso2": "JP",
    "iso3": "JPN",
    "admin_name": "Fukuoka",
    "capital": "admin",
    "population": "2286000",
    "id": "1392576294"
  },
  {
    "city": "Sapporo",
    "city_ascii": "Sapporo",
    "lat": "43.0667",
    "lng": "141.3500",
    "country": "Japan",
    "iso2": "JP",
    "iso3": "JPN",
    "admin_name": "Hokkaidō",
    "capital": "admin",
    "population": "1961690",
    "id": "1392000195"
  },
  {
    "city": "Kawasaki",
    "city_ascii": "Kawasaki",
    "lat": "35.5167",
    "lng": "139.7000",
    "country": "Japan",
    "iso2": "JP",
    "iso3": "JPN",
    "admin_name": "Kanagawa",
    "capital": "",
    "population": "1539522",
    "id": "1392003356"
  },
  {
    "city": "Kōbe",
    "city_ascii": "Kobe",
    "lat": "34.6900",
    "lng": "135.1956",
    "country": "Japan",
    "iso2": "JP",
    "iso3": "JPN",
    "admin_name": "Hyōgo",
    "capital": "admin",
    "population": "1521707",
    "id": "1392978082"
  },
  {
    "city": "Kyōto",
    "city_ascii": "Kyoto",
    "lat": "35.0117",
    "lng": "135.7683",
    "country": "Japan",
    "iso2": "JP",
    "iso3": "JPN",
    "admin_name": "Kyōto",
    "capital": "admin",
    "population": "1464890",
    "id": "1392622735"
  },
  {
    "city": "Saitama",
    "city_ascii": "Saitama",
    "lat": "35.8614",
    "lng": "139.6456",
    "country": "Japan",
    "iso2": "JP",
    "iso3": "JPN",
    "admin_name": "Saitama",
    "capital": "admin",
    "population": "1325843",
    "id": "1392017719"
  },
  {
    "city": "Hiroshima",
    "city_ascii": "Hiroshima",
    "lat": "34.3914",
    "lng": "132.4519",
    "country": "Japan",
    "iso2": "JP",
    "iso3": "JPN",
    "admin_name": "Hiroshima",
    "capital": "admin",
    "population": "1198021",
    "id": "1392373695"
  },
  {
    "city": "Sendai",
    "city_ascii": "Sendai",
    "lat": "38.2682",
    "lng": "140.8694",
    "country": "Japan",
    "iso2": "JP",
    "iso3": "JPN",
    "admin_name": "Miyagi",
    "capital": "admin",
    "population": "1061177",
    "id": "1392457903"
  },
  {
    "city": "Chiba",
    "city_ascii": "Chiba",
    "lat": "35.6073",
    "lng": "140.1064",
    "country": "Japan",
    "iso2": "JP",
    "iso3": "JPN",
    "admin_name": "Chiba",
    "capital": "admin",
    "population": "981738",
    "id": "1392107144"
  },
  {
    "city": "Setagaya",
    "city_ascii": "Setagaya",
    "lat": "35.6466",
    "lng": "139.6532",
    "country": "Japan",
    "iso2": "JP",
    "iso3": "JPN",
    "admin_name": "Tōkyō",
    "capital": "",
    "population": "940509",
    "id": "1392792380"
  },
  {
    "city": "Kitakyūshū",
    "city_ascii": "Kitakyushu",
    "lat": "33.8833",
    "lng": "130.8833",
    "country": "Japan",
    "iso2": "JP",
    "iso3": "JPN",
    "admin_name": "Fukuoka",
    "capital": "",
    "population": "935084",
    "id": "1392003140"
  },
  {
    "city": "Sakai",
    "city_ascii": "Sakai",
    "lat": "34.5733",
    "lng": "135.4831",
    "country": "Japan",
    "iso2": "JP",
    "iso3": "JPN",
    "admin_name": "Ōsaka",
    "capital": "",
    "population": "824408",
    "id": "1392003291"
  },
  {
    "city": "Niigata",
    "city_ascii": "Niigata",
    "lat": "37.9161",
    "lng": "139.0364",
    "country": "Japan",
    "iso2": "JP",
    "iso3": "JPN",
    "admin_name": "Niigata",
    "capital": "admin",
    "population": "790646",
    "id": "1392913753"
  },
  {
    "city": "Hamamatsu",
    "city_ascii": "Hamamatsu",
    "lat": "34.7108",
    "lng": "137.7275",
    "country": "Japan",
    "iso2": "JP",
    "iso3": "JPN",
    "admin_name": "Shizuoka",
    "capital": "",
    "population": "788211",
    "id": "1392174500"
  },
  {
    "city": "Nerima",
    "city_ascii": "Nerima",
    "lat": "35.7355",
    "lng": "139.6517",
    "country": "Japan",
    "iso2": "JP",
    "iso3": "JPN",
    "admin_name": "Tōkyō",
    "capital": "",
    "population": "742463",
    "id": "1392093402"
  },
  {
    "city": "Ōta-ku",
    "city_ascii": "Ota-ku",
    "lat": "35.5613",
    "lng": "139.7160",
    "country": "Japan",
    "iso2": "JP",
    "iso3": "JPN",
    "admin_name": "Tōkyō",
    "capital": "",
    "population": "737187",
    "id": "1392003511"
  },
  {
    "city": "Kumamoto",
    "city_ascii": "Kumamoto",
    "lat": "32.8031",
    "lng": "130.7078",
    "country": "Japan",
    "iso2": "JP",
    "iso3": "JPN",
    "admin_name": "Kumamoto",
    "capital": "admin",
    "population": "738385",
    "id": "1392106283"
  },
  {
    "city": "Sagamihara",
    "city_ascii": "Sagamihara",
    "lat": "35.5667",
    "lng": "139.3667",
    "country": "Japan",
    "iso2": "JP",
    "iso3": "JPN",
    "admin_name": "Kanagawa",
    "capital": "",
    "population": "722973",
    "id": "1392967248"
  },
  {
    "city": "Okayama",
    "city_ascii": "Okayama",
    "lat": "34.6500",
    "lng": "133.9167",
    "country": "Japan",
    "iso2": "JP",
    "iso3": "JPN",
    "admin_name": "Okayama",
    "capital": "admin",
    "population": "720043",
    "id": "1392954750"
  },
  {
    "city": "Edogawa",
    "city_ascii": "Edogawa",
    "lat": "35.7066",
    "lng": "139.8683",
    "country": "Japan",
    "iso2": "JP",
    "iso3": "JPN",
    "admin_name": "Chiba",
    "capital": "",
    "population": "697932",
    "id": "1392135698"
  },
  {
    "city": "Adachi",
    "city_ascii": "Adachi",
    "lat": "35.7749",
    "lng": "139.8044",
    "country": "Japan",
    "iso2": "JP",
    "iso3": "JPN",
    "admin_name": "Tōkyō",
    "capital": "",
    "population": "682326",
    "id": "1392464568"
  },
  {
    "city": "Shizuoka",
    "city_ascii": "Shizuoka",
    "lat": "34.9756",
    "lng": "138.3828",
    "country": "Japan",
    "iso2": "JP",
    "iso3": "JPN",
    "admin_name": "Shizuoka",
    "capital": "admin",
    "population": "685589",
    "id": "1392235505"
  },
  {
    "city": "Honchō",
    "city_ascii": "Honcho",
    "lat": "35.6946",
    "lng": "139.9826",
    "country": "Japan",
    "iso2": "JP",
    "iso3": "JPN",
    "admin_name": "Chiba",
    "capital": "",
    "population": "641499",
    "id": "1392505502"
  },
  {
    "city": "Kawaguchi",
    "city_ascii": "Kawaguchi",
    "lat": "35.8077",
    "lng": "139.7241",
    "country": "Japan",
    "iso2": "JP",
    "iso3": "JPN",
    "admin_name": "Saitama",
    "capital": "",
    "population": "593353",
    "id": "1392975133"
  },
  {
    "city": "Itabashi",
    "city_ascii": "Itabashi",
    "lat": "35.7512",
    "lng": "139.7093",
    "country": "Japan",
    "iso2": "JP",
    "iso3": "JPN",
    "admin_name": "Tōkyō",
    "capital": "",
    "population": "581337",
    "id": "1392836404"
  },
  {
    "city": "Suginami-ku",
    "city_ascii": "Suginami-ku",
    "lat": "35.6995",
    "lng": "139.6364",
    "country": "Japan",
    "iso2": "JP",
    "iso3": "JPN",
    "admin_name": "Tōkyō",
    "capital": "",
    "population": "583609",
    "id": "1392003090"
  },
  {
    "city": "Kagoshima",
    "city_ascii": "Kagoshima",
    "lat": "31.6000",
    "lng": "130.5500",
    "country": "Japan",
    "iso2": "JP",
    "iso3": "JPN",
    "admin_name": "Kagoshima",
    "capital": "admin",
    "population": "593754",
    "id": "1392120675"
  },
  {
    "city": "Hachiōji",
    "city_ascii": "Hachioji",
    "lat": "35.6664",
    "lng": "139.3160",
    "country": "Japan",
    "iso2": "JP",
    "iso3": "JPN",
    "admin_name": "Tōkyō",
    "capital": "",
    "population": "575721",
    "id": "1392172935"
  },
  {
    "city": "Kōtō-ku",
    "city_ascii": "Koto-ku",
    "lat": "35.6728",
    "lng": "139.8173",
    "country": "Japan",
    "iso2": "JP",
    "iso3": "JPN",
    "admin_name": "Tōkyō",
    "capital": "",
    "population": "523117",
    "id": "1392003346"
  },
  {
    "city": "Himeji",
    "city_ascii": "Himeji",
    "lat": "34.8167",
    "lng": "134.6833",
    "country": "Japan",
    "iso2": "JP",
    "iso3": "JPN",
    "admin_name": "Hyōgo",
    "capital": "",
    "population": "527596",
    "id": "1392003149"
  },
  {
    "city": "Utsunomiya",
    "city_ascii": "Utsunomiya",
    "lat": "36.5551",
    "lng": "139.8826",
    "country": "Japan",
    "iso2": "JP",
    "iso3": "JPN",
    "admin_name": "Tochigi",
    "capital": "admin",
    "population": "518197",
    "id": "1392506125"
  },
  {
    "city": "Matsuyama",
    "city_ascii": "Matsuyama",
    "lat": "33.8333",
    "lng": "132.7667",
    "country": "Japan",
    "iso2": "JP",
    "iso3": "JPN",
    "admin_name": "Ehime",
    "capital": "admin",
    "population": "506743",
    "id": "1392220893"
  },
  {
    "city": "Matsudo",
    "city_ascii": "Matsudo",
    "lat": "35.7876",
    "lng": "139.9032",
    "country": "Japan",
    "iso2": "JP",
    "iso3": "JPN",
    "admin_name": "Chiba",
    "capital": "",
    "population": "497514",
    "id": "1392642525"
  },
  {
    "city": "Ichikawa",
    "city_ascii": "Ichikawa",
    "lat": "35.7219",
    "lng": "139.9311",
    "country": "Japan",
    "iso2": "JP",
    "iso3": "JPN",
    "admin_name": "Chiba",
    "capital": "",
    "population": "496657",
    "id": "1392076347"
  },
  {
    "city": "Higashi-ōsaka",
    "city_ascii": "Higashi-osaka",
    "lat": "34.6794",
    "lng": "135.6008",
    "country": "Japan",
    "iso2": "JP",
    "iso3": "JPN",
    "admin_name": "Ōsaka",
    "capital": "",
    "population": "490819",
    "id": "1392117396"
  },
  {
    "city": "Nishinomiya-hama",
    "city_ascii": "Nishinomiya-hama",
    "lat": "34.7376",
    "lng": "135.3416",
    "country": "Japan",
    "iso2": "JP",
    "iso3": "JPN",
    "admin_name": "Hyōgo",
    "capital": "",
    "population": "487010",
    "id": "1392114116"
  },
  {
    "city": "Ōita",
    "city_ascii": "Oita",
    "lat": "33.2333",
    "lng": "131.6067",
    "country": "Japan",
    "iso2": "JP",
    "iso3": "JPN",
    "admin_name": "Ōita",
    "capital": "admin",
    "population": "477186",
    "id": "1392081193"
  },
  {
    "city": "Kurashiki",
    "city_ascii": "Kurashiki",
    "lat": "34.5833",
    "lng": "133.7667",
    "country": "Japan",
    "iso2": "JP",
    "iso3": "JPN",
    "admin_name": "Okayama",
    "capital": "",
    "population": "474862",
    "id": "1392003246"
  },
  {
    "city": "Katsushika-ku",
    "city_ascii": "Katsushika-ku",
    "lat": "35.7434",
    "lng": "139.8472",
    "country": "Japan",
    "iso2": "JP",
    "iso3": "JPN",
    "admin_name": "Tōkyō",
    "capital": "",
    "population": "453410",
    "id": "1392003368"
  },
  {
    "city": "Kanazawa",
    "city_ascii": "Kanazawa",
    "lat": "36.5611",
    "lng": "136.6564",
    "country": "Japan",
    "iso2": "JP",
    "iso3": "JPN",
    "admin_name": "Ishikawa",
    "capital": "admin",
    "population": "462479",
    "id": "1392684679"
  },
  {
    "city": "Fukuyama",
    "city_ascii": "Fukuyama",
    "lat": "34.4833",
    "lng": "133.3667",
    "country": "Japan",
    "iso2": "JP",
    "iso3": "JPN",
    "admin_name": "Hiroshima",
    "capital": "",
    "population": "459576",
    "id": "1392551602"
  },
  {
    "city": "Amagasaki",
    "city_ascii": "Amagasaki",
    "lat": "34.7333",
    "lng": "135.4000",
    "country": "Japan",
    "iso2": "JP",
    "iso3": "JPN",
    "admin_name": "Hyōgo",
    "capital": "",
    "population": "450506",
    "id": "1392003182"
  },
  {
    "city": "Fujisawa",
    "city_ascii": "Fujisawa",
    "lat": "35.3500",
    "lng": "139.4667",
    "country": "Japan",
    "iso2": "JP",
    "iso3": "JPN",
    "admin_name": "Kanagawa",
    "capital": "",
    "population": "436744",
    "id": "1392640771"
  },
  {
    "city": "Machida",
    "city_ascii": "Machida",
    "lat": "35.7106",
    "lng": "139.4386",
    "country": "Japan",
    "iso2": "JP",
    "iso3": "JPN",
    "admin_name": "Tōkyō",
    "capital": "",
    "population": "434414",
    "id": "1392788615"
  },
  {
    "city": "Kashiwa",
    "city_ascii": "Kashiwa",
    "lat": "35.8676",
    "lng": "139.9758",
    "country": "Japan",
    "iso2": "JP",
    "iso3": "JPN",
    "admin_name": "Chiba",
    "capital": "",
    "population": "433941",
    "id": "1392133166"
  },
  {
    "city": "Shinagawa-ku",
    "city_ascii": "Shinagawa-ku",
    "lat": "35.6092",
    "lng": "139.7302",
    "country": "Japan",
    "iso2": "JP",
    "iso3": "JPN",
    "admin_name": "Tōkyō",
    "capital": "",
    "population": "415729",
    "id": "1392003304"
  },
  {
    "city": "Aomori",
    "city_ascii": "Aomori",
    "lat": "40.8223",
    "lng": "140.7307",
    "country": "Japan",
    "iso2": "JP",
    "iso3": "JPN",
    "admin_name": "Aomori",
    "capital": "admin",
    "population": "425962",
    "id": "1392083898"
  },
  {
    "city": "Toyota",
    "city_ascii": "Toyota",
    "lat": "35.0824",
    "lng": "137.1563",
    "country": "Japan",
    "iso2": "JP",
    "iso3": "JPN",
    "admin_name": "Aichi",
    "capital": "",
    "population": "422106",
    "id": "1392498272"
  },
  {
    "city": "Takamatsu",
    "city_ascii": "Takamatsu",
    "lat": "34.3500",
    "lng": "134.0500",
    "country": "Japan",
    "iso2": "JP",
    "iso3": "JPN",
    "admin_name": "Kagawa",
    "capital": "admin",
    "population": "417814",
    "id": "1392427161"
  },
  {
    "city": "Toyama",
    "city_ascii": "Toyama",
    "lat": "36.6959",
    "lng": "137.2137",
    "country": "Japan",
    "iso2": "JP",
    "iso3": "JPN",
    "admin_name": "Toyama",
    "capital": "admin",
    "population": "413028",
    "id": "1392000560"
  },
  {
    "city": "Toyonaka",
    "city_ascii": "Toyonaka",
    "lat": "34.7833",
    "lng": "135.4667",
    "country": "Japan",
    "iso2": "JP",
    "iso3": "JPN",
    "admin_name": "Ōsaka",
    "capital": "",
    "population": "401233",
    "id": "1392003256"
  },
  {
    "city": "Nagasaki",
    "city_ascii": "Nagasaki",
    "lat": "32.7447",
    "lng": "129.8736",
    "country": "Japan",
    "iso2": "JP",
    "iso3": "JPN",
    "admin_name": "Nagasaki",
    "capital": "admin",
    "population": "404656",
    "id": "1392162566"
  },
  {
    "city": "Hirakata",
    "city_ascii": "Hirakata",
    "lat": "34.8167",
    "lng": "135.6500",
    "country": "Japan",
    "iso2": "JP",
    "iso3": "JPN",
    "admin_name": "Ōsaka",
    "capital": "",
    "population": "396694",
    "id": "1392999987"
  },
  {
    "city": "Gifu",
    "city_ascii": "Gifu",
    "lat": "35.4232",
    "lng": "136.7608",
    "country": "Japan",
    "iso2": "JP",
    "iso3": "JPN",
    "admin_name": "Gifu",
    "capital": "admin",
    "population": "400118",
    "id": "1392097787"
  },
  {
    "city": "Miyazaki",
    "city_ascii": "Miyazaki",
    "lat": "31.9167",
    "lng": "131.4167",
    "country": "Japan",
    "iso2": "JP",
    "iso3": "JPN",
    "admin_name": "Miyazaki",
    "capital": "admin",
    "population": "397476",
    "id": "1392216224"
  },
  {
    "city": "Minamisuita",
    "city_ascii": "Minamisuita",
    "lat": "34.7594",
    "lng": "135.5169",
    "country": "Japan",
    "iso2": "JP",
    "iso3": "JPN",
    "admin_name": "Ōsaka",
    "capital": "",
    "population": "384953",
    "id": "1392948850"
  },
  {
    "city": "Yokosuka",
    "city_ascii": "Yokosuka",
    "lat": "35.2500",
    "lng": "139.6667",
    "country": "Japan",
    "iso2": "JP",
    "iso3": "JPN",
    "admin_name": "Kanagawa",
    "capital": "",
    "population": "390275",
    "id": "1392003389"
  },
  {
    "city": "Okazaki",
    "city_ascii": "Okazaki",
    "lat": "34.9543",
    "lng": "137.1744",
    "country": "Japan",
    "iso2": "JP",
    "iso3": "JPN",
    "admin_name": "Aichi",
    "capital": "",
    "population": "385376",
    "id": "1392862345"
  },
  {
    "city": "Ichinomiya",
    "city_ascii": "Ichinomiya",
    "lat": "35.3039",
    "lng": "136.8031",
    "country": "Japan",
    "iso2": "JP",
    "iso3": "JPN",
    "admin_name": "Aichi",
    "capital": "",
    "population": "378681",
    "id": "1392379530"
  },
  {
    "city": "Takasaki",
    "city_ascii": "Takasaki",
    "lat": "36.3219",
    "lng": "139.0033",
    "country": "Japan",
    "iso2": "JP",
    "iso3": "JPN",
    "admin_name": "Gunma",
    "capital": "",
    "population": "372639",
    "id": "1392000529"
  },
  {
    "city": "Toyohashi",
    "city_ascii": "Toyohashi",
    "lat": "34.7692",
    "lng": "137.3915",
    "country": "Japan",
    "iso2": "JP",
    "iso3": "JPN",
    "admin_name": "Aichi",
    "capital": "",
    "population": "371507",
    "id": "1392482960"
  },
  {
    "city": "Kita-ku",
    "city_ascii": "Kita-ku",
    "lat": "35.7528",
    "lng": "139.7336",
    "country": "Japan",
    "iso2": "JP",
    "iso3": "JPN",
    "admin_name": "Tōkyō",
    "capital": "",
    "population": "353058",
    "id": "1392003263"
  },
  {
    "city": "Shinjuku",
    "city_ascii": "Shinjuku",
    "lat": "35.6939",
    "lng": "139.7034",
    "country": "Japan",
    "iso2": "JP",
    "iso3": "JPN",
    "admin_name": "Tōkyō",
    "capital": "",
    "population": "349385",
    "id": "1392536374"
  },
  {
    "city": "Nagano",
    "city_ascii": "Nagano",
    "lat": "36.6486",
    "lng": "138.1947",
    "country": "Japan",
    "iso2": "JP",
    "iso3": "JPN",
    "admin_name": "Nagano",
    "capital": "admin",
    "population": "367184",
    "id": "1392603439"
  },
  {
    "city": "Nakano",
    "city_ascii": "Nakano",
    "lat": "35.7073",
    "lng": "139.6637",
    "country": "Japan",
    "iso2": "JP",
    "iso3": "JPN",
    "admin_name": "Tōkyō",
    "capital": "",
    "population": "341014",
    "id": "1392891845"
  },
  {
    "city": "Kawagoe",
    "city_ascii": "Kawagoe",
    "lat": "35.9251",
    "lng": "139.4858",
    "country": "Japan",
    "iso2": "JP",
    "iso3": "JPN",
    "admin_name": "Saitama",
    "capital": "",
    "population": "354598",
    "id": "1392825080"
  },
  {
    "city": "Wakayama",
    "city_ascii": "Wakayama",
    "lat": "34.2333",
    "lng": "135.1667",
    "country": "Japan",
    "iso2": "JP",
    "iso3": "JPN",
    "admin_name": "Wakayama",
    "capital": "admin",
    "population": "353299",
    "id": "1392907296"
  },
  {
    "city": "Nara",
    "city_ascii": "Nara",
    "lat": "34.6844",
    "lng": "135.8050",
    "country": "Japan",
    "iso2": "JP",
    "iso3": "JPN",
    "admin_name": "Nara",
    "capital": "admin",
    "population": "352377",
    "id": "1392520831"
  },
  {
    "city": "Koshigaya",
    "city_ascii": "Koshigaya",
    "lat": "35.8911",
    "lng": "139.7909",
    "country": "Japan",
    "iso2": "JP",
    "iso3": "JPN",
    "admin_name": "Saitama",
    "capital": "",
    "population": "346768",
    "id": "1392606124"
  },
  {
    "city": "Takatsuki",
    "city_ascii": "Takatsuki",
    "lat": "34.8500",
    "lng": "135.6167",
    "country": "Japan",
    "iso2": "JP",
    "iso3": "JPN",
    "admin_name": "Ōsaka",
    "capital": "",
    "population": "347496",
    "id": "1392003061"
  },
  {
    "city": "Tokorozawa",
    "city_ascii": "Tokorozawa",
    "lat": "35.7996",
    "lng": "139.4686",
    "country": "Japan",
    "iso2": "JP",
    "iso3": "JPN",
    "admin_name": "Saitama",
    "capital": "",
    "population": "341289",
    "id": "1392340764"
  },
  {
    "city": "Ōtsu",
    "city_ascii": "Otsu",
    "lat": "35.0167",
    "lng": "135.8500",
    "country": "Japan",
    "iso2": "JP",
    "iso3": "JPN",
    "admin_name": "Shiga",
    "capital": "admin",
    "population": "342607",
    "id": "1392164106"
  },
  {
    "city": "Iwaki",
    "city_ascii": "Iwaki",
    "lat": "37.0505",
    "lng": "140.8877",
    "country": "Japan",
    "iso2": "JP",
    "iso3": "JPN",
    "admin_name": "Fukushima",
    "capital": "",
    "population": "336111",
    "id": "1392158088"
  },
  {
    "city": "Hirosaki",
    "city_ascii": "Hirosaki",
    "lat": "40.6031",
    "lng": "140.4638",
    "country": "Japan",
    "iso2": "JP",
    "iso3": "JPN",
    "admin_name": "Aomori",
    "capital": "",
    "population": "335203",
    "id": "1392003311"
  },
  {
    "city": "Maebashi",
    "city_ascii": "Maebashi",
    "lat": "36.3895",
    "lng": "139.0634",
    "country": "Japan",
    "iso2": "JP",
    "iso3": "JPN",
    "admin_name": "Gunma",
    "capital": "admin",
    "population": "331849",
    "id": "1392333295"
  },
  {
    "city": "Asahikawa",
    "city_ascii": "Asahikawa",
    "lat": "43.7706",
    "lng": "142.3650",
    "country": "Japan",
    "iso2": "JP",
    "iso3": "JPN",
    "admin_name": "Hokkaidō",
    "capital": "",
    "population": "331392",
    "id": "1392380358"
  },
  {
    "city": "Koriyama",
    "city_ascii": "Koriyama",
    "lat": "37.4004",
    "lng": "140.3597",
    "country": "Japan",
    "iso2": "JP",
    "iso3": "JPN",
    "admin_name": "Fukushima",
    "capital": "",
    "population": "329706",
    "id": "1392003178"
  },
  {
    "city": "Kōchi",
    "city_ascii": "Kochi",
    "lat": "33.5589",
    "lng": "133.5314",
    "country": "Japan",
    "iso2": "JP",
    "iso3": "JPN",
    "admin_name": "Kōchi",
    "capital": "admin",
    "population": "325560",
    "id": "1392086071"
  },
  {
    "city": "Naha",
    "city_ascii": "Naha",
    "lat": "26.2122",
    "lng": "127.6792",
    "country": "Japan",
    "iso2": "JP",
    "iso3": "JPN",
    "admin_name": "Okinawa",
    "capital": "admin",
    "population": "316048",
    "id": "1392583118"
  },
  {
    "city": "Toshima",
    "city_ascii": "Toshima",
    "lat": "35.7261",
    "lng": "139.7167",
    "country": "Japan",
    "iso2": "JP",
    "iso3": "JPN",
    "admin_name": "Tōkyō",
    "capital": "",
    "population": "297954",
    "id": "1392793312"
  },
  {
    "city": "Yokkaichi",
    "city_ascii": "Yokkaichi",
    "lat": "34.9650",
    "lng": "136.6244",
    "country": "Japan",
    "iso2": "JP",
    "iso3": "JPN",
    "admin_name": "Mie",
    "capital": "",
    "population": "310263",
    "id": "1392198395"
  },
  {
    "city": "Kasugai",
    "city_ascii": "Kasugai",
    "lat": "35.2475",
    "lng": "136.9722",
    "country": "Japan",
    "iso2": "JP",
    "iso3": "JPN",
    "admin_name": "Aichi",
    "capital": "",
    "population": "306449",
    "id": "1392431449"
  },
  {
    "city": "Meguro",
    "city_ascii": "Meguro",
    "lat": "35.6415",
    "lng": "139.6983",
    "country": "Japan",
    "iso2": "JP",
    "iso3": "JPN",
    "admin_name": "Tōkyō",
    "capital": "",
    "population": "286905",
    "id": "1392876044"
  },
  {
    "city": "Ōakashichō",
    "city_ascii": "Oakashicho",
    "lat": "34.6500",
    "lng": "135.0000",
    "country": "Japan",
    "iso2": "JP",
    "iso3": "JPN",
    "admin_name": "Hyōgo",
    "capital": "",
    "population": "299699",
    "id": "1392000137"
  },
  {
    "city": "Kurume",
    "city_ascii": "Kurume",
    "lat": "33.3167",
    "lng": "130.5167",
    "country": "Japan",
    "iso2": "JP",
    "iso3": "JPN",
    "admin_name": "Fukuoka",
    "capital": "",
    "population": "302858",
    "id": "1392003184"
  },
  {
    "city": "Akita",
    "city_ascii": "Akita",
    "lat": "39.7200",
    "lng": "140.1026",
    "country": "Japan",
    "iso2": "JP",
    "iso3": "JPN",
    "admin_name": "Akita",
    "capital": "admin",
    "population": "302984",
    "id": "1392129688"
  },
  {
    "city": "Sumida",
    "city_ascii": "Sumida",
    "lat": "35.7107",
    "lng": "139.8015",
    "country": "Japan",
    "iso2": "JP",
    "iso3": "JPN",
    "admin_name": "Tōkyō",
    "capital": "",
    "population": "270823",
    "id": "1392075752"
  },
  {
    "city": "Morioka",
    "city_ascii": "Morioka",
    "lat": "39.7021",
    "lng": "141.1545",
    "country": "Japan",
    "iso2": "JP",
    "iso3": "JPN",
    "admin_name": "Iwate",
    "capital": "admin",
    "population": "290553",
    "id": "1392981957"
  },
  {
    "city": "Ibaraki",
    "city_ascii": "Ibaraki",
    "lat": "34.8164",
    "lng": "135.5686",
    "country": "Japan",
    "iso2": "JP",
    "iso3": "JPN",
    "admin_name": "Ōsaka",
    "capital": "",
    "population": "283835",
    "id": "1392003421"
  },
  {
    "city": "Fukushima",
    "city_ascii": "Fukushima",
    "lat": "37.7608",
    "lng": "140.4747",
    "country": "Japan",
    "iso2": "JP",
    "iso3": "JPN",
    "admin_name": "Fukushima",
    "capital": "admin",
    "population": "284282",
    "id": "1392570027"
  },
  {
    "city": "Minato",
    "city_ascii": "Minato",
    "lat": "35.6580",
    "lng": "139.7515",
    "country": "Japan",
    "iso2": "JP",
    "iso3": "JPN",
    "admin_name": "Tōkyō",
    "capital": "",
    "population": "260486",
    "id": "1392294093"
  },
  {
    "city": "Tsu",
    "city_ascii": "Tsu",
    "lat": "34.7184",
    "lng": "136.5057",
    "country": "Japan",
    "iso2": "JP",
    "iso3": "JPN",
    "admin_name": "Mie",
    "capital": "admin",
    "population": "273267",
    "id": "1392082102"
  },
  {
    "city": "Fuchū",
    "city_ascii": "Fuchu",
    "lat": "35.6689",
    "lng": "139.4776",
    "country": "Japan",
    "iso2": "JP",
    "iso3": "JPN",
    "admin_name": "Tōkyō",
    "capital": "",
    "population": "263093",
    "id": "1392370709"
  },
  {
    "city": "Mito",
    "city_ascii": "Mito",
    "lat": "36.3658",
    "lng": "140.4712",
    "country": "Japan",
    "iso2": "JP",
    "iso3": "JPN",
    "admin_name": "Ibaraki",
    "capital": "admin",
    "population": "270445",
    "id": "1392665227"
  },
  {
    "city": "Ichihara",
    "city_ascii": "Ichihara",
    "lat": "35.4981",
    "lng": "140.1154",
    "country": "Japan",
    "iso2": "JP",
    "iso3": "JPN",
    "admin_name": "Chiba",
    "capital": "",
    "population": "268038",
    "id": "1392167256"
  },
  {
    "city": "Yao",
    "city_ascii": "Yao",
    "lat": "34.6269",
    "lng": "135.6010",
    "country": "Japan",
    "iso2": "JP",
    "iso3": "JPN",
    "admin_name": "Nara",
    "capital": "",
    "population": "264913",
    "id": "1392943074"
  },
  {
    "city": "Nagaoka",
    "city_ascii": "Nagaoka",
    "lat": "37.4462",
    "lng": "138.8512",
    "country": "Japan",
    "iso2": "JP",
    "iso3": "JPN",
    "admin_name": "Niigata",
    "capital": "",
    "population": "265868",
    "id": "1392003404"
  },
  {
    "city": "Kakogawachō-honmachi",
    "city_ascii": "Kakogawacho-honmachi",
    "lat": "34.7500",
    "lng": "134.8333",
    "country": "Japan",
    "iso2": "JP",
    "iso3": "JPN",
    "admin_name": "Hyōgo",
    "capital": "",
    "population": "260595",
    "id": "1392189230"
  },
  {
    "city": "Fukui",
    "city_ascii": "Fukui",
    "lat": "36.0641",
    "lng": "136.2196",
    "country": "Japan",
    "iso2": "JP",
    "iso3": "JPN",
    "admin_name": "Fukui",
    "capital": "admin",
    "population": "261474",
    "id": "1392897510"
  },
  {
    "city": "Hiratsuka",
    "city_ascii": "Hiratsuka",
    "lat": "35.3167",
    "lng": "139.3500",
    "country": "Japan",
    "iso2": "JP",
    "iso3": "JPN",
    "admin_name": "Kanagawa",
    "capital": "",
    "population": "257662",
    "id": "1392311050"
  },
  {
    "city": "Sōka",
    "city_ascii": "Soka",
    "lat": "35.8254",
    "lng": "139.8053",
    "country": "Japan",
    "iso2": "JP",
    "iso3": "JPN",
    "admin_name": "Saitama",
    "capital": "",
    "population": "251390",
    "id": "1392354483"
  },
  {
    "city": "Bunkyō-ku",
    "city_ascii": "Bunkyo-ku",
    "lat": "35.7080",
    "lng": "139.7523",
    "country": "Japan",
    "iso2": "JP",
    "iso3": "JPN",
    "admin_name": "Tōkyō",
    "capital": "",
    "population": "240069",
    "id": "1392003059"
  },
  {
    "city": "Tokushima",
    "city_ascii": "Tokushima",
    "lat": "34.0703",
    "lng": "134.5549",
    "country": "Japan",
    "iso2": "JP",
    "iso3": "JPN",
    "admin_name": "Tokushima",
    "capital": "admin",
    "population": "254510",
    "id": "1392795984"
  },
  {
    "city": "Shinozaki",
    "city_ascii": "Shinozaki",
    "lat": "33.9500",
    "lng": "130.9333",
    "country": "Japan",
    "iso2": "JP",
    "iso3": "JPN",
    "admin_name": "Fukuoka",
    "capital": "",
    "population": "252844",
    "id": "1392516557"
  },
  {
    "city": "Hakodate",
    "city_ascii": "Hakodate",
    "lat": "41.7686",
    "lng": "140.7289",
    "country": "Japan",
    "iso2": "JP",
    "iso3": "JPN",
    "admin_name": "Hokkaidō",
    "capital": "",
    "population": "251942",
    "id": "1392708558"
  },
  {
    "city": "Chōfugaoka",
    "city_ascii": "Chofugaoka",
    "lat": "35.6506",
    "lng": "139.5407",
    "country": "Japan",
    "iso2": "JP",
    "iso3": "JPN",
    "admin_name": "Tōkyō",
    "capital": "",
    "population": "240359",
    "id": "1392692794"
  },
  {
    "city": "Shibuya-ku",
    "city_ascii": "Shibuya-ku",
    "lat": "35.6637",
    "lng": "139.6977",
    "country": "Japan",
    "iso2": "JP",
    "iso3": "JPN",
    "admin_name": "Tōkyō",
    "capital": "",
    "population": "235193",
    "id": "1392003273"
  },
  {
    "city": "Chigasaki",
    "city_ascii": "Chigasaki",
    "lat": "35.3333",
    "lng": "139.4000",
    "country": "Japan",
    "iso2": "JP",
    "iso3": "JPN",
    "admin_name": "Kanagawa",
    "capital": "",
    "population": "242347",
    "id": "1392346493"
  },
  {
    "city": "Yato",
    "city_ascii": "Yato",
    "lat": "35.4833",
    "lng": "139.4500",
    "country": "Japan",
    "iso2": "JP",
    "iso3": "JPN",
    "admin_name": "Kanagawa",
    "capital": "",
    "population": "239146",
    "id": "1392469032"
  },
  {
    "city": "Yamagata",
    "city_ascii": "Yamagata",
    "lat": "38.2554",
    "lng": "140.3396",
    "country": "Japan",
    "iso2": "JP",
    "iso3": "JPN",
    "admin_name": "Yamagata",
    "capital": "admin",
    "population": "247234",
    "id": "1392300081"
  },
  {
    "city": "Tsukuba-kenkyūgakuen-toshi",
    "city_ascii": "Tsukuba-kenkyugakuen-toshi",
    "lat": "36.0835",
    "lng": "140.0764",
    "country": "Japan",
    "iso2": "JP",
    "iso3": "JPN",
    "admin_name": "Ibaraki",
    "capital": "",
    "population": "246647",
    "id": "1392112466"
  },
  {
    "city": "Fuji",
    "city_ascii": "Fuji",
    "lat": "35.1613",
    "lng": "138.6763",
    "country": "Japan",
    "iso2": "JP",
    "iso3": "JPN",
    "admin_name": "Shizuoka",
    "capital": "",
    "population": "243739",
    "id": "1392249213"
  },
  {
    "city": "Sasebo",
    "city_ascii": "Sasebo",
    "lat": "33.1800",
    "lng": "129.7150",
    "country": "Japan",
    "iso2": "JP",
    "iso3": "JPN",
    "admin_name": "Nagasaki",
    "capital": "",
    "population": "242664",
    "id": "1392003180"
  },
  {
    "city": "Arakawa",
    "city_ascii": "Arakawa",
    "lat": "35.7361",
    "lng": "139.7834",
    "country": "Japan",
    "iso2": "JP",
    "iso3": "JPN",
    "admin_name": "Tōkyō",
    "capital": "",
    "population": "217891",
    "id": "1392229262"
  },
  {
    "city": "Matsumoto",
    "city_ascii": "Matsumoto",
    "lat": "36.2380",
    "lng": "137.9720",
    "country": "Japan",
    "iso2": "JP",
    "iso3": "JPN",
    "admin_name": "Nagano",
    "capital": "",
    "population": "239115",
    "id": "1392003338"
  },
  {
    "city": "Neya",
    "city_ascii": "Neya",
    "lat": "34.7667",
    "lng": "135.6333",
    "country": "Japan",
    "iso2": "JP",
    "iso3": "JPN",
    "admin_name": "Ōsaka",
    "capital": "",
    "population": "227997",
    "id": "1392993634"
  },
  {
    "city": "Saga",
    "city_ascii": "Saga",
    "lat": "33.2667",
    "lng": "130.3000",
    "country": "Japan",
    "iso2": "JP",
    "iso3": "JPN",
    "admin_name": "Saga",
    "capital": "admin",
    "population": "232359",
    "id": "1392618841"
  },
  {
    "city": "Kasukabe",
    "city_ascii": "Kasukabe",
    "lat": "35.9753",
    "lng": "139.7523",
    "country": "Japan",
    "iso2": "JP",
    "iso3": "JPN",
    "admin_name": "Saitama",
    "capital": "",
    "population": "228975",
    "id": "1392430282"
  },
  {
    "city": "Ageoshimo",
    "city_ascii": "Ageoshimo",
    "lat": "35.9774",
    "lng": "139.5932",
    "country": "Japan",
    "iso2": "JP",
    "iso3": "JPN",
    "admin_name": "Saitama",
    "capital": "",
    "population": "226616",
    "id": "1392046664"
  },
  {
    "city": "Taitō",
    "city_ascii": "Taito",
    "lat": "35.7126",
    "lng": "139.7800",
    "country": "Japan",
    "iso2": "JP",
    "iso3": "JPN",
    "admin_name": "Tōkyō",
    "capital": "",
    "population": "210528",
    "id": "1392662678"
  },
  {
    "city": "Takarazuka",
    "city_ascii": "Takarazuka",
    "lat": "34.8114",
    "lng": "135.3406",
    "country": "Japan",
    "iso2": "JP",
    "iso3": "JPN",
    "admin_name": "Hyōgo",
    "capital": "",
    "population": "224055",
    "id": "1392999976"
  },
  {
    "city": "Atsugichō",
    "city_ascii": "Atsugicho",
    "lat": "35.4333",
    "lng": "139.3667",
    "country": "Japan",
    "iso2": "JP",
    "iso3": "JPN",
    "admin_name": "Kanagawa",
    "capital": "",
    "population": "223815",
    "id": "1392522298"
  },
  {
    "city": "Ōta",
    "city_ascii": "Ota",
    "lat": "36.2911",
    "lng": "139.3754",
    "country": "Japan",
    "iso2": "JP",
    "iso3": "JPN",
    "admin_name": "Gunma",
    "capital": "",
    "population": "222806",
    "id": "1392003546"
  },
  {
    "city": "Hachinohe",
    "city_ascii": "Hachinohe",
    "lat": "40.5123",
    "lng": "141.4884",
    "country": "Japan",
    "iso2": "JP",
    "iso3": "JPN",
    "admin_name": "Aomori",
    "capital": "",
    "population": "222799",
    "id": "1392000706"
  },
  {
    "city": "Nishitōkyō",
    "city_ascii": "Nishitokyo",
    "lat": "35.7256",
    "lng": "139.5383",
    "country": "Japan",
    "iso2": "JP",
    "iso3": "JPN",
    "admin_name": "Tōkyō",
    "capital": "",
    "population": "207436",
    "id": "1392001244"
  },
  {
    "city": "Kure",
    "city_ascii": "Kure",
    "lat": "34.2500",
    "lng": "132.5667",
    "country": "Japan",
    "iso2": "JP",
    "iso3": "JPN",
    "admin_name": "Hiroshima",
    "capital": "",
    "population": "212159",
    "id": "1392991987"
  },
  {
    "city": "Isesaki",
    "city_ascii": "Isesaki",
    "lat": "36.3114",
    "lng": "139.1968",
    "country": "Japan",
    "iso2": "JP",
    "iso3": "JPN",
    "admin_name": "Gunma",
    "capital": "",
    "population": "210332",
    "id": "1392003456"
  },
  {
    "city": "Kodaira",
    "city_ascii": "Kodaira",
    "lat": "35.7285",
    "lng": "139.4774",
    "country": "Japan",
    "iso2": "JP",
    "iso3": "JPN",
    "admin_name": "Tōkyō",
    "capital": "",
    "population": "196959",
    "id": "1392003213"
  },
  {
    "city": "Itami",
    "city_ascii": "Itami",
    "lat": "34.7833",
    "lng": "135.4000",
    "country": "Japan",
    "iso2": "JP",
    "iso3": "JPN",
    "admin_name": "Hyōgo",
    "capital": "",
    "population": "198522",
    "id": "1392384479"
  },
  {
    "city": "Kamirenjaku",
    "city_ascii": "Kamirenjaku",
    "lat": "35.6836",
    "lng": "139.5595",
    "country": "Japan",
    "iso2": "JP",
    "iso3": "JPN",
    "admin_name": "Tōkyō",
    "capital": "",
    "population": "194460",
    "id": "1392889022"
  },
  {
    "city": "Nagareyama",
    "city_ascii": "Nagareyama",
    "lat": "35.8563",
    "lng": "139.9029",
    "country": "Japan",
    "iso2": "JP",
    "iso3": "JPN",
    "admin_name": "Chiba",
    "capital": "",
    "population": "200298",
    "id": "1392398873"
  },
  {
    "city": "Yachiyo",
    "city_ascii": "Yachiyo",
    "lat": "35.7224",
    "lng": "140.0999",
    "country": "Japan",
    "iso2": "JP",
    "iso3": "JPN",
    "admin_name": "Chiba",
    "capital": "",
    "population": "200538",
    "id": "1392929073"
  },
  {
    "city": "Matsue",
    "city_ascii": "Matsue",
    "lat": "35.4708",
    "lng": "133.0519",
    "country": "Japan",
    "iso2": "JP",
    "iso3": "JPN",
    "admin_name": "Shimane",
    "capital": "admin",
    "population": "201802",
    "id": "1392692238"
  },
  {
    "city": "Higashi-Hiroshima",
    "city_ascii": "Higashi-Hiroshima",
    "lat": "34.4167",
    "lng": "132.7333",
    "country": "Japan",
    "iso2": "JP",
    "iso3": "JPN",
    "admin_name": "Hiroshima",
    "capital": "",
    "population": "197347",
    "id": "1392464732"
  },
  {
    "city": "Hino",
    "city_ascii": "Hino",
    "lat": "35.6713",
    "lng": "139.3951",
    "country": "Japan",
    "iso2": "JP",
    "iso3": "JPN",
    "admin_name": "Tōkyō",
    "capital": "",
    "population": "190598",
    "id": "1392686410"
  },
  {
    "city": "Suzuka",
    "city_ascii": "Suzuka",
    "lat": "34.8820",
    "lng": "136.5842",
    "country": "Japan",
    "iso2": "JP",
    "iso3": "JPN",
    "admin_name": "Mie",
    "capital": "",
    "population": "195250",
    "id": "1392913924"
  },
  {
    "city": "Kumagaya",
    "city_ascii": "Kumagaya",
    "lat": "36.1474",
    "lng": "139.3886",
    "country": "Japan",
    "iso2": "JP",
    "iso3": "JPN",
    "admin_name": "Saitama",
    "capital": "",
    "population": "193190",
    "id": "1392500750"
  },
  {
    "city": "Yamaguchi",
    "city_ascii": "Yamaguchi",
    "lat": "34.1833",
    "lng": "131.4667",
    "country": "Japan",
    "iso2": "JP",
    "iso3": "JPN",
    "admin_name": "Yamaguchi",
    "capital": "admin",
    "population": "193761",
    "id": "1392887215"
  },
  {
    "city": "Anjōmachi",
    "city_ascii": "Anjomachi",
    "lat": "34.9587",
    "lng": "137.0803",
    "country": "Japan",
    "iso2": "JP",
    "iso3": "JPN",
    "admin_name": "Aichi",
    "capital": "",
    "population": "188801",
    "id": "1392081830"
  },
  {
    "city": "Odawara",
    "city_ascii": "Odawara",
    "lat": "35.2500",
    "lng": "139.1500",
    "country": "Japan",
    "iso2": "JP",
    "iso3": "JPN",
    "admin_name": "Kanagawa",
    "capital": "",
    "population": "189038",
    "id": "1392003516"
  },
  {
    "city": "Kishiwada",
    "city_ascii": "Kishiwada",
    "lat": "34.4667",
    "lng": "135.3667",
    "country": "Japan",
    "iso2": "JP",
    "iso3": "JPN",
    "admin_name": "Ōsaka",
    "capital": "",
    "population": "188015",
    "id": "1392003372"
  },
  {
    "city": "Numazu",
    "city_ascii": "Numazu",
    "lat": "35.0956",
    "lng": "138.8634",
    "country": "Japan",
    "iso2": "JP",
    "iso3": "JPN",
    "admin_name": "Shizuoka",
    "capital": "",
    "population": "187653",
    "id": "1392003112"
  },
  {
    "city": "Tachikawa",
    "city_ascii": "Tachikawa",
    "lat": "35.6942",
    "lng": "139.4197",
    "country": "Japan",
    "iso2": "JP",
    "iso3": "JPN",
    "admin_name": "Tōkyō",
    "capital": "",
    "population": "181115",
    "id": "1392042507"
  },
  {
    "city": "Kōfu",
    "city_ascii": "Kofu",
    "lat": "35.6621",
    "lng": "138.5682",
    "country": "Japan",
    "iso2": "JP",
    "iso3": "JPN",
    "admin_name": "Yamanashi",
    "capital": "admin",
    "population": "187144",
    "id": "1392307565"
  },
  {
    "city": "Tottori",
    "city_ascii": "Tottori",
    "lat": "35.5000",
    "lng": "134.2333",
    "country": "Japan",
    "iso2": "JP",
    "iso3": "JPN",
    "admin_name": "Tottori",
    "capital": "",
    "population": "187323",
    "id": "1392416969"
  },
  {
    "city": "Jōetsu",
    "city_ascii": "Joetsu",
    "lat": "37.1479",
    "lng": "138.2361",
    "country": "Japan",
    "iso2": "JP",
    "iso3": "JPN",
    "admin_name": "Niigata",
    "capital": "",
    "population": "187291",
    "id": "1392040772"
  },
  {
    "city": "Toyokawa",
    "city_ascii": "Toyokawa",
    "lat": "34.8268",
    "lng": "137.3759",
    "country": "Japan",
    "iso2": "JP",
    "iso3": "JPN",
    "admin_name": "Aichi",
    "capital": "",
    "population": "183965",
    "id": "1392297078"
  },
  {
    "city": "Chūō-ku",
    "city_ascii": "Chuo-ku",
    "lat": "35.6706",
    "lng": "139.7720",
    "country": "Japan",
    "iso2": "JP",
    "iso3": "JPN",
    "admin_name": "Tōkyō",
    "capital": "",
    "population": "169995",
    "id": "1392003401"
  },
  {
    "city": "Narashino",
    "city_ascii": "Narashino",
    "lat": "35.6804",
    "lng": "140.0265",
    "country": "Japan",
    "iso2": "JP",
    "iso3": "JPN",
    "admin_name": "Chiba",
    "capital": "",
    "population": "174990",
    "id": "1392933042"
  },
  {
    "city": "Uji",
    "city_ascii": "Uji",
    "lat": "34.8844",
    "lng": "135.7997",
    "country": "Japan",
    "iso2": "JP",
    "iso3": "JPN",
    "admin_name": "Kyōto",
    "capital": "",
    "population": "179626",
    "id": "1392148678"
  },
  {
    "city": "Urayasu",
    "city_ascii": "Urayasu",
    "lat": "35.6539",
    "lng": "139.9022",
    "country": "Japan",
    "iso2": "JP",
    "iso3": "JPN",
    "admin_name": "Chiba",
    "capital": "",
    "population": "169749",
    "id": "1392003082"
  },
  {
    "city": "Kamakurayama",
    "city_ascii": "Kamakurayama",
    "lat": "35.3197",
    "lng": "139.5525",
    "country": "Japan",
    "iso2": "JP",
    "iso3": "JPN",
    "admin_name": "Kanagawa",
    "capital": "",
    "population": "172929",
    "id": "1392220561"
  },
  {
    "city": "Hitachi",
    "city_ascii": "Hitachi",
    "lat": "36.5991",
    "lng": "140.6515",
    "country": "Japan",
    "iso2": "JP",
    "iso3": "JPN",
    "admin_name": "Ibaraki",
    "capital": "",
    "population": "172709",
    "id": "1392145167"
  },
  {
    "city": "Izumo",
    "city_ascii": "Izumo",
    "lat": "35.3667",
    "lng": "132.7667",
    "country": "Japan",
    "iso2": "JP",
    "iso3": "JPN",
    "admin_name": "Shimane",
    "capital": "",
    "population": "171995",
    "id": "1392299364"
  },
  {
    "city": "Niiza",
    "city_ascii": "Niiza",
    "lat": "35.7935",
    "lng": "139.5653",
    "country": "Japan",
    "iso2": "JP",
    "iso3": "JPN",
    "admin_name": "Saitama",
    "capital": "",
    "population": "164653",
    "id": "1392772700"
  },
  {
    "city": "Sakura",
    "city_ascii": "Sakura",
    "lat": "35.7167",
    "lng": "140.2167",
    "country": "Japan",
    "iso2": "JP",
    "iso3": "JPN",
    "admin_name": "Chiba",
    "capital": "",
    "population": "169059",
    "id": "1392611314"
  },
  {
    "city": "Tomakomai",
    "city_ascii": "Tomakomai",
    "lat": "42.6341",
    "lng": "141.6055",
    "country": "Japan",
    "iso2": "JP",
    "iso3": "JPN",
    "admin_name": "Hokkaidō",
    "capital": "",
    "population": "170223",
    "id": "1392999977"
  },
  {
    "city": "Nishio",
    "city_ascii": "Nishio",
    "lat": "34.8333",
    "lng": "137.0667",
    "country": "Japan",
    "iso2": "JP",
    "iso3": "JPN",
    "admin_name": "Aichi",
    "capital": "",
    "population": "168992",
    "id": "1392425838"
  },
  {
    "city": "Oyama",
    "city_ascii": "Oyama",
    "lat": "36.3146",
    "lng": "139.8002",
    "country": "Japan",
    "iso2": "JP",
    "iso3": "JPN",
    "admin_name": "Tochigi",
    "capital": "",
    "population": "167874",
    "id": "1392122083"
  },
  {
    "city": "Iwata",
    "city_ascii": "Iwata",
    "lat": "34.7179",
    "lng": "137.8515",
    "country": "Japan",
    "iso2": "JP",
    "iso3": "JPN",
    "admin_name": "Shizuoka",
    "capital": "",
    "population": "165688",
    "id": "1392088261"
  },
  {
    "city": "Takaoka",
    "city_ascii": "Takaoka",
    "lat": "36.7541",
    "lng": "137.0257",
    "country": "Japan",
    "iso2": "JP",
    "iso3": "JPN",
    "admin_name": "Toyama",
    "capital": "",
    "population": "165880",
    "id": "1392754231"
  },
  {
    "city": "Obihiro",
    "city_ascii": "Obihiro",
    "lat": "42.9167",
    "lng": "143.2000",
    "country": "Japan",
    "iso2": "JP",
    "iso3": "JPN",
    "admin_name": "Hokkaidō",
    "capital": "",
    "population": "165684",
    "id": "1392003095"
  },
  {
    "city": "Hadano",
    "city_ascii": "Hadano",
    "lat": "35.3667",
    "lng": "139.2167",
    "country": "Japan",
    "iso2": "JP",
    "iso3": "JPN",
    "admin_name": "Kanagawa",
    "capital": "",
    "population": "164292",
    "id": "1392003173"
  },
  {
    "city": "Kushiro",
    "city_ascii": "Kushiro",
    "lat": "42.9833",
    "lng": "144.3833",
    "country": "Japan",
    "iso2": "JP",
    "iso3": "JPN",
    "admin_name": "Hokkaidō",
    "capital": "",
    "population": "165699",
    "id": "1392003151"
  },
  {
    "city": "Ube",
    "city_ascii": "Ube",
    "lat": "33.9500",
    "lng": "131.2500",
    "country": "Japan",
    "iso2": "JP",
    "iso3": "JPN",
    "admin_name": "Yamaguchi",
    "capital": "",
    "population": "162873",
    "id": "1392198814"
  },
  {
    "city": "Musashino",
    "city_ascii": "Musashino",
    "lat": "35.7177",
    "lng": "139.5661",
    "country": "Japan",
    "iso2": "JP",
    "iso3": "JPN",
    "admin_name": "Tōkyō",
    "capital": "",
    "population": "148971",
    "id": "1392003488"
  },
  {
    "city": "Miyakonojō",
    "city_ascii": "Miyakonojo",
    "lat": "31.7167",
    "lng": "131.0667",
    "country": "Japan",
    "iso2": "JP",
    "iso3": "JPN",
    "admin_name": "Miyazaki",
    "capital": "",
    "population": "159878",
    "id": "1392003484"
  },
  {
    "city": "Higashimurayama",
    "city_ascii": "Higashimurayama",
    "lat": "35.7546",
    "lng": "139.4685",
    "country": "Japan",
    "iso2": "JP",
    "iso3": "JPN",
    "admin_name": "Tōkyō",
    "capital": "",
    "population": "150458",
    "id": "1392034645"
  },
  {
    "city": "Ōgaki",
    "city_ascii": "Ogaki",
    "lat": "35.3594",
    "lng": "136.6129",
    "country": "Japan",
    "iso2": "JP",
    "iso3": "JPN",
    "admin_name": "Gifu",
    "capital": "",
    "population": "158386",
    "id": "1392727505"
  },
  {
    "city": "Matsuzaka",
    "city_ascii": "Matsuzaka",
    "lat": "34.5779",
    "lng": "136.5276",
    "country": "Japan",
    "iso2": "JP",
    "iso3": "JPN",
    "admin_name": "Mie",
    "capital": "",
    "population": "158472",
    "id": "1392893621"
  },
  {
    "city": "Daiwanishi",
    "city_ascii": "Daiwanishi",
    "lat": "34.8333",
    "lng": "135.4167",
    "country": "Japan",
    "iso2": "JP",
    "iso3": "JPN",
    "admin_name": "Hyōgo",
    "capital": "",
    "population": "155165",
    "id": "1392478155"
  },
  {
    "city": "Kariya",
    "city_ascii": "Kariya",
    "lat": "34.9893",
    "lng": "137.0021",
    "country": "Japan",
    "iso2": "JP",
    "iso3": "JPN",
    "admin_name": "Aichi",
    "capital": "",
    "population": "153178",
    "id": "1392620119"
  },
  {
    "city": "Hitachi-Naka",
    "city_ascii": "Hitachi-Naka",
    "lat": "36.3967",
    "lng": "140.5347",
    "country": "Japan",
    "iso2": "JP",
    "iso3": "JPN",
    "admin_name": "Ibaraki",
    "capital": "",
    "population": "154311",
    "id": "1392134860"
  },
  {
    "city": "Tama",
    "city_ascii": "Tama",
    "lat": "35.6369",
    "lng": "139.4463",
    "country": "Japan",
    "iso2": "JP",
    "iso3": "JPN",
    "admin_name": "Tōkyō",
    "capital": "",
    "population": "147252",
    "id": "1392092333"
  },
  {
    "city": "Tochigi",
    "city_ascii": "Tochigi",
    "lat": "36.3813",
    "lng": "139.7303",
    "country": "Japan",
    "iso2": "JP",
    "iso3": "JPN",
    "admin_name": "Tochigi",
    "capital": "",
    "population": "153508",
    "id": "1392660923"
  },
  {
    "city": "Noda",
    "city_ascii": "Noda",
    "lat": "35.9500",
    "lng": "139.8667",
    "country": "Japan",
    "iso2": "JP",
    "iso3": "JPN",
    "admin_name": "Chiba",
    "capital": "",
    "population": "152227",
    "id": "1392224794"
  },
  {
    "city": "Ueda",
    "city_ascii": "Ueda",
    "lat": "36.4019",
    "lng": "138.2491",
    "country": "Japan",
    "iso2": "JP",
    "iso3": "JPN",
    "admin_name": "Nagano",
    "capital": "",
    "population": "152948",
    "id": "1392438902"
  },
  {
    "city": "Moriguchi",
    "city_ascii": "Moriguchi",
    "lat": "34.7375",
    "lng": "135.5642",
    "country": "Japan",
    "iso2": "JP",
    "iso3": "JPN",
    "admin_name": "Ōsaka",
    "capital": "",
    "population": "141849",
    "id": "1392003269"
  },
  {
    "city": "Kawashiri",
    "city_ascii": "Kawashiri",
    "lat": "34.8301",
    "lng": "135.4173",
    "country": "Japan",
    "iso2": "JP",
    "iso3": "JPN",
    "admin_name": "Ōsaka",
    "capital": "",
    "population": "152076",
    "id": "1392471189"
  },
  {
    "city": "Kukichūō",
    "city_ascii": "Kukichuo",
    "lat": "36.0621",
    "lng": "139.6668",
    "country": "Japan",
    "iso2": "JP",
    "iso3": "JPN",
    "admin_name": "Saitama",
    "capital": "",
    "population": "150197",
    "id": "1392642279"
  },
  {
    "city": "Asaka",
    "city_ascii": "Asaka",
    "lat": "35.7972",
    "lng": "139.5939",
    "country": "Japan",
    "iso2": "JP",
    "iso3": "JPN",
    "admin_name": "Saitama",
    "capital": "",
    "population": "143915",
    "id": "1392003253"
  },
  {
    "city": "Sayama",
    "city_ascii": "Sayama",
    "lat": "35.8530",
    "lng": "139.4122",
    "country": "Japan",
    "iso2": "JP",
    "iso3": "JPN",
    "admin_name": "Saitama",
    "capital": "",
    "population": "148474",
    "id": "1392752018"
  },
  {
    "city": "Komaki",
    "city_ascii": "Komaki",
    "lat": "35.2910",
    "lng": "136.9121",
    "country": "Japan",
    "iso2": "JP",
    "iso3": "JPN",
    "admin_name": "Aichi",
    "capital": "",
    "population": "147897",
    "id": "1392770958"
  },
  {
    "city": "Toda",
    "city_ascii": "Toda",
    "lat": "35.8176",
    "lng": "139.6779",
    "country": "Japan",
    "iso2": "JP",
    "iso3": "JPN",
    "admin_name": "Saitama",
    "capital": "",
    "population": "142352",
    "id": "1392003295"
  },
  {
    "city": "Imabari",
    "city_ascii": "Imabari",
    "lat": "34.0667",
    "lng": "133.0000",
    "country": "Japan",
    "iso2": "JP",
    "iso3": "JPN",
    "admin_name": "Ehime",
    "capital": "",
    "population": "149209",
    "id": "1392801732"
  },
  {
    "city": "Iruma",
    "city_ascii": "Iruma",
    "lat": "35.8358",
    "lng": "139.3911",
    "country": "Japan",
    "iso2": "JP",
    "iso3": "JPN",
    "admin_name": "Saitama",
    "capital": "",
    "population": "145778",
    "id": "1392661533"
  },
  {
    "city": "Yonago",
    "city_ascii": "Yonago",
    "lat": "35.4333",
    "lng": "133.3333",
    "country": "Japan",
    "iso2": "JP",
    "iso3": "JPN",
    "admin_name": "Tottori",
    "capital": "",
    "population": "147210",
    "id": "1392391989"
  },
  {
    "city": "Misato",
    "city_ascii": "Misato",
    "lat": "35.8301",
    "lng": "139.8723",
    "country": "Japan",
    "iso2": "JP",
    "iso3": "JPN",
    "admin_name": "Chiba",
    "capital": "",
    "population": "141913",
    "id": "1392464033"
  },
  {
    "city": "Kusatsu",
    "city_ascii": "Kusatsu",
    "lat": "35.0167",
    "lng": "135.9667",
    "country": "Japan",
    "iso2": "JP",
    "iso3": "JPN",
    "admin_name": "Shiga",
    "capital": "",
    "population": "143230",
    "id": "1392082200"
  },
  {
    "city": "Kakamigahara",
    "city_ascii": "Kakamigahara",
    "lat": "35.3988",
    "lng": "136.8484",
    "country": "Japan",
    "iso2": "JP",
    "iso3": "JPN",
    "admin_name": "Gifu",
    "capital": "",
    "population": "143641",
    "id": "1392578597"
  },
  {
    "city": "Okinawa",
    "city_ascii": "Okinawa",
    "lat": "26.3342",
    "lng": "127.8056",
    "country": "Japan",
    "iso2": "JP",
    "iso3": "JPN",
    "admin_name": "Okinawa",
    "capital": "",
    "population": "142094",
    "id": "1392003477"
  },
  {
    "city": "Ashikaga",
    "city_ascii": "Ashikaga",
    "lat": "36.3402",
    "lng": "139.4497",
    "country": "Japan",
    "iso2": "JP",
    "iso3": "JPN",
    "admin_name": "Tochigi",
    "capital": "",
    "population": "142882",
    "id": "1392003201"
  },
  {
    "city": "Fukayachō",
    "city_ascii": "Fukayacho",
    "lat": "36.1975",
    "lng": "139.2815",
    "country": "Japan",
    "iso2": "JP",
    "iso3": "JPN",
    "admin_name": "Saitama",
    "capital": "",
    "population": "141336",
    "id": "1392571441"
  },
  {
    "city": "Fujita",
    "city_ascii": "Fujita",
    "lat": "34.8674",
    "lng": "138.2577",
    "country": "Japan",
    "iso2": "JP",
    "iso3": "JPN",
    "admin_name": "Shizuoka",
    "capital": "",
    "population": "140947",
    "id": "1392223322"
  },
  {
    "city": "Kokubunji",
    "city_ascii": "Kokubunji",
    "lat": "35.7109",
    "lng": "139.4622",
    "country": "Japan",
    "iso2": "JP",
    "iso3": "JPN",
    "admin_name": "Tōkyō",
    "capital": "",
    "population": "129619",
    "id": "1392193917"
  },
  {
    "city": "Ebina",
    "city_ascii": "Ebina",
    "lat": "35.4464",
    "lng": "139.3908",
    "country": "Japan",
    "iso2": "JP",
    "iso3": "JPN",
    "admin_name": "Kanagawa",
    "capital": "",
    "population": "135557",
    "id": "1392003085"
  },
  {
    "city": "Kuwana",
    "city_ascii": "Kuwana",
    "lat": "35.0667",
    "lng": "136.6833",
    "country": "Japan",
    "iso2": "JP",
    "iso3": "JPN",
    "admin_name": "Mie",
    "capital": "",
    "population": "138798",
    "id": "1392018722"
  },
  {
    "city": "Minō",
    "city_ascii": "Mino",
    "lat": "34.8269",
    "lng": "135.4704",
    "country": "Japan",
    "iso2": "JP",
    "iso3": "JPN",
    "admin_name": "Ōsaka",
    "capital": "",
    "population": "136976",
    "id": "1392003271"
  },
  {
    "city": "Koga",
    "city_ascii": "Koga",
    "lat": "36.1782",
    "lng": "139.7554",
    "country": "Japan",
    "iso2": "JP",
    "iso3": "JPN",
    "admin_name": "Ibaraki",
    "capital": "",
    "population": "138237",
    "id": "1392720735"
  },
  {
    "city": "Ishizaki",
    "city_ascii": "Ishizaki",
    "lat": "38.4176",
    "lng": "141.3027",
    "country": "Japan",
    "iso2": "JP",
    "iso3": "JPN",
    "admin_name": "Miyagi",
    "capital": "",
    "population": "138856",
    "id": "1392384377"
  },
  {
    "city": "Tsuchiura",
    "city_ascii": "Tsuchiura",
    "lat": "36.0667",
    "lng": "140.2000",
    "country": "Japan",
    "iso2": "JP",
    "iso3": "JPN",
    "admin_name": "Ibaraki",
    "capital": "",
    "population": "137825",
    "id": "1392962266"
  },
  {
    "city": "Koganei",
    "city_ascii": "Koganei",
    "lat": "35.6995",
    "lng": "139.5030",
    "country": "Japan",
    "iso2": "JP",
    "iso3": "JPN",
    "admin_name": "Tōkyō",
    "capital": "",
    "population": "127226",
    "id": "1392003171"
  },
  {
    "city": "Zama",
    "city_ascii": "Zama",
    "lat": "35.4833",
    "lng": "139.4000",
    "country": "Japan",
    "iso2": "JP",
    "iso3": "JPN",
    "admin_name": "Kanagawa",
    "capital": "",
    "population": "130753",
    "id": "1392313741"
  },
  {
    "city": "Shūnan",
    "city_ascii": "Shunan",
    "lat": "34.0500",
    "lng": "131.8000",
    "country": "Japan",
    "iso2": "JP",
    "iso3": "JPN",
    "admin_name": "Yamaguchi",
    "capital": "",
    "population": "137899",
    "id": "1392003434"
  },
  {
    "city": "Minoo",
    "city_ascii": "Minoo",
    "lat": "34.8333",
    "lng": "135.4667",
    "country": "Japan",
    "iso2": "JP",
    "iso3": "JPN",
    "admin_name": "Ōsaka",
    "capital": "",
    "population": "134435",
    "id": "1392496071"
  },
  {
    "city": "Kisarazu",
    "city_ascii": "Kisarazu",
    "lat": "35.3760",
    "lng": "139.9168",
    "country": "Japan",
    "iso2": "JP",
    "iso3": "JPN",
    "admin_name": "Chiba",
    "capital": "",
    "population": "136118",
    "id": "1392821453"
  },
  {
    "city": "Yaizu",
    "city_ascii": "Yaizu",
    "lat": "34.8669",
    "lng": "138.3247",
    "country": "Japan",
    "iso2": "JP",
    "iso3": "JPN",
    "admin_name": "Shizuoka",
    "capital": "",
    "population": "136028",
    "id": "1392569740"
  },
  {
    "city": "Inazawa",
    "city_ascii": "Inazawa",
    "lat": "35.2647",
    "lng": "136.7969",
    "country": "Japan",
    "iso2": "JP",
    "iso3": "JPN",
    "admin_name": "Aichi",
    "capital": "",
    "population": "134938",
    "id": "1392019493"
  },
  {
    "city": "Isahaya",
    "city_ascii": "Isahaya",
    "lat": "32.8500",
    "lng": "130.0667",
    "country": "Japan",
    "iso2": "JP",
    "iso3": "JPN",
    "admin_name": "Nagasaki",
    "capital": "",
    "population": "133512",
    "id": "1392443480"
  },
  {
    "city": "Ōme",
    "city_ascii": "Ome",
    "lat": "35.7880",
    "lng": "139.2758",
    "country": "Japan",
    "iso2": "JP",
    "iso3": "JPN",
    "admin_name": "Tōkyō",
    "capital": "",
    "population": "132436",
    "id": "1392575345"
  },
  {
    "city": "Abiko",
    "city_ascii": "Abiko",
    "lat": "35.8667",
    "lng": "140.0333",
    "country": "Japan",
    "iso2": "JP",
    "iso3": "JPN",
    "admin_name": "Chiba",
    "capital": "",
    "population": "130290",
    "id": "1392000342"
  },
  {
    "city": "Narita",
    "city_ascii": "Narita",
    "lat": "35.7767",
    "lng": "140.3183",
    "country": "Japan",
    "iso2": "JP",
    "iso3": "JPN",
    "admin_name": "Chiba",
    "capital": "",
    "population": "130689",
    "id": "1392216588"
  },
  {
    "city": "Onomichi",
    "city_ascii": "Onomichi",
    "lat": "34.4167",
    "lng": "133.2000",
    "country": "Japan",
    "iso2": "JP",
    "iso3": "JPN",
    "admin_name": "Hiroshima",
    "capital": "",
    "population": "130143",
    "id": "1392886423"
  },
  {
    "city": "Iwakuni",
    "city_ascii": "Iwakuni",
    "lat": "34.1664",
    "lng": "132.2189",
    "country": "Japan",
    "iso2": "JP",
    "iso3": "JPN",
    "admin_name": "Yamaguchi",
    "capital": "",
    "population": "128401",
    "id": "1392032573"
  },
  {
    "city": "Seto",
    "city_ascii": "Seto",
    "lat": "35.2236",
    "lng": "137.0842",
    "country": "Japan",
    "iso2": "JP",
    "iso3": "JPN",
    "admin_name": "Aichi",
    "capital": "",
    "population": "127327",
    "id": "1392028874"
  },
  {
    "city": "Kadoma",
    "city_ascii": "Kadoma",
    "lat": "34.7333",
    "lng": "135.5833",
    "country": "Japan",
    "iso2": "JP",
    "iso3": "JPN",
    "admin_name": "Ōsaka",
    "capital": "",
    "population": "118319",
    "id": "1392702415"
  },
  {
    "city": "Ōmiyachō",
    "city_ascii": "Omiyacho",
    "lat": "35.2221",
    "lng": "138.6216",
    "country": "Japan",
    "iso2": "JP",
    "iso3": "JPN",
    "admin_name": "Shizuoka",
    "capital": "",
    "population": "127252",
    "id": "1392347988"
  },
  {
    "city": "Ōsaki",
    "city_ascii": "Osaki",
    "lat": "38.5771",
    "lng": "140.9556",
    "country": "Japan",
    "iso2": "JP",
    "iso3": "JPN",
    "admin_name": "Miyagi",
    "capital": "",
    "population": "127135",
    "id": "1392003337"
  },
  {
    "city": "Iizuka",
    "city_ascii": "Iizuka",
    "lat": "33.6500",
    "lng": "130.6833",
    "country": "Japan",
    "iso2": "JP",
    "iso3": "JPN",
    "admin_name": "Fukuoka",
    "capital": "",
    "population": "126136",
    "id": "1392365784"
  },
  {
    "city": "Honchō",
    "city_ascii": "Honcho",
    "lat": "35.7580",
    "lng": "139.5299",
    "country": "Japan",
    "iso2": "JP",
    "iso3": "JPN",
    "admin_name": "Saitama",
    "capital": "",
    "population": "116477",
    "id": "1392994259"
  },
  {
    "city": "Daitōchō",
    "city_ascii": "Daitocho",
    "lat": "34.7167",
    "lng": "135.6167",
    "country": "Japan",
    "iso2": "JP",
    "iso3": "JPN",
    "admin_name": "Ōsaka",
    "capital": "",
    "population": "118812",
    "id": "1392727709"
  },
  {
    "city": "Matsubara",
    "city_ascii": "Matsubara",
    "lat": "34.5833",
    "lng": "135.5500",
    "country": "Japan",
    "iso2": "JP",
    "iso3": "JPN",
    "admin_name": "Ōsaka",
    "capital": "",
    "population": "117186",
    "id": "1392003470"
  },
  {
    "city": "Kirishima",
    "city_ascii": "Kirishima",
    "lat": "31.7406",
    "lng": "130.7631",
    "country": "Japan",
    "iso2": "JP",
    "iso3": "JPN",
    "admin_name": "Kagoshima",
    "capital": "",
    "population": "123812",
    "id": "1392003529"
  },
  {
    "city": "Uruma",
    "city_ascii": "Uruma",
    "lat": "26.3792",
    "lng": "127.8575",
    "country": "Japan",
    "iso2": "JP",
    "iso3": "JPN",
    "admin_name": "Okinawa",
    "capital": "",
    "population": "122371",
    "id": "1392003417"
  },
  {
    "city": "Ise",
    "city_ascii": "Ise",
    "lat": "34.4833",
    "lng": "136.7167",
    "country": "Japan",
    "iso2": "JP",
    "iso3": "JPN",
    "admin_name": "Mie",
    "capital": "",
    "population": "122432",
    "id": "1392000398"
  },
  {
    "city": "Honmachi",
    "city_ascii": "Honmachi",
    "lat": "32.5000",
    "lng": "130.6000",
    "country": "Japan",
    "iso2": "JP",
    "iso3": "JPN",
    "admin_name": "Kumamoto",
    "capital": "",
    "population": "122134",
    "id": "1392126782"
  },
  {
    "city": "Kashiwara",
    "city_ascii": "Kashiwara",
    "lat": "34.5167",
    "lng": "135.8000",
    "country": "Japan",
    "iso2": "JP",
    "iso3": "JPN",
    "admin_name": "Nara",
    "capital": "",
    "population": "121604",
    "id": "1392686221"
  },
  {
    "city": "Urasoe",
    "city_ascii": "Urasoe",
    "lat": "26.2458",
    "lng": "127.7219",
    "country": "Japan",
    "iso2": "JP",
    "iso3": "JPN",
    "admin_name": "Okinawa",
    "capital": "",
    "population": "115855",
    "id": "1392003314"
  },
  {
    "city": "Tsuruoka",
    "city_ascii": "Tsuruoka",
    "lat": "38.7272",
    "lng": "139.8267",
    "country": "Japan",
    "iso2": "JP",
    "iso3": "JPN",
    "admin_name": "Yamagata",
    "capital": "",
    "population": "121371",
    "id": "1392935450"
  },
  {
    "city": "Ebetsu",
    "city_ascii": "Ebetsu",
    "lat": "43.1037",
    "lng": "141.5362",
    "country": "Japan",
    "iso2": "JP",
    "iso3": "JPN",
    "admin_name": "Hokkaidō",
    "capital": "",
    "population": "119819",
    "id": "1392987572"
  },
  {
    "city": "Fujimino",
    "city_ascii": "Fujimino",
    "lat": "35.8795",
    "lng": "139.5198",
    "country": "Japan",
    "iso2": "JP",
    "iso3": "JPN",
    "admin_name": "Saitama",
    "capital": "",
    "population": "112745",
    "id": "1392078110"
  },
  {
    "city": "Handa",
    "city_ascii": "Handa",
    "lat": "34.8919",
    "lng": "136.9381",
    "country": "Japan",
    "iso2": "JP",
    "iso3": "JPN",
    "admin_name": "Aichi",
    "capital": "",
    "population": "117544",
    "id": "1392363594"
  },
  {
    "city": "Kasuga",
    "city_ascii": "Kasuga",
    "lat": "33.5333",
    "lng": "130.4667",
    "country": "Japan",
    "iso2": "JP",
    "iso3": "JPN",
    "admin_name": "Fukuoka",
    "capital": "",
    "population": "111144",
    "id": "1392971052"
  },
  {
    "city": "Ikoma",
    "city_ascii": "Ikoma",
    "lat": "34.7000",
    "lng": "135.7000",
    "country": "Japan",
    "iso2": "JP",
    "iso3": "JPN",
    "admin_name": "Nara",
    "capital": "",
    "population": "116518",
    "id": "1392390581"
  },
  {
    "city": "Akishima",
    "city_ascii": "Akishima",
    "lat": "35.7057",
    "lng": "139.3535",
    "country": "Japan",
    "iso2": "JP",
    "iso3": "JPN",
    "admin_name": "Tōkyō",
    "capital": "",
    "population": "112110",
    "id": "1392041019"
  },
  {
    "city": "Kōnosu",
    "city_ascii": "Konosu",
    "lat": "36.0659",
    "lng": "139.5222",
    "country": "Japan",
    "iso2": "JP",
    "iso3": "JPN",
    "admin_name": "Saitama",
    "capital": "",
    "population": "116777",
    "id": "1392326410"
  },
  {
    "city": "Aizuwakamatsu",
    "city_ascii": "Aizuwakamatsu",
    "lat": "37.4948",
    "lng": "139.9298",
    "country": "Japan",
    "iso2": "JP",
    "iso3": "JPN",
    "admin_name": "Fukushima",
    "capital": "",
    "population": "117924",
    "id": "1392003083"
  },
  {
    "city": "Nobeoka",
    "city_ascii": "Nobeoka",
    "lat": "32.5833",
    "lng": "131.6667",
    "country": "Japan",
    "iso2": "JP",
    "iso3": "JPN",
    "admin_name": "Miyazaki",
    "capital": "",
    "population": "117711",
    "id": "1392666259"
  },
  {
    "city": "Fujimi",
    "city_ascii": "Fujimi",
    "lat": "35.8566",
    "lng": "139.5492",
    "country": "Japan",
    "iso2": "JP",
    "iso3": "JPN",
    "admin_name": "Saitama",
    "capital": "",
    "population": "111858",
    "id": "1392003257"
  },
  {
    "city": "Beppu",
    "city_ascii": "Beppu",
    "lat": "33.2795",
    "lng": "131.5000",
    "country": "Japan",
    "iso2": "JP",
    "iso3": "JPN",
    "admin_name": "Ōita",
    "capital": "",
    "population": "115992",
    "id": "1392115605"
  },
  {
    "city": "Shibuya",
    "city_ascii": "Shibuya",
    "lat": "35.6536",
    "lng": "139.7092",
    "country": "Japan",
    "iso2": "JP",
    "iso3": "JPN",
    "admin_name": "Tōkyō",
    "capital": "",
    "population": "102056",
    "id": "1392000470"
  },
  {
    "city": "Karatsu",
    "city_ascii": "Karatsu",
    "lat": "33.4500",
    "lng": "129.9667",
    "country": "Japan",
    "iso2": "JP",
    "iso3": "JPN",
    "admin_name": "Saga",
    "capital": "",
    "population": "116052",
    "id": "1392003116"
  },
  {
    "city": "Nasushiobara",
    "city_ascii": "Nasushiobara",
    "lat": "36.9617",
    "lng": "140.0461",
    "country": "Japan",
    "iso2": "JP",
    "iso3": "JPN",
    "admin_name": "Tochigi",
    "capital": "",
    "population": "115602",
    "id": "1392841957"
  },
  {
    "city": "Tōkai",
    "city_ascii": "Tokai",
    "lat": "35.0231",
    "lng": "136.9022",
    "country": "Japan",
    "iso2": "JP",
    "iso3": "JPN",
    "admin_name": "Aichi",
    "capital": "",
    "population": "113144",
    "id": "1392003126"
  },
  {
    "city": "Kōenchō",
    "city_ascii": "Koencho",
    "lat": "43.8028",
    "lng": "143.8944",
    "country": "Japan",
    "iso2": "JP",
    "iso3": "JPN",
    "admin_name": "Hokkaidō",
    "capital": "",
    "population": "115441",
    "id": "1392099278"
  },
  {
    "city": "Niihama",
    "city_ascii": "Niihama",
    "lat": "33.9667",
    "lng": "133.2833",
    "country": "Japan",
    "iso2": "JP",
    "iso3": "JPN",
    "admin_name": "Ehime",
    "capital": "",
    "population": "114971",
    "id": "1392682431"
  },
  {
    "city": "Sano",
    "city_ascii": "Sano",
    "lat": "36.3145",
    "lng": "139.5783",
    "country": "Japan",
    "iso2": "JP",
    "iso3": "JPN",
    "admin_name": "Tochigi",
    "capital": "",
    "population": "114842",
    "id": "1392791927"
  },
  {
    "city": "Hatsukaichi",
    "city_ascii": "Hatsukaichi",
    "lat": "34.3500",
    "lng": "132.3333",
    "country": "Japan",
    "iso2": "JP",
    "iso3": "JPN",
    "admin_name": "Hiroshima",
    "capital": "",
    "population": "114699",
    "id": "1392723053"
  },
  {
    "city": "Kamagaya",
    "city_ascii": "Kamagaya",
    "lat": "35.7768",
    "lng": "140.0008",
    "country": "Japan",
    "iso2": "JP",
    "iso3": "JPN",
    "admin_name": "Chiba",
    "capital": "",
    "population": "109370",
    "id": "1392541992"
  },
  {
    "city": "Kakegawa",
    "city_ascii": "Kakegawa",
    "lat": "34.7687",
    "lng": "137.9984",
    "country": "Japan",
    "iso2": "JP",
    "iso3": "JPN",
    "admin_name": "Shizuoka",
    "capital": "",
    "population": "113954",
    "id": "1392003270"
  },
  {
    "city": "Nagahama",
    "city_ascii": "Nagahama",
    "lat": "35.3833",
    "lng": "136.2833",
    "country": "Japan",
    "iso2": "JP",
    "iso3": "JPN",
    "admin_name": "Shiga",
    "capital": "",
    "population": "113740",
    "id": "1392190380"
  },
  {
    "city": "Hōfu",
    "city_ascii": "Hofu",
    "lat": "34.0500",
    "lng": "131.5667",
    "country": "Japan",
    "iso2": "JP",
    "iso3": "JPN",
    "admin_name": "Yamaguchi",
    "capital": "",
    "population": "113170",
    "id": "1392985430"
  },
  {
    "city": "Hikone",
    "city_ascii": "Hikone",
    "lat": "35.2667",
    "lng": "136.2667",
    "country": "Japan",
    "iso2": "JP",
    "iso3": "JPN",
    "admin_name": "Shiga",
    "capital": "",
    "population": "113191",
    "id": "1392717059"
  },
  {
    "city": "Otaru",
    "city_ascii": "Otaru",
    "lat": "43.1907",
    "lng": "140.9944",
    "country": "Japan",
    "iso2": "JP",
    "iso3": "JPN",
    "admin_name": "Hokkaidō",
    "capital": "",
    "population": "112452",
    "id": "1392240421"
  },
  {
    "city": "Higashiōmi",
    "city_ascii": "Higashiomi",
    "lat": "35.1167",
    "lng": "136.2000",
    "country": "Japan",
    "iso2": "JP",
    "iso3": "JPN",
    "admin_name": "Shiga",
    "capital": "",
    "population": "112459",
    "id": "1392117204"
  },
  {
    "city": "Ōshū",
    "city_ascii": "Oshu",
    "lat": "39.1445",
    "lng": "141.1391",
    "country": "Japan",
    "iso2": "JP",
    "iso3": "JPN",
    "admin_name": "Iwate",
    "capital": "",
    "population": "112402",
    "id": "1392826391"
  },
  {
    "city": "Habikino",
    "city_ascii": "Habikino",
    "lat": "34.5500",
    "lng": "135.6000",
    "country": "Japan",
    "iso2": "JP",
    "iso3": "JPN",
    "admin_name": "Ōsaka",
    "capital": "",
    "population": "108373",
    "id": "1392918777"
  },
  {
    "city": "Ichinoseki",
    "city_ascii": "Ichinoseki",
    "lat": "38.9347",
    "lng": "141.1266",
    "country": "Japan",
    "iso2": "JP",
    "iso3": "JPN",
    "admin_name": "Iwate",
    "capital": "",
    "population": "111824",
    "id": "1392003094"
  },
  {
    "city": "Tondabayashichō",
    "city_ascii": "Tondabayashicho",
    "lat": "34.5000",
    "lng": "135.6000",
    "country": "Japan",
    "iso2": "JP",
    "iso3": "JPN",
    "admin_name": "Ōsaka",
    "capital": "",
    "population": "108735",
    "id": "1392173163"
  },
  {
    "city": "Kazo",
    "city_ascii": "Kazo",
    "lat": "36.1314",
    "lng": "139.6018",
    "country": "Japan",
    "iso2": "JP",
    "iso3": "JPN",
    "admin_name": "Saitama",
    "capital": "",
    "population": "110622",
    "id": "1392384497"
  },
  {
    "city": "Ōmuta",
    "city_ascii": "Omuta",
    "lat": "33.0333",
    "lng": "130.4500",
    "country": "Japan",
    "iso2": "JP",
    "iso3": "JPN",
    "admin_name": "Fukuoka",
    "capital": "",
    "population": "110054",
    "id": "1392003164"
  },
  {
    "city": "Shirayamamachi",
    "city_ascii": "Shirayamamachi",
    "lat": "36.5166",
    "lng": "136.5656",
    "country": "Japan",
    "iso2": "JP",
    "iso3": "JPN",
    "admin_name": "Ishikawa",
    "capital": "",
    "population": "110135",
    "id": "1392840575"
  },
  {
    "city": "Marugame",
    "city_ascii": "Marugame",
    "lat": "34.2833",
    "lng": "133.8000",
    "country": "Japan",
    "iso2": "JP",
    "iso3": "JPN",
    "admin_name": "Kagawa",
    "capital": "",
    "population": "109165",
    "id": "1392003524"
  },
  {
    "city": "Sandachō",
    "city_ascii": "Sandacho",
    "lat": "34.8833",
    "lng": "135.2333",
    "country": "Japan",
    "iso2": "JP",
    "iso3": "JPN",
    "admin_name": "Hyōgo",
    "capital": "",
    "population": "109243",
    "id": "1392493731"
  },
  {
    "city": "Mineshita",
    "city_ascii": "Mineshita",
    "lat": "35.1185",
    "lng": "138.9186",
    "country": "Japan",
    "iso2": "JP",
    "iso3": "JPN",
    "admin_name": "Shizuoka",
    "capital": "",
    "population": "107416",
    "id": "1392924607"
  },
  {
    "city": "Ikeda",
    "city_ascii": "Ikeda",
    "lat": "34.8167",
    "lng": "135.4333",
    "country": "Japan",
    "iso2": "JP",
    "iso3": "JPN",
    "admin_name": "Hyōgo",
    "capital": "",
    "population": "104148",
    "id": "1392188564"
  },
  {
    "city": "Tajimi",
    "city_ascii": "Tajimi",
    "lat": "35.3328",
    "lng": "137.1316",
    "country": "Japan",
    "iso2": "JP",
    "iso3": "JPN",
    "admin_name": "Gifu",
    "capital": "",
    "population": "106746",
    "id": "1392899702"
  },
  {
    "city": "Komatsu",
    "city_ascii": "Komatsu",
    "lat": "36.4083",
    "lng": "136.4455",
    "country": "Japan",
    "iso2": "JP",
    "iso3": "JPN",
    "admin_name": "Ishikawa",
    "capital": "",
    "population": "106023",
    "id": "1392003448"
  },
  {
    "city": "Kiryū",
    "city_ascii": "Kiryu",
    "lat": "36.4052",
    "lng": "139.4973",
    "country": "Japan",
    "iso2": "JP",
    "iso3": "JPN",
    "admin_name": "Gunma",
    "capital": "",
    "population": "105465",
    "id": "1392003445"
  },
  {
    "city": "Toride",
    "city_ascii": "Toride",
    "lat": "35.9115",
    "lng": "140.0504",
    "country": "Japan",
    "iso2": "JP",
    "iso3": "JPN",
    "admin_name": "Ibaraki",
    "capital": "",
    "population": "103908",
    "id": "1392922950"
  },
  {
    "city": "Ōnojō",
    "city_ascii": "Onojo",
    "lat": "33.5333",
    "lng": "130.4833",
    "country": "Japan",
    "iso2": "JP",
    "iso3": "JPN",
    "admin_name": "Fukuoka",
    "capital": "",
    "population": "101603",
    "id": "1392003262"
  },
  {
    "city": "Inzai",
    "city_ascii": "Inzai",
    "lat": "35.8333",
    "lng": "140.1500",
    "country": "Japan",
    "iso2": "JP",
    "iso3": "JPN",
    "admin_name": "Chiba",
    "capital": "",
    "population": "103677",
    "id": "1392272573"
  },
  {
    "city": "Chikushino",
    "city_ascii": "Chikushino",
    "lat": "33.5000",
    "lng": "130.5167",
    "country": "Japan",
    "iso2": "JP",
    "iso3": "JPN",
    "admin_name": "Fukuoka",
    "capital": "",
    "population": "103185",
    "id": "1392003463"
  },
  {
    "city": "Ginowan",
    "city_ascii": "Ginowan",
    "lat": "26.2817",
    "lng": "127.7783",
    "country": "Japan",
    "iso2": "JP",
    "iso3": "JPN",
    "admin_name": "Okinawa",
    "capital": "",
    "population": "99256",
    "id": "1392613742"
  },
  {
    "city": "Saijō",
    "city_ascii": "Saijo",
    "lat": "33.9167",
    "lng": "133.1833",
    "country": "Japan",
    "iso2": "JP",
    "iso3": "JPN",
    "admin_name": "Ehime",
    "capital": "",
    "population": "103760",
    "id": "1392903707"
  },
  {
    "city": "Isehara",
    "city_ascii": "Isehara",
    "lat": "35.3833",
    "lng": "139.3000",
    "country": "Japan",
    "iso2": "JP",
    "iso3": "JPN",
    "admin_name": "Kanagawa",
    "capital": "",
    "population": "102088",
    "id": "1392928065"
  },
  {
    "city": "Sakado",
    "city_ascii": "Sakado",
    "lat": "35.9573",
    "lng": "139.4030",
    "country": "Japan",
    "iso2": "JP",
    "iso3": "JPN",
    "admin_name": "Saitama",
    "capital": "",
    "population": "100829",
    "id": "1392771396"
  },
  {
    "city": "Kawachinagano",
    "city_ascii": "Kawachinagano",
    "lat": "34.4667",
    "lng": "135.5667",
    "country": "Japan",
    "iso2": "JP",
    "iso3": "JPN",
    "admin_name": "Ōsaka",
    "capital": "",
    "population": "100415",
    "id": "1392003443"
  },
  {
    "city": "Kanoya",
    "city_ascii": "Kanoya",
    "lat": "31.3831",
    "lng": "130.8519",
    "country": "Japan",
    "iso2": "JP",
    "iso3": "JPN",
    "admin_name": "Kagoshima",
    "capital": "",
    "population": "100880",
    "id": "1392003144"
  },
  {
    "city": "Kōnan",
    "city_ascii": "Konan",
    "lat": "35.3321",
    "lng": "136.8707",
    "country": "Japan",
    "iso2": "JP",
    "iso3": "JPN",
    "admin_name": "Aichi",
    "capital": "",
    "population": "97435",
    "id": "1392978695"
  },
  {
    "city": "Ashiya",
    "city_ascii": "Ashiya",
    "lat": "34.7278",
    "lng": "135.3033",
    "country": "Japan",
    "iso2": "JP",
    "iso3": "JPN",
    "admin_name": "Hyōgo",
    "capital": "",
    "population": "94116",
    "id": "1392003382"
  },
  {
    "city": "Yashio",
    "city_ascii": "Yashio",
    "lat": "35.8225",
    "lng": "139.8392",
    "country": "Japan",
    "iso2": "JP",
    "iso3": "JPN",
    "admin_name": "Saitama",
    "capital": "",
    "population": "93283",
    "id": "1392563124"
  },
  {
    "city": "Inagi",
    "city_ascii": "Inagi",
    "lat": "35.6379",
    "lng": "139.5046",
    "country": "Japan",
    "iso2": "JP",
    "iso3": "JPN",
    "admin_name": "Tōkyō",
    "capital": "",
    "population": "92604",
    "id": "1392003400"
  },
  {
    "city": "Komae",
    "city_ascii": "Komae",
    "lat": "35.6348",
    "lng": "139.5787",
    "country": "Japan",
    "iso2": "JP",
    "iso3": "JPN",
    "admin_name": "Tōkyō",
    "capital": "",
    "population": "83677",
    "id": "1392000109"
  },
  {
    "city": "Yotsukaidō",
    "city_ascii": "Yotsukaido",
    "lat": "35.6698",
    "lng": "140.1679",
    "country": "Japan",
    "iso2": "JP",
    "iso3": "JPN",
    "admin_name": "Chiba",
    "capital": "",
    "population": "93233",
    "id": "1392512633"
  },
  {
    "city": "Nisshin",
    "city_ascii": "Nisshin",
    "lat": "35.1320",
    "lng": "137.0394",
    "country": "Japan",
    "iso2": "JP",
    "iso3": "JPN",
    "admin_name": "Aichi",
    "capital": "",
    "population": "92823",
    "id": "1392999336"
  },
  {
    "city": "Ōbu",
    "city_ascii": "Obu",
    "lat": "35.0117",
    "lng": "136.9637",
    "country": "Japan",
    "iso2": "JP",
    "iso3": "JPN",
    "admin_name": "Aichi",
    "capital": "",
    "population": "92562",
    "id": "1392870664"
  },
  {
    "city": "Settsu",
    "city_ascii": "Settsu",
    "lat": "34.7772",
    "lng": "135.5622",
    "country": "Japan",
    "iso2": "JP",
    "iso3": "JPN",
    "admin_name": "Ōsaka",
    "capital": "",
    "population": "86168",
    "id": "1392003111"
  },
  {
    "city": "Wakō",
    "city_ascii": "Wako",
    "lat": "35.7812",
    "lng": "139.6057",
    "country": "Japan",
    "iso2": "JP",
    "iso3": "JPN",
    "admin_name": "Saitama",
    "capital": "",
    "population": "84120",
    "id": "1392003192"
  },
  {
    "city": "Ama",
    "city_ascii": "Ama",
    "lat": "35.2004",
    "lng": "136.7832",
    "country": "Japan",
    "iso2": "JP",
    "iso3": "JPN",
    "admin_name": "Aichi",
    "capital": "",
    "population": "87668",
    "id": "1392003383"
  },
  {
    "city": "Kitanagoya",
    "city_ascii": "Kitanagoya",
    "lat": "35.2456",
    "lng": "136.8659",
    "country": "Japan",
    "iso2": "JP",
    "iso3": "JPN",
    "admin_name": "Aichi",
    "capital": "",
    "population": "86060",
    "id": "1392360419"
  },
  {
    "city": "Higashiyamato",
    "city_ascii": "Higashiyamato",
    "lat": "35.7454",
    "lng": "139.4265",
    "country": "Japan",
    "iso2": "JP",
    "iso3": "JPN",
    "admin_name": "Saitama",
    "capital": "",
    "population": "84260",
    "id": "1392233405"
  },
  {
    "city": "Warabi",
    "city_ascii": "Warabi",
    "lat": "35.8256",
    "lng": "139.6797",
    "country": "Japan",
    "iso2": "JP",
    "iso3": "JPN",
    "admin_name": "Saitama",
    "capital": "",
    "population": "74996",
    "id": "1392003138"
  },
  {
    "city": "Takasagochō-takasemachi",
    "city_ascii": "Takasagocho-takasemachi",
    "lat": "34.7667",
    "lng": "134.7833",
    "country": "Japan",
    "iso2": "JP",
    "iso3": "JPN",
    "admin_name": "Hyōgo",
    "capital": "",
    "population": "87220",
    "id": "1392922621"
  },
  {
    "city": "Ayase",
    "city_ascii": "Ayase",
    "lat": "35.4333",
    "lng": "139.4333",
    "country": "Japan",
    "iso2": "JP",
    "iso3": "JPN",
    "admin_name": "Kanagawa",
    "capital": "",
    "population": "84257",
    "id": "1392003387"
  },
  {
    "city": "Owariasahi",
    "city_ascii": "Owariasahi",
    "lat": "35.2165",
    "lng": "137.0354",
    "country": "Japan",
    "iso2": "JP",
    "iso3": "JPN",
    "admin_name": "Aichi",
    "capital": "",
    "population": "82336",
    "id": "1392703321"
  },
  {
    "city": "Nagaoka",
    "city_ascii": "Nagaoka",
    "lat": "34.9333",
    "lng": "135.7000",
    "country": "Japan",
    "iso2": "JP",
    "iso3": "JPN",
    "admin_name": "Kyōto",
    "capital": "",
    "population": "80423",
    "id": "1392219533"
  },
  {
    "city": "Kunitachi",
    "city_ascii": "Kunitachi",
    "lat": "35.6839",
    "lng": "139.4414",
    "country": "Japan",
    "iso2": "JP",
    "iso3": "JPN",
    "admin_name": "Tōkyō",
    "capital": "",
    "population": "75133",
    "id": "1392309515"
  },
  {
    "city": "Shinkai",
    "city_ascii": "Shinkai",
    "lat": "35.8367",
    "lng": "139.5803",
    "country": "Japan",
    "iso2": "JP",
    "iso3": "JPN",
    "admin_name": "Saitama",
    "capital": "",
    "population": "75247",
    "id": "1392023081"
  },
  {
    "city": "Kiyose",
    "city_ascii": "Kiyose",
    "lat": "35.7857",
    "lng": "139.5265",
    "country": "Japan",
    "iso2": "JP",
    "iso3": "JPN",
    "admin_name": "Saitama",
    "capital": "",
    "population": "75389",
    "id": "1392003108"
  },
  {
    "city": "Kashiba",
    "city_ascii": "Kashiba",
    "lat": "34.5333",
    "lng": "135.7000",
    "country": "Japan",
    "iso2": "JP",
    "iso3": "JPN",
    "admin_name": "Nara",
    "capital": "",
    "population": "78346",
    "id": "1392003075"
  },
  {
    "city": "Izumiōtsu",
    "city_ascii": "Izumiotsu",
    "lat": "34.5000",
    "lng": "135.4000",
    "country": "Japan",
    "iso2": "JP",
    "iso3": "JPN",
    "admin_name": "Ōsaka",
    "capital": "",
    "population": "74175",
    "id": "1392003429"
  },
  {
    "city": "Katano",
    "city_ascii": "Katano",
    "lat": "34.7833",
    "lng": "135.6833",
    "country": "Japan",
    "iso2": "JP",
    "iso3": "JPN",
    "admin_name": "Ōsaka",
    "capital": "",
    "population": "76002",
    "id": "1392003379"
  },
  {
    "city": "Okegawa",
    "city_ascii": "Okegawa",
    "lat": "36.0057",
    "lng": "139.5427",
    "country": "Japan",
    "iso2": "JP",
    "iso3": "JPN",
    "admin_name": "Saitama",
    "capital": "",
    "population": "74115",
    "id": "1392003539"
  },
  {
    "city": "Jōyō",
    "city_ascii": "Joyo",
    "lat": "34.8531",
    "lng": "135.7800",
    "country": "Japan",
    "iso2": "JP",
    "iso3": "JPN",
    "admin_name": "Kyōto",
    "capital": "",
    "population": "74356",
    "id": "1392003353"
  },
  {
    "city": "Chiryū",
    "city_ascii": "Chiryu",
    "lat": "35.0014",
    "lng": "137.0506",
    "country": "Japan",
    "iso2": "JP",
    "iso3": "JPN",
    "admin_name": "Aichi",
    "capital": "",
    "population": "71907",
    "id": "1392192403"
  },
  {
    "city": "Musashimurayama",
    "city_ascii": "Musashimurayama",
    "lat": "35.7548",
    "lng": "139.3874",
    "country": "Japan",
    "iso2": "JP",
    "iso3": "JPN",
    "admin_name": "Tōkyō",
    "capital": "",
    "population": "71183",
    "id": "1392092262"
  },
  {
    "city": "Kiyosu",
    "city_ascii": "Kiyosu",
    "lat": "35.1998",
    "lng": "136.8529",
    "country": "Japan",
    "iso2": "JP",
    "iso3": "JPN",
    "admin_name": "Aichi",
    "capital": "",
    "population": "69809",
    "id": "1392439011"
  },
  {
    "city": "Dazaifu",
    "city_ascii": "Dazaifu",
    "lat": "33.5167",
    "lng": "130.5167",
    "country": "Japan",
    "iso2": "JP",
    "iso3": "JPN",
    "admin_name": "Fukuoka",
    "capital": "",
    "population": "72430",
    "id": "1392003236"
  },
  {
    "city": "Hekinan",
    "city_ascii": "Hekinan",
    "lat": "34.8847",
    "lng": "136.9934",
    "country": "Japan",
    "iso2": "JP",
    "iso3": "JPN",
    "admin_name": "Aichi",
    "capital": "",
    "population": "72480",
    "id": "1392819275"
  },
  {
    "city": "Yoshikawa",
    "city_ascii": "Yoshikawa",
    "lat": "35.8939",
    "lng": "139.8414",
    "country": "Japan",
    "iso2": "JP",
    "iso3": "JPN",
    "admin_name": "Saitama",
    "capital": "",
    "population": "72139",
    "id": "1392319161"
  },
  {
    "city": "Tsurugashima",
    "city_ascii": "Tsurugashima",
    "lat": "35.9345",
    "lng": "139.3931",
    "country": "Japan",
    "iso2": "JP",
    "iso3": "JPN",
    "admin_name": "Saitama",
    "capital": "",
    "population": "70067",
    "id": "1392196288"
  },
  {
    "city": "Yawata-shimizui",
    "city_ascii": "Yawata-shimizui",
    "lat": "34.8667",
    "lng": "135.7000",
    "country": "Japan",
    "iso2": "JP",
    "iso3": "JPN",
    "admin_name": "Kyōto",
    "capital": "",
    "population": "70373",
    "id": "1392797096"
  },
  {
    "city": "Chiyoda-ku",
    "city_ascii": "Chiyoda-ku",
    "lat": "35.6940",
    "lng": "139.7536",
    "country": "Japan",
    "iso2": "JP",
    "iso3": "JPN",
    "admin_name": "Tōkyō",
    "capital": "",
    "population": "67036",
    "id": "1392003134"
  },
  {
    "city": "Toyoake",
    "city_ascii": "Toyoake",
    "lat": "35.0509",
    "lng": "137.0128",
    "country": "Japan",
    "iso2": "JP",
    "iso3": "JPN",
    "admin_name": "Aichi",
    "capital": "",
    "population": "69389",
    "id": "1392203165"
  },
  {
    "city": "Hatogaya-honchō",
    "city_ascii": "Hatogaya-honcho",
    "lat": "35.8267",
    "lng": "139.7412",
    "country": "Japan",
    "iso2": "JP",
    "iso3": "JPN",
    "admin_name": "Saitama",
    "capital": "",
    "population": "61379",
    "id": "1392167019"
  },
  {
    "city": "Fujiidera",
    "city_ascii": "Fujiidera",
    "lat": "34.5667",
    "lng": "135.6000",
    "country": "Japan",
    "iso2": "JP",
    "iso3": "JPN",
    "admin_name": "Ōsaka",
    "capital": "",
    "population": "63338",
    "id": "1392763646"
  },
  {
    "city": "Kashiwara",
    "city_ascii": "Kashiwara",
    "lat": "34.5833",
    "lng": "135.6333",
    "country": "Japan",
    "iso2": "JP",
    "iso3": "JPN",
    "admin_name": "Ōsaka",
    "capital": "",
    "population": "67757",
    "id": "1392003287"
  },
  {
    "city": "Kitamoto",
    "city_ascii": "Kitamoto",
    "lat": "36.0269",
    "lng": "139.5302",
    "country": "Japan",
    "iso2": "JP",
    "iso3": "JPN",
    "admin_name": "Saitama",
    "capital": "",
    "population": "65191",
    "id": "1392754858"
  },
  {
    "city": "Tomigusuku",
    "city_ascii": "Tomigusuku",
    "lat": "26.1611",
    "lng": "127.6689",
    "country": "Japan",
    "iso2": "JP",
    "iso3": "JPN",
    "admin_name": "Okinawa",
    "capital": "",
    "population": "64850",
    "id": "1392091635"
  },
  {
    "city": "Nagakute",
    "city_ascii": "Nagakute",
    "lat": "35.1840",
    "lng": "137.0487",
    "country": "Japan",
    "iso2": "JP",
    "iso3": "JPN",
    "admin_name": "Aichi",
    "capital": "",
    "population": "62473",
    "id": "1392003238"
  },
  {
    "city": "Tagajō",
    "city_ascii": "Tagajo",
    "lat": "38.2938",
    "lng": "141.0043",
    "country": "Japan",
    "iso2": "JP",
    "iso3": "JPN",
    "admin_name": "Miyagi",
    "capital": "",
    "population": "61937",
    "id": "1392003360"
  },
  {
    "city": "Yamatotakada",
    "city_ascii": "Yamatotakada",
    "lat": "34.5167",
    "lng": "135.7333",
    "country": "Japan",
    "iso2": "JP",
    "iso3": "JPN",
    "admin_name": "Nara",
    "capital": "",
    "population": "60791",
    "id": "1392003391"
  },
  {
    "city": "Hasuda",
    "city_ascii": "Hasuda",
    "lat": "35.9945",
    "lng": "139.6624",
    "country": "Japan",
    "iso2": "JP",
    "iso3": "JPN",
    "admin_name": "Saitama",
    "capital": "",
    "population": "61473",
    "id": "1392294890"
  },
  {
    "city": "Ōsakasayama",
    "city_ascii": "Osakasayama",
    "lat": "34.5000",
    "lng": "135.5500",
    "country": "Japan",
    "iso2": "JP",
    "iso3": "JPN",
    "admin_name": "Ōsaka",
    "capital": "",
    "population": "58593",
    "id": "1392003332"
  },
  {
    "city": "Mukōchō",
    "city_ascii": "Mukocho",
    "lat": "34.9500",
    "lng": "135.7000",
    "country": "Japan",
    "iso2": "JP",
    "iso3": "JPN",
    "admin_name": "Kyōto",
    "capital": "",
    "population": "56152",
    "id": "1392146541"
  },
  {
    "city": "Tsushima",
    "city_ascii": "Tsushima",
    "lat": "35.1771",
    "lng": "136.7413",
    "country": "Japan",
    "iso2": "JP",
    "iso3": "JPN",
    "admin_name": "Aichi",
    "capital": "",
    "population": "60908",
    "id": "1392244952"
  },
  {
    "city": "Fussa",
    "city_ascii": "Fussa",
    "lat": "35.7333",
    "lng": "139.3333",
    "country": "Japan",
    "iso2": "JP",
    "iso3": "JPN",
    "admin_name": "Tōkyō",
    "capital": "",
    "population": "56713",
    "id": "1392749897"
  },
  {
    "city": "Koja",
    "city_ascii": "Koja",
    "lat": "26.3344",
    "lng": "127.8057",
    "country": "Japan",
    "iso2": "JP",
    "iso3": "JPN",
    "admin_name": "Okinawa",
    "capital": "",
    "population": "58658",
    "id": "1392299085"
  },
  {
    "city": "Nonoichi",
    "city_ascii": "Nonoichi",
    "lat": "36.5194",
    "lng": "136.6098",
    "country": "Japan",
    "iso2": "JP",
    "iso3": "JPN",
    "admin_name": "Ishikawa",
    "capital": "",
    "population": "57090",
    "id": "1392003342"
  },
  {
    "city": "Takaishi",
    "city_ascii": "Takaishi",
    "lat": "34.5167",
    "lng": "135.4500",
    "country": "Japan",
    "iso2": "JP",
    "iso3": "JPN",
    "admin_name": "Ōsaka",
    "capital": "",
    "population": "55910",
    "id": "1392000468"
  },
  {
    "city": "Zushi",
    "city_ascii": "Zushi",
    "lat": "35.2833",
    "lng": "139.5833",
    "country": "Japan",
    "iso2": "JP",
    "iso3": "JPN",
    "admin_name": "Kanagawa",
    "capital": "",
    "population": "56996",
    "id": "1392442008"
  },
  {
    "city": "Hamura",
    "city_ascii": "Hamura",
    "lat": "35.7672",
    "lng": "139.3109",
    "country": "Japan",
    "iso2": "JP",
    "iso3": "JPN",
    "admin_name": "Saitama",
    "capital": "",
    "population": "53970",
    "id": "1392153436"
  },
  {
    "city": "Shijōnawate",
    "city_ascii": "Shijonawate",
    "lat": "34.7400",
    "lng": "135.6394",
    "country": "Japan",
    "iso2": "JP",
    "iso3": "JPN",
    "admin_name": "Ōsaka",
    "capital": "",
    "population": "55094",
    "id": "1392003452"
  },
  {
    "city": "Fuchū",
    "city_ascii": "Fuchu",
    "lat": "34.3926",
    "lng": "132.5045",
    "country": "Japan",
    "iso2": "JP",
    "iso3": "JPN",
    "admin_name": "Hiroshima",
    "capital": "",
    "population": "51096",
    "id": "1392003519"
  },
  {
    "city": "Shiogama",
    "city_ascii": "Shiogama",
    "lat": "38.3144",
    "lng": "141.0220",
    "country": "Japan",
    "iso2": "JP",
    "iso3": "JPN",
    "admin_name": "Miyagi",
    "capital": "",
    "population": "51999",
    "id": "1392003536"
  },
  {
    "city": "Shiraoka",
    "city_ascii": "Shiraoka",
    "lat": "36.0191",
    "lng": "139.6769",
    "country": "Japan",
    "iso2": "JP",
    "iso3": "JPN",
    "admin_name": "Saitama",
    "capital": "",
    "population": "52103",
    "id": "1392337140"
  },
  {
    "city": "Iwakura",
    "city_ascii": "Iwakura",
    "lat": "35.2794",
    "lng": "136.8714",
    "country": "Japan",
    "iso2": "JP",
    "iso3": "JPN",
    "admin_name": "Aichi",
    "capital": "",
    "population": "47975",
    "id": "1392765544"
  },
  {
    "city": "Takahama",
    "city_ascii": "Takahama",
    "lat": "34.9275",
    "lng": "136.9878",
    "country": "Japan",
    "iso2": "JP",
    "iso3": "JPN",
    "admin_name": "Aichi",
    "capital": "",
    "population": "48685",
    "id": "1392860759"
  },
  {
    "city": "Suzukawa",
    "city_ascii": "Suzukawa",
    "lat": "35.3730",
    "lng": "139.3839",
    "country": "Japan",
    "iso2": "JP",
    "iso3": "JPN",
    "admin_name": "Kanagawa",
    "capital": "",
    "population": "48532",
    "id": "1392676251"
  },
  {
    "city": "Kasuya",
    "city_ascii": "Kasuya",
    "lat": "33.6108",
    "lng": "130.4806",
    "country": "Japan",
    "iso2": "JP",
    "iso3": "JPN",
    "admin_name": "Fukuoka",
    "capital": "",
    "population": "47981",
    "id": "1392003430"
  },
  {
    "city": "Inuma",
    "city_ascii": "Inuma",
    "lat": "36.0001",
    "lng": "139.6242",
    "country": "Japan",
    "iso2": "JP",
    "iso3": "JPN",
    "admin_name": "Saitama",
    "capital": "",
    "population": "45065",
    "id": "1392163993"
  },
  {
    "city": "Tōgō",
    "city_ascii": "Togo",
    "lat": "35.0966",
    "lng": "137.0525",
    "country": "Japan",
    "iso2": "JP",
    "iso3": "JPN",
    "admin_name": "Aichi",
    "capital": "",
    "population": "44065",
    "id": "1392003115"
  },
  {
    "city": "Kumatori",
    "city_ascii": "Kumatori",
    "lat": "34.4014",
    "lng": "135.3558",
    "country": "Japan",
    "iso2": "JP",
    "iso3": "JPN",
    "admin_name": "Ōsaka",
    "capital": "",
    "population": "43570",
    "id": "1392003543"
  },
  {
    "city": "Katsuren-haebaru",
    "city_ascii": "Katsuren-haebaru",
    "lat": "26.1911",
    "lng": "127.7285",
    "country": "Japan",
    "iso2": "JP",
    "iso3": "JPN",
    "admin_name": "Okinawa",
    "capital": "",
    "population": "40541",
    "id": "1392007461"
  },
  {
    "city": "Ōizumi",
    "city_ascii": "Oizumi",
    "lat": "36.2478",
    "lng": "139.4049",
    "country": "Japan",
    "iso2": "JP",
    "iso3": "JPN",
    "admin_name": "Gunma",
    "capital": "",
    "population": "41681",
    "id": "1392003190"
  },
  {
    "city": "Nakama",
    "city_ascii": "Nakama",
    "lat": "33.8208",
    "lng": "130.7083",
    "country": "Japan",
    "iso2": "JP",
    "iso3": "JPN",
    "admin_name": "Fukuoka",
    "capital": "",
    "population": "39634",
    "id": "1392968664"
  },
  {
    "city": "Miyoshidai",
    "city_ascii": "Miyoshidai",
    "lat": "35.8284",
    "lng": "139.5265",
    "country": "Japan",
    "iso2": "JP",
    "iso3": "JPN",
    "admin_name": "Saitama",
    "capital": "",
    "population": "38380",
    "id": "1392859111"
  },
  {
    "city": "Kanie",
    "city_ascii": "Kanie",
    "lat": "35.1322",
    "lng": "136.7868",
    "country": "Japan",
    "iso2": "JP",
    "iso3": "JPN",
    "admin_name": "Aichi",
    "capital": "",
    "population": "36782",
    "id": "1392146454"
  },
  {
    "city": "Ōharu",
    "city_ascii": "Oharu",
    "lat": "35.1751",
    "lng": "136.8201",
    "country": "Japan",
    "iso2": "JP",
    "iso3": "JPN",
    "admin_name": "Aichi",
    "capital": "",
    "population": "32590",
    "id": "1392003375"
  },
  {
    "city": "Harima",
    "city_ascii": "Harima",
    "lat": "34.7167",
    "lng": "134.8667",
    "country": "Japan",
    "iso2": "JP",
    "iso3": "JPN",
    "admin_name": "Hyōgo",
    "capital": "",
    "population": "33822",
    "id": "1392000863"
  },
  {
    "city": "Aizumi",
    "city_ascii": "Aizumi",
    "lat": "34.1266",
    "lng": "134.4951",
    "country": "Japan",
    "iso2": "JP",
    "iso3": "JPN",
    "admin_name": "Tokushima",
    "capital": "",
    "population": "35269",
    "id": "1392003339"
  },
  {
    "city": "Fusō",
    "city_ascii": "Fuso",
    "lat": "35.3591",
    "lng": "136.9132",
    "country": "Japan",
    "iso2": "JP",
    "iso3": "JPN",
    "admin_name": "Aichi",
    "capital": "",
    "population": "34268",
    "id": "1392003320"
  },
  {
    "city": "Nishihara",
    "city_ascii": "Nishihara",
    "lat": "26.2228",
    "lng": "127.7589",
    "country": "Japan",
    "iso2": "JP",
    "iso3": "JPN",
    "admin_name": "Okinawa",
    "capital": "",
    "population": "34802",
    "id": "1392591354"
  },
  {
    "city": "Minamishiro",
    "city_ascii": "Minamishiro",
    "lat": "36.0227",
    "lng": "139.7227",
    "country": "Japan",
    "iso2": "JP",
    "iso3": "JPN",
    "admin_name": "Saitama",
    "capital": "",
    "population": "34012",
    "id": "1392934140"
  },
  {
    "city": "Kōryō",
    "city_ascii": "Koryo",
    "lat": "34.5500",
    "lng": "135.7500",
    "country": "Japan",
    "iso2": "JP",
    "iso3": "JPN",
    "admin_name": "Nara",
    "capital": "",
    "population": "33617",
    "id": "1392003177"
  },
  {
    "city": "Kaita",
    "city_ascii": "Kaita",
    "lat": "34.3722",
    "lng": "132.5360",
    "country": "Japan",
    "iso2": "JP",
    "iso3": "JPN",
    "admin_name": "Hiroshima",
    "capital": "",
    "population": "29793",
    "id": "1392868298"
  },
  {
    "city": "Ninomiya",
    "city_ascii": "Ninomiya",
    "lat": "35.2995",
    "lng": "139.2555",
    "country": "Japan",
    "iso2": "JP",
    "iso3": "JPN",
    "admin_name": "Kanagawa",
    "capital": "",
    "population": "27536",
    "id": "1392269744"
  },
  {
    "city": "Mizumaki",
    "city_ascii": "Mizumaki",
    "lat": "33.8548",
    "lng": "130.6950",
    "country": "Japan",
    "iso2": "JP",
    "iso3": "JPN",
    "admin_name": "Fukuoka",
    "capital": "",
    "population": "27822",
    "id": "1392003278"
  },
  {
    "city": "Chatan",
    "city_ascii": "Chatan",
    "lat": "26.3200",
    "lng": "127.7639",
    "country": "Japan",
    "iso2": "JP",
    "iso3": "JPN",
    "admin_name": "Okinawa",
    "capital": "",
    "population": "28167",
    "id": "1392411015"
  },
  {
    "city": "Ginan",
    "city_ascii": "Ginan",
    "lat": "35.3896",
    "lng": "136.7825",
    "country": "Japan",
    "iso2": "JP",
    "iso3": "JPN",
    "admin_name": "Gifu",
    "capital": "",
    "population": "25752",
    "id": "1392003216"
  },
  {
    "city": "Ōji",
    "city_ascii": "Oji",
    "lat": "34.5947",
    "lng": "135.7066",
    "country": "Japan",
    "iso2": "JP",
    "iso3": "JPN",
    "admin_name": "Nara",
    "capital": "",
    "population": "23731",
    "id": "1392003206"
  },
  {
    "city": "Sanga",
    "city_ascii": "Sanga",
    "lat": "34.6002",
    "lng": "135.6955",
    "country": "Japan",
    "iso2": "JP",
    "iso3": "JPN",
    "admin_name": "Ōsaka",
    "capital": "",
    "population": "23264",
    "id": "1392764326"
  },
  {
    "city": "Kitajima",
    "city_ascii": "Kitajima",
    "lat": "34.1256",
    "lng": "134.5470",
    "country": "Japan",
    "iso2": "JP",
    "iso3": "JPN",
    "admin_name": "Tokushima",
    "capital": "",
    "population": "22670",
    "id": "1392003373"
  },
  {
    "city": "Kasamatsuchō",
    "city_ascii": "Kasamatsucho",
    "lat": "35.3672",
    "lng": "136.7632",
    "country": "Japan",
    "iso2": "JP",
    "iso3": "JPN",
    "admin_name": "Gifu",
    "capital": "",
    "population": "22415",
    "id": "1392337002"
  },
  {
    "city": "Kanmaki",
    "city_ascii": "Kanmaki",
    "lat": "34.5627",
    "lng": "135.7167",
    "country": "Japan",
    "iso2": "JP",
    "iso3": "JPN",
    "admin_name": "Nara",
    "capital": "",
    "population": "21145",
    "id": "1392530261"
  },
  {
    "city": "Yonabaru",
    "city_ascii": "Yonabaru",
    "lat": "26.1995",
    "lng": "127.7548",
    "country": "Japan",
    "iso2": "JP",
    "iso3": "JPN",
    "admin_name": "Okinawa",
    "capital": "",
    "population": "19735",
    "id": "1392279515"
  },
  {
    "city": "Shōwa",
    "city_ascii": "Showa",
    "lat": "35.6279",
    "lng": "138.5351",
    "country": "Japan",
    "iso2": "JP",
    "iso3": "JPN",
    "admin_name": "Yamanashi",
    "capital": "",
    "population": "20857",
    "id": "1392003446"
  },
  {
    "city": "Kitagata",
    "city_ascii": "Kitagata",
    "lat": "35.4358",
    "lng": "136.6844",
    "country": "Japan",
    "iso2": "JP",
    "iso3": "JPN",
    "admin_name": "Gifu",
    "capital": "",
    "population": "18308",
    "id": "1392622247"
  },
  {
    "city": "Utazu",
    "city_ascii": "Utazu",
    "lat": "34.3106",
    "lng": "133.8256",
    "country": "Japan",
    "iso2": "JP",
    "iso3": "JPN",
    "admin_name": "Kagawa",
    "capital": "",
    "population": "18897",
    "id": "1392003469"
  },
  {
    "city": "Tadaoka-higashi",
    "city_ascii": "Tadaoka-higashi",
    "lat": "34.4871",
    "lng": "135.4014",
    "country": "Japan",
    "iso2": "JP",
    "iso3": "JPN",
    "admin_name": "Ōsaka",
    "capital": "",
    "population": "16628",
    "id": "1392366184"
  },