[
  {
    "city": "San Juan",
    "city_ascii": "San Juan",
    "lat": "18.3985",
    "lng": "-66.0610",
    "country": "Puerto Rico",
    "iso2": "PR",
    "iso3": "PRI",
    "admin_name": "Puerto Rico",
    "capital": "primary",
    "population": "1915105",
    "id": "1630035577"
  },
  {
    "city": "Aguadilla",
    "city_ascii": "Aguadilla",
    "lat": "18.4382",
    "lng": "-67.1537",
    "country": "Puerto Rico",
    "iso2": "PR",
    "iso3": "PRI",
    "admin_name": "Puerto Rico",
    "capital": "",
    "population": "260331",
    "id": "1630035605"
  },
  {
    "city": "Bayamón",
    "city_ascii": "Bayamon",
    "lat": "18.3794",
    "lng": "-66.1635",
    "country": "Puerto Rico",
    "iso2": "PR",
    "iso3": "PRI",
    "admin_name": "Puerto Rico",
    "capital": "",
    "population": "170028",
    "id": "1630035622"
  },
  {
    "city": "Carolina",
    "city_ascii": "Carolina",
    "lat": "18.4054",
    "lng": "-65.9792",
    "country": "Puerto Rico",
    "iso2": "PR",
    "iso3": "PRI",
    "admin_name": "Puerto Rico",
    "capital": "",
    "population": "139735",
    "id": "1630035637"
  },
  {
    "city": "Ponce",
    "city_ascii": "Ponce",
    "lat": "18.0127",
    "lng": "-66.6212",
    "country": "Puerto Rico",
    "iso2": "PR",
    "iso3": "PRI",
    "admin_name": "Puerto Rico",
    "capital": "",
    "population": "124719",
    "id": "1630023669"
  },
  {
    "city": "Arecibo",
    "city_ascii": "Arecibo",
    "lat": "18.4491",
    "lng": "-66.7387",
    "country": "Puerto Rico",
    "iso2": "PR",
    "iso3": "PRI",
    "admin_name": "Puerto Rico",
    "capital": "",
    "population": "123499",
    "id": "1630023566"
  },
  {
    "city": "San Germán",
    "city_ascii": "San German",
    "lat": "18.0827",
    "lng": "-67.0460",
    "country": "Puerto Rico",
    "iso2": "PR",
    "iso3": "PRI",
    "admin_name": "Puerto Rico",
    "capital": "",
    "population": "103747",
    "id": "1630023526"
  },
  {
    "city": "Yauco",
    "city_ascii": "Yauco",
    "lat": "18.0344",
    "lng": "-66.8615",
    "country": "Puerto Rico",
    "iso2": "PR",
    "iso3": "PRI",
    "admin_name": "Puerto Rico",
    "capital": "",
    "population": "80307",
    "id": "1630035600"
  },
  {
    "city": "Caguas",
    "city_ascii": "Caguas",
    "lat": "18.2319",
    "lng": "-66.0388",
    "country": "Puerto Rico",
    "iso2": "PR",
    "iso3": "PRI",
    "admin_name": "Puerto Rico",
    "capital": "",
    "population": "74502",
    "id": "1630023540"
  },
  {
    "city": "Guaynabo",
    "city_ascii": "Guaynabo",
    "lat": "18.3832",
    "lng": "-66.1134",
    "country": "Puerto Rico",
    "iso2": "PR",
    "iso3": "PRI",
    "admin_name": "Puerto Rico",
    "capital": "",
    "population": "70542",
    "id": "1630023575"
  },
  {
    "city": "Guayama",
    "city_ascii": "Guayama",
    "lat": "17.9743",
    "lng": "-66.1104",
    "country": "Puerto Rico",
    "iso2": "PR",
    "iso3": "PRI",
    "admin_name": "Puerto Rico",
    "capital": "",
    "population": "65343",
    "id": "1630035675"
  },
  {
    "city": "Trujillo Alto",
    "city_ascii": "Trujillo Alto",
    "lat": "18.3599",
    "lng": "-66.0096",
    "country": "Puerto Rico",
    "iso2": "PR",
    "iso3": "PRI",
    "admin_name": "Puerto Rico",
    "capital": "",
    "population": "44203",
    "id": "1630023656"
  },
  {
    "city": "Cayey",
    "city_ascii": "Cayey",
    "lat": "18.1150",
    "lng": "-66.1630",
    "country": "Puerto Rico",
    "iso2": "PR",
    "iso3": "PRI",
    "admin_name": "Puerto Rico",
    "capital": "",
    "population": "14052",
    "id": "1630035640"
  },
  {
    "city": "Río Grande",
    "city_ascii": "Rio Grande",
    "lat": "18.3789",
    "lng": "-65.8388",
    "country": "Puerto Rico",
    "iso2": "PR",
    "iso3": "PRI",
    "admin_name": "Puerto Rico",
    "capital": "",
    "population": "12216",
    "id": "1630023701"
  },
  {
    "city": "Manatí",
    "city_ascii": "Manati",
    "lat": "18.4283",
    "lng": "-66.4823",
    "country": "Puerto Rico",
    "iso2": "PR",
    "iso3": "PRI",
    "admin_name": "Puerto Rico",
    "capital": "",
    "population": "12207",
    "id": "1630023562"
  },
  {
    "city": "Caño Martin Peña",
    "city_ascii": "Cano Martin Pena",
    "lat": "18.4309",
    "lng": "-66.0507",
    "country": "Puerto Rico",
    "iso2": "PR",
    "iso3": "PRI",
    "admin_name": "Puerto Rico",
    "capital": "",
    "population": "12112",
    "id": "1630142912"
  },
  {
    "city": "Coamo",
    "city_ascii": "Coamo",
    "lat": "18.0765",
    "lng": "-66.3638",
    "country": "Puerto Rico",
    "iso2": "PR",
    "iso3": "PRI",
    "admin_name": "Puerto Rico",
    "capital": "",
    "population": "10508",
    "id": "1630035648"
  },
  {
    "city": "Pájaros",
    "city_ascii": "Pajaros",
    "lat": "18.3610",
    "lng": "-66.2184",
    "country": "Puerto Rico",
    "iso2": "PR",
    "iso3": "PRI",
    "admin_name": "Puerto Rico",
    "capital": "",
    "population": "9713",
    "id": "1630035532"
  },
  {
    "city": "Mayagüez",
    "city_ascii": "Mayaguez",
    "lat": "18.2003",
    "lng": "-67.1397",
    "country": "Puerto Rico",
    "iso2": "PR",
    "iso3": "PRI",
    "admin_name": "Puerto Rico",
    "capital": "",
    "population": "93426",
    "id": "1630035520"
  },
  {
    "city": "Fajardo",
    "city_ascii": "Fajardo",
    "lat": "18.3331",
    "lng": "-65.6589",
    "country": "Puerto Rico",
    "iso2": "PR",
    "iso3": "PRI",
    "admin_name": "Puerto Rico",
    "capital": "",
    "population": "75549",
    "id": "1630035668"
  },
  {
    "city": "Juana Díaz",
    "city_ascii": "Juana Diaz",
    "lat": "18.0532",
    "lng": "-66.5044",
    "country": "Puerto Rico",
    "iso2": "PR",
    "iso3": "PRI",
    "admin_name": "Puerto Rico",
    "capital": "",
    "population": "71759",
    "id": "1630023583"
  },
  {
    "city": "Florida",
    "city_ascii": "Florida",
    "lat": "18.3643",
    "lng": "-66.5611",
    "country": "Puerto Rico",
    "iso2": "PR",
    "iso3": "PRI",
    "admin_name": "Puerto Rico",
    "capital": "",
    "population": "69427",
    "id": "1630023648"
  },
  {
    "city": "Cataño",
    "city_ascii": "Catano",
    "lat": "18.4375",
    "lng": "-66.1440",
    "country": "Puerto Rico",
    "iso2": "PR",
    "iso3": "PRI",
    "admin_name": "Puerto Rico",
    "capital": "",
    "population": "23536",
    "id": "1630023554"
  },
  {
    "city": "Vega Baja",
    "city_ascii": "Vega Baja",
    "lat": "18.4406",
    "lng": "-66.3997",
    "country": "Puerto Rico",
    "iso2": "PR",
    "iso3": "PRI",
    "admin_name": "Puerto Rico",
    "capital": "",
    "population": "23527",
    "id": "1630023572"
  },
  {
    "city": "Humacao",
    "city_ascii": "Humacao",
    "lat": "18.1520",
    "lng": "-65.8204",
    "country": "Puerto Rico",
    "iso2": "PR",
    "iso3": "PRI",
    "admin_name": "Puerto Rico",
    "capital": "",
    "population": "17607",
    "id": "1630035683"
  },
  {
    "city": "Candelaria",
    "city_ascii": "Candelaria",
    "lat": "18.4042",
    "lng": "-66.2175",
    "country": "Puerto Rico",
    "iso2": "PR",
    "iso3": "PRI",
    "admin_name": "Puerto Rico",
    "capital": "",
    "population": "15498",
    "id": "1630023689"
  },
  {
    "city": "Dorado",
    "city_ascii": "Dorado",
    "lat": "18.4657",
    "lng": "-66.2726",
    "country": "Puerto Rico",
    "iso2": "PR",
    "iso3": "PRI",
    "admin_name": "Puerto Rico",
    "capital": "",
    "population": "13008",
    "id": "1630023736"
  },
  {
    "city": "Canóvanas",
    "city_ascii": "Canovanas",
    "lat": "18.3693",
    "lng": "-65.9009",
    "country": "Puerto Rico",
    "iso2": "PR",
    "iso3": "PRI",
    "admin_name": "Puerto Rico",
    "capital": "",
    "population": "12211",
    "id": "1630023717"
  },
  {
    "city": "Hormigueros",
    "city_ascii": "Hormigueros",
    "lat": "18.1437",
    "lng": "-67.1199",
    "country": "Puerto Rico",
    "iso2": "PR",
    "iso3": "PRI",
    "admin_name": "Puerto Rico",
    "capital": "",
    "population": "11358",
    "id": "1630023672"
  },
  {
    "city": "Sabana Grande",
    "city_ascii": "Sabana Grande",
    "lat": "18.0832",
    "lng": "-66.9645",
    "country": "Puerto Rico",
    "iso2": "PR",
    "iso3": "PRI",
    "admin_name": "Puerto Rico",
    "capital": "",
    "population": "11128",
    "id": "1630023550"
  },
  {
    "city": "Isabela",
    "city_ascii": "Isabela",
    "lat": "18.4991",
    "lng": "-67.0220",
    "country": "Puerto Rico",
    "iso2": "PR",
    "iso3": "PRI",
    "admin_name": "Puerto Rico",
    "capital": "",
    "population": "10457",
    "id": "1630023674"
  },
  {
    "city": "Cabo Rojo",
    "city_ascii": "Cabo Rojo",
    "lat": "18.0867",
    "lng": "-67.1482",
    "country": "Puerto Rico",
    "iso2": "PR",
    "iso3": "PRI",
    "admin_name": "Puerto Rico",
    "capital": "",
    "population": "10011",
    "id": "1630023608"
  },
  {
    "city": "Corozal",
    "city_ascii": "Corozal",
    "lat": "18.3410",
    "lng": "-66.3124",
    "country": "Puerto Rico",
    "iso2": "PR",
    "iso3": "PRI",
    "admin_name": "Puerto Rico",
    "capital": "",
    "population": "9986",
    "id": "1630035655"
  },
  {
    "city": "Vega Alta",
    "city_ascii": "Vega Alta",
    "lat": "18.4151",
    "lng": "-66.3211",
    "country": "Puerto Rico",
    "iso2": "PR",
    "iso3": "PRI",
    "admin_name": "Puerto Rico",
    "capital": "",
    "population": "9457",
    "id": "1630023587"
  },
  {
    "city": "San Lorenzo",
    "city_ascii": "San Lorenzo",
    "lat": "18.1875",
    "lng": "-65.9680",
    "country": "Puerto Rico",
    "iso2": "PR",
    "iso3": "PRI",
    "admin_name": "Puerto Rico",
    "capital": "",
    "population": "8628",
    "id": "1630035578"
  },
  {
    "city": "San Sebastián",
    "city_ascii": "San Sebastian",
    "lat": "18.3356",
    "lng": "-66.9948",
    "country": "Puerto Rico",
    "iso2": "PR",
    "iso3": "PRI",
    "admin_name": "Puerto Rico",
    "capital": "",
    "population": "8568",
    "id": "1630023635"
  },
  {
    "city": "Aibonito",
    "city_ascii": "Aibonito",
    "lat": "18.1398",
    "lng": "-66.2659",
    "country": "Puerto Rico",
    "iso2": "PR",
    "iso3": "PRI",
    "admin_name": "Puerto Rico",
    "capital": "",
    "population": "8532",
    "id": "1630035609"
  }
]