[
  {
    "city": "Bujumbura",
    "city_ascii": "Bujumbura",
    "lat": "-3.3833",
    "lng": "29.3667",
    "country": "Burundi",
    "iso2": "BI",
    "iso3": "BDI",
    "admin_name": "Bujumbura Mairie",
    "capital": "primary",
    "population": "1075000",
    "id": "1108101689"
  },
  {
    "city": "Gitega",
    "city_ascii": "Gitega",
    "lat": "-3.4283",
    "lng": "29.9250",
    "country": "Burundi",
    "iso2": "BI",
    "iso3": "BDI",
    "admin_name": "Gitega",
    "capital": "primary",
    "population": "135467",
    "id": "1108778000"
  },
  {
    "city": "Ngozi",
    "city_ascii": "Ngozi",
    "lat": "-2.9083",
    "lng": "29.8269",
    "country": "Burundi",
    "iso2": "BI",
    "iso3": "BDI",
    "admin_name": "Ngozi",
    "capital": "admin",
    "population": "39884",
    "id": "1108753930"
  },
  {
    "city": "Rumonge",
    "city_ascii": "Rumonge",
    "lat": "-3.9667",
    "lng": "29.4333",
    "country": "Burundi",
    "iso2": "BI",
    "iso3": "BDI",
    "admin_name": "Rumonge",
    "capital": "admin",
    "population": "35931",
    "id": "1108641885"
  },
  {
    "city": "Cibitoke",
    "city_ascii": "Cibitoke",
    "lat": "-2.8886",
    "lng": "29.1200",
    "country": "Burundi",
    "iso2": "BI",
    "iso3": "BDI",
    "admin_name": "Cibitoke",
    "capital": "admin",
    "population": "23885",
    "id": "1108176356"
  },
  {
    "city": "Kayanza",
    "city_ascii": "Kayanza",
    "lat": "-2.9167",
    "lng": "29.6167",
    "country": "Burundi",
    "iso2": "BI",
    "iso3": "BDI",
    "admin_name": "Kayanza",
    "capital": "admin",
    "population": "21767",
    "id": "1108413426"
  },
  {
    "city": "Bubanza",
    "city_ascii": "Bubanza",
    "lat": "-3.0833",
    "lng": "29.4000",
    "country": "Burundi",
    "iso2": "BI",
    "iso3": "BDI",
    "admin_name": "Bubanza",
    "capital": "admin",
    "population": "20031",
    "id": "1108018348"
  },
  {
    "city": "Karuzi",
    "city_ascii": "Karuzi",
    "lat": "-3.1000",
    "lng": "30.1667",
    "country": "Burundi",
    "iso2": "BI",
    "iso3": "BDI",
    "admin_name": "Karuzi",
    "capital": "admin",
    "population": "10705",
    "id": "1108619045"
  },
  {
    "city": "Kirundo",
    "city_ascii": "Kirundo",
    "lat": "-2.5900",
    "lng": "30.0900",
    "country": "Burundi",
    "iso2": "BI",
    "iso3": "BDI",
    "admin_name": "Kirundo",
    "capital": "admin",
    "population": "10024",
    "id": "1108527579"
  },
  {
    "city": "Muyinga",
    "city_ascii": "Muyinga",
    "lat": "-2.8500",
    "lng": "30.3333",
    "country": "Burundi",
    "iso2": "BI",
    "iso3": "BDI",
    "admin_name": "Muyinga",
    "capital": "admin",
    "population": "9609",
    "id": "1108466781"
  },
  {
    "city": "Makamba",
    "city_ascii": "Makamba",
    "lat": "-4.1333",
    "lng": "29.8000",
    "country": "Burundi",
    "iso2": "BI",
    "iso3": "BDI",
    "admin_name": "Makamba",
    "capital": "admin",
    "population": "9396",
    "id": "1108520771"
  },
  {
    "city": "Ruyigi",
    "city_ascii": "Ruyigi",
    "lat": "-3.4833",
    "lng": "30.2500",
    "country": "Burundi",
    "iso2": "BI",
    "iso3": "BDI",
    "admin_name": "Ruyigi",
    "capital": "admin",
    "population": "7139",
    "id": "1108406902"
  },
  {
    "city": "Rutana",
    "city_ascii": "Rutana",
    "lat": "-3.9167",
    "lng": "30.0000",
    "country": "Burundi",
    "iso2": "BI",
    "iso3": "BDI",
    "admin_name": "Rutana",
    "capital": "admin",
    "population": "5865",
    "id": "1108441253"
  },
  {
    "city": "Muramvya",
    "city_ascii": "Muramvya",
    "lat": "-3.2500",
    "lng": "29.6000",
    "country": "Burundi",
    "iso2": "BI",
    "iso3": "BDI",
    "admin_name": "Muramvya",
    "capital": "admin",
    "population": "5458",
    "id": "1108007544"
  },
  {
    "city": "Bururi",
    "city_ascii": "Bururi",
    "lat": "-3.9500",
    "lng": "29.6167",
    "country": "Burundi",
    "iso2": "BI",
    "iso3": "BDI",
    "admin_name": "Bururi",
    "capital": "admin",
    "population": "4478",
    "id": "1108963889"
  },
  {
    "city": "Cankuzo",
    "city_ascii": "Cankuzo",
    "lat": "-3.2194",
    "lng": "30.5528",
    "country": "Burundi",
    "iso2": "BI",
    "iso3": "BDI",
    "admin_name": "Cankuzo",
    "capital": "admin",
    "population": "3624",
    "id": "1108631099"
  },
  {
    "city": "Isale",
    "city_ascii": "Isale",
    "lat": "-3.3444",
    "lng": "29.4833",
    "country": "Burundi",
    "iso2": "BI",
    "iso3": "BDI",
    "admin_name": "Bujumbura Rural",
    "capital": "admin",
    "population": "",
    "id": "1108407022"
  },
  {
    "city": "Gitega",
    "city_ascii": "Gitega",
    "lat": "-3.4260",
    "lng": "29.8436",
    "country": "Burundi",
    "iso2": "BI",
    "iso3": "BDI",
    "admin_name": "Mwaro",
    "capital": "",
    "population": "23167",
    "id": "1108962433"
  },
  {
    "city": "Gatumba",
    "city_ascii": "Gatumba",
    "lat": "-3.3333",
    "lng": "29.2500",
    "country": "Burundi",
    "iso2": "BI",
    "iso3": "BDI",
    "admin_name": "Bujumbura Rural",
    "capital": "",
    "population": "11700",
    "id": "1108258446"
  }
]