[
  {
    "city": "São Paulo",
    "city_ascii": "Sao Paulo",
    "lat": "-23.5500",
    "lng": "-46.6333",
    "country": "Brazil",
    "iso2": "BR",
    "iso3": "BRA",
    "admin_name": "São Paulo",
    "capital": "admin",
    "population": "23086000",
    "id": "1076532519"
  },
  {
    "city": "Rio de Janeiro",
    "city_ascii": "Rio de Janeiro",
    "lat": "-22.9111",
    "lng": "-43.2056",
    "country": "Brazil",
    "iso2": "BR",
    "iso3": "BRA",
    "admin_name": "Rio de Janeiro",
    "capital": "admin",
    "population": "12592000",
    "id": "1076887657"
  },
  {
    "city": "Belo Horizonte",
    "city_ascii": "Belo Horizonte",
    "lat": "-19.9167",
    "lng": "-43.9333",
    "country": "Brazil",
    "iso2": "BR",
    "iso3": "BRA",
    "admin_name": "Minas Gerais",
    "capital": "admin",
    "population": "5328000",
    "id": "1076967355"
  },
  {
    "city": "Brasília",
    "city_ascii": "Brasilia",
    "lat": "-15.7939",
    "lng": "-47.8828",
    "country": "Brazil",
    "iso2": "BR",
    "iso3": "BRA",
    "admin_name": "Distrito Federal",
    "capital": "primary",
    "population": "3039444",
    "id": "1076144436"
  },
  {
    "city": "Salvador",
    "city_ascii": "Salvador",
    "lat": "-12.9747",
    "lng": "-38.4767",
    "country": "Brazil",
    "iso2": "BR",
    "iso3": "BRA",
    "admin_name": "Bahia",
    "capital": "admin",
    "population": "2886698",
    "id": "1076923789"
  },
  {
    "city": "Fortaleza",
    "city_ascii": "Fortaleza",
    "lat": "-3.7275",
    "lng": "-38.5275",
    "country": "Brazil",
    "iso2": "BR",
    "iso3": "BRA",
    "admin_name": "Ceará",
    "capital": "admin",
    "population": "2452185",
    "id": "1076567885"
  },
  {
    "city": "Manaus",
    "city_ascii": "Manaus",
    "lat": "-3.1000",
    "lng": "-60.0167",
    "country": "Brazil",
    "iso2": "BR",
    "iso3": "BRA",
    "admin_name": "Amazonas",
    "capital": "admin",
    "population": "2219580",
    "id": "1076607274"
  },
  {
    "city": "Santos",
    "city_ascii": "Santos",
    "lat": "-23.9369",
    "lng": "-46.3250",
    "country": "Brazil",
    "iso2": "BR",
    "iso3": "BRA",
    "admin_name": "São Paulo",
    "capital": "",
    "population": "1897551",
    "id": "1076033299"
  },
  {
    "city": "Curitiba",
    "city_ascii": "Curitiba",
    "lat": "-25.4297",
    "lng": "-49.2711",
    "country": "Brazil",
    "iso2": "BR",
    "iso3": "BRA",
    "admin_name": "Paraná",
    "capital": "admin",
    "population": "1879355",
    "id": "1076701712"
  },
  {
    "city": "Recife",
    "city_ascii": "Recife",
    "lat": "-8.0500",
    "lng": "-34.9000",
    "country": "Brazil",
    "iso2": "BR",
    "iso3": "BRA",
    "admin_name": "Pernambuco",
    "capital": "admin",
    "population": "1653461",
    "id": "1076137337"
  },
  {
    "city": "Belém",
    "city_ascii": "Belem",
    "lat": "-1.4558",
    "lng": "-48.5039",
    "country": "Brazil",
    "iso2": "BR",
    "iso3": "BRA",
    "admin_name": "Pará",
    "capital": "admin",
    "population": "1499641",
    "id": "1076646823"
  },
  {
    "city": "Porto Alegre",
    "city_ascii": "Porto Alegre",
    "lat": "-30.0331",
    "lng": "-51.2300",
    "country": "Brazil",
    "iso2": "BR",
    "iso3": "BRA",
    "admin_name": "Rio Grande do Sul",
    "capital": "admin",
    "population": "1484941",
    "id": "1076658221"
  },
  {
    "city": "Goiânia",
    "city_ascii": "Goiania",
    "lat": "-16.6667",
    "lng": "-49.2500",
    "country": "Brazil",
    "iso2": "BR",
    "iso3": "BRA",
    "admin_name": "Goiás",
    "capital": "admin",
    "population": "1393575",
    "id": "1076034054"
  },
  {
    "city": "Guarulhos",
    "city_ascii": "Guarulhos",
    "lat": "-23.4628",
    "lng": "-46.5328",
    "country": "Brazil",
    "iso2": "BR",
    "iso3": "BRA",
    "admin_name": "São Paulo",
    "capital": "",
    "population": "1324781",
    "id": "1076730420"
  },
  {
    "city": "Campinas",
    "city_ascii": "Campinas",
    "lat": "-22.9058",
    "lng": "-47.0608",
    "country": "Brazil",
    "iso2": "BR",
    "iso3": "BRA",
    "admin_name": "São Paulo",
    "capital": "",
    "population": "1213792",
    "id": "1076145766"
  },
  {
    "city": "Vila Velha",
    "city_ascii": "Vila Velha",
    "lat": "3.2167",
    "lng": "-51.2167",
    "country": "Brazil",
    "iso2": "BR",
    "iso3": "BRA",
    "admin_name": "Amapá",
    "capital": "",
    "population": "1209091",
    "id": "1076575691"
  },
  {
    "city": "São Luís",
    "city_ascii": "Sao Luis",
    "lat": "-2.5283",
    "lng": "-44.3044",
    "country": "Brazil",
    "iso2": "BR",
    "iso3": "BRA",
    "admin_name": "Maranhão",
    "capital": "admin",
    "population": "1108975",
    "id": "1076819308"
  },
  {
    "city": "São Gonçalo",
    "city_ascii": "Sao Goncalo",
    "lat": "-22.8269",
    "lng": "-43.0539",
    "country": "Brazil",
    "iso2": "BR",
    "iso3": "BRA",
    "admin_name": "Rio de Janeiro",
    "capital": "",
    "population": "1077687",
    "id": "1076485783"
  },
  {
    "city": "Maceió",
    "city_ascii": "Maceio",
    "lat": "-9.6658",
    "lng": "-35.7350",
    "country": "Brazil",
    "iso2": "BR",
    "iso3": "BRA",
    "admin_name": "Alagoas",
    "capital": "admin",
    "population": "1025360",
    "id": "1076440479"
  },
  {
    "city": "Natal",
    "city_ascii": "Natal",
    "lat": "-6.9838",
    "lng": "-60.2699",
    "country": "Brazil",
    "iso2": "BR",
    "iso3": "BRA",
    "admin_name": "Amazonas",
    "capital": "",
    "population": "980588",
    "id": "1076336975"
  },
  {
    "city": "Teresina",
    "city_ascii": "Teresina",
    "lat": "-5.0949",
    "lng": "-42.8042",
    "country": "Brazil",
    "iso2": "BR",
    "iso3": "BRA",
    "admin_name": "Piauí",
    "capital": "admin",
    "population": "953172",
    "id": "1076727667"
  },
  {
    "city": "Campo Grande",
    "city_ascii": "Campo Grande",
    "lat": "-20.4839",
    "lng": "-54.6150",
    "country": "Brazil",
    "iso2": "BR",
    "iso3": "BRA",
    "admin_name": "Mato Grosso do Sul",
    "capital": "admin",
    "population": "906092",
    "id": "1076660445"
  },
  {
    "city": "Natal",
    "city_ascii": "Natal",
    "lat": "-5.7833",
    "lng": "-35.2000",
    "country": "Brazil",
    "iso2": "BR",
    "iso3": "BRA",
    "admin_name": "Rio Grande do Norte",
    "capital": "admin",
    "population": "877662",
    "id": "1076697777"
  },
  {
    "city": "Iguaçu",
    "city_ascii": "Iguacu",
    "lat": "-22.7400",
    "lng": "-43.4700",
    "country": "Brazil",
    "iso2": "BR",
    "iso3": "BRA",
    "admin_name": "Rio de Janeiro",
    "capital": "",
    "population": "844583",
    "id": "1076339714"
  },
  {
    "city": "São Bernardo do Campo",
    "city_ascii": "Sao Bernardo do Campo",
    "lat": "-23.7000",
    "lng": "-46.5500",
    "country": "Brazil",
    "iso2": "BR",
    "iso3": "BRA",
    "admin_name": "São Paulo",
    "capital": "",
    "population": "816925",
    "id": "1076793227"
  },
  {
    "city": "João Pessoa",
    "city_ascii": "Joao Pessoa",
    "lat": "-7.1200",
    "lng": "-34.8800",
    "country": "Brazil",
    "iso2": "BR",
    "iso3": "BRA",
    "admin_name": "Paraíba",
    "capital": "admin",
    "population": "801718",
    "id": "1076922014"
  },
  {
    "city": "Abaeté",
    "city_ascii": "Abaete",
    "lat": "-19.1583",
    "lng": "-45.4522",
    "country": "Brazil",
    "iso2": "BR",
    "iso3": "BRA",
    "admin_name": "Minas Gerais",
    "capital": "",
    "population": "800000",
    "id": "1076413528"
  },
  {
    "city": "São José dos Campos",
    "city_ascii": "Sao Jose dos Campos",
    "lat": "-23.1789",
    "lng": "-45.8869",
    "country": "Brazil",
    "iso2": "BR",
    "iso3": "BRA",
    "admin_name": "São Paulo",
    "capital": "",
    "population": "729737",
    "id": "1076783887"
  },
  {
    "city": "Santo André",
    "city_ascii": "Santo Andre",
    "lat": "-23.6572",
    "lng": "-46.5333",
    "country": "Brazil",
    "iso2": "BR",
    "iso3": "BRA",
    "admin_name": "São Paulo",
    "capital": "",
    "population": "721368",
    "id": "1076625886"
  },
  {
    "city": "Jaboatão",
    "city_ascii": "Jaboatao",
    "lat": "-8.1803",
    "lng": "-35.0014",
    "country": "Brazil",
    "iso2": "BR",
    "iso3": "BRA",
    "admin_name": "Pernambuco",
    "capital": "",
    "population": "702621",
    "id": "1076000699"
  },
  {
    "city": "Ribeirão Prêto",
    "city_ascii": "Ribeirao Preto",
    "lat": "-21.1783",
    "lng": "-47.8067",
    "country": "Brazil",
    "iso2": "BR",
    "iso3": "BRA",
    "admin_name": "São Paulo",
    "capital": "",
    "population": "711825",
    "id": "1076524478"
  },
  {
    "city": "Osasco",
    "city_ascii": "Osasco",
    "lat": "-23.5328",
    "lng": "-46.7919",
    "country": "Brazil",
    "iso2": "BR",
    "iso3": "BRA",
    "admin_name": "São Paulo",
    "capital": "",
    "population": "694844",
    "id": "1076786452"
  },
  {
    "city": "Contagem",
    "city_ascii": "Contagem",
    "lat": "-19.9319",
    "lng": "-44.0539",
    "country": "Brazil",
    "iso2": "BR",
    "iso3": "BRA",
    "admin_name": "Minas Gerais",
    "capital": "",
    "population": "648766",
    "id": "1076845191"
  },
  {
    "city": "Sorocaba",
    "city_ascii": "Sorocaba",
    "lat": "-23.5017",
    "lng": "-47.4581",
    "country": "Brazil",
    "iso2": "BR",
    "iso3": "BRA",
    "admin_name": "São Paulo",
    "capital": "",
    "population": "644919",
    "id": "1076758708"
  },
  {
    "city": "Aracaju",
    "city_ascii": "Aracaju",
    "lat": "-10.9167",
    "lng": "-37.0500",
    "country": "Brazil",
    "iso2": "BR",
    "iso3": "BRA",
    "admin_name": "Sergipe",
    "capital": "admin",
    "population": "632744",
    "id": "1076527830"
  },
  {
    "city": "Feira de Santana",
    "city_ascii": "Feira de Santana",
    "lat": "-12.2500",
    "lng": "-38.9500",
    "country": "Brazil",
    "iso2": "BR",
    "iso3": "BRA",
    "admin_name": "Bahia",
    "capital": "",
    "population": "617528",
    "id": "1076892244"
  },
  {
    "city": "Uberlândia",
    "city_ascii": "Uberlandia",
    "lat": "-18.9231",
    "lng": "-48.2886",
    "country": "Brazil",
    "iso2": "BR",
    "iso3": "BRA",
    "admin_name": "Minas Gerais",
    "capital": "",
    "population": "604013",
    "id": "1076495001"
  },
  {
    "city": "Cuiabá",
    "city_ascii": "Cuiaba",
    "lat": "-15.5958",
    "lng": "-56.0969",
    "country": "Brazil",
    "iso2": "BR",
    "iso3": "BRA",
    "admin_name": "Mato Grosso",
    "capital": "admin",
    "population": "585367",
    "id": "1076112309"
  },
  {
    "city": "Juiz de Fora",
    "city_ascii": "Juiz de Fora",
    "lat": "-21.7619",
    "lng": "-43.3494",
    "country": "Brazil",
    "iso2": "BR",
    "iso3": "BRA",
    "admin_name": "Minas Gerais",
    "capital": "",
    "population": "573285",
    "id": "1076006144"
  },
  {
    "city": "Londrina",
    "city_ascii": "Londrina",
    "lat": "-23.3100",
    "lng": "-51.1628",
    "country": "Brazil",
    "iso2": "BR",
    "iso3": "BRA",
    "admin_name": "Paraná",
    "capital": "",
    "population": "548249",
    "id": "1076723241"
  },
  {
    "city": "Ananindeua",
    "city_ascii": "Ananindeua",
    "lat": "-1.3658",
    "lng": "-48.3719",
    "country": "Brazil",
    "iso2": "BR",
    "iso3": "BRA",
    "admin_name": "Pará",
    "capital": "",
    "population": "540410",
    "id": "1076025295"
  },
  {
    "city": "Joinvile",
    "city_ascii": "Joinvile",
    "lat": "-26.3204",
    "lng": "-48.8437",
    "country": "Brazil",
    "iso2": "BR",
    "iso3": "BRA",
    "admin_name": "Santa Catarina",
    "capital": "",
    "population": "515288",
    "id": "1076050637"
  },
  {
    "city": "Macapá",
    "city_ascii": "Macapa",
    "lat": "0.0330",
    "lng": "-51.0653",
    "country": "Brazil",
    "iso2": "BR",
    "iso3": "BRA",
    "admin_name": "Amapá",
    "capital": "admin",
    "population": "512902",
    "id": "1076189884"
  },
  {
    "city": "Niterói",
    "city_ascii": "Niteroi",
    "lat": "-22.8833",
    "lng": "-43.1036",
    "country": "Brazil",
    "iso2": "BR",
    "iso3": "BRA",
    "admin_name": "Rio de Janeiro",
    "capital": "",
    "population": "496696",
    "id": "1076501425"
  },
  {
    "city": "Serra",
    "city_ascii": "Serra",
    "lat": "-20.1289",
    "lng": "-40.3078",
    "country": "Brazil",
    "iso2": "BR",
    "iso3": "BRA",
    "admin_name": "Espírito Santo",
    "capital": "",
    "population": "485376",
    "id": "1076191325"
  },
  {
    "city": "Florianópolis",
    "city_ascii": "Florianopolis",
    "lat": "-27.6122",
    "lng": "-48.4853",
    "country": "Brazil",
    "iso2": "BR",
    "iso3": "BRA",
    "admin_name": "Santa Catarina",
    "capital": "admin",
    "population": "477798",
    "id": "1076190259"
  },
  {
    "city": "Vila Velha",
    "city_ascii": "Vila Velha",
    "lat": "-20.3364",
    "lng": "-40.2936",
    "country": "Brazil",
    "iso2": "BR",
    "iso3": "BRA",
    "admin_name": "Espírito Santo",
    "capital": "",
    "population": "472762",
    "id": "1076404077"
  },
  {
    "city": "São José do Rio Prêto",
    "city_ascii": "Sao Jose do Rio Preto",
    "lat": "-20.8081",
    "lng": "-49.3811",
    "country": "Brazil",
    "iso2": "BR",
    "iso3": "BRA",
    "admin_name": "São Paulo",
    "capital": "",
    "population": "469173",
    "id": "1076760827"
  },
  {
    "city": "Campos",
    "city_ascii": "Campos",
    "lat": "-21.7539",
    "lng": "-41.3239",
    "country": "Brazil",
    "iso2": "BR",
    "iso3": "BRA",
    "admin_name": "Rio de Janeiro",
    "capital": "",
    "population": "463731",
    "id": "1076606365"
  },
  {
    "city": "Mauá",
    "city_ascii": "Maua",
    "lat": "-23.6678",
    "lng": "-46.4608",
    "country": "Brazil",
    "iso2": "BR",
    "iso3": "BRA",
    "admin_name": "São Paulo",
    "capital": "",
    "population": "453286",
    "id": "1076477498"
  },
  {
    "city": "Mogi das Cruzes",
    "city_ascii": "Mogi das Cruzes",
    "lat": "-23.5228",
    "lng": "-46.1878",
    "country": "Brazil",
    "iso2": "BR",
    "iso3": "BRA",
    "admin_name": "São Paulo",
    "capital": "",
    "population": "450785",
    "id": "1076857883"
  },
  {
    "city": "Diadema",
    "city_ascii": "Diadema",
    "lat": "-23.6861",
    "lng": "-46.6106",
    "country": "Brazil",
    "iso2": "BR",
    "iso3": "BRA",
    "admin_name": "São Paulo",
    "capital": "",
    "population": "426757",
    "id": "1076867279"
  },
  {
    "city": "Caxias do Sul",
    "city_ascii": "Caxias do Sul",
    "lat": "-29.1667",
    "lng": "-51.1833",
    "country": "Brazil",
    "iso2": "BR",
    "iso3": "BRA",
    "admin_name": "Rio Grande do Sul",
    "capital": "",
    "population": "435564",
    "id": "1076809957"
  },
  {
    "city": "Porto Velho",
    "city_ascii": "Porto Velho",
    "lat": "-8.7619",
    "lng": "-63.9039",
    "country": "Brazil",
    "iso2": "BR",
    "iso3": "BRA",
    "admin_name": "Rondônia",
    "capital": "admin",
    "population": "428527",
    "id": "1076045591"
  },
  {
    "city": "Boa Vista",
    "city_ascii": "Boa Vista",
    "lat": "2.8194",
    "lng": "-60.6714",
    "country": "Brazil",
    "iso2": "BR",
    "iso3": "BRA",
    "admin_name": "Roraima",
    "capital": "admin",
    "population": "419652",
    "id": "1076621300"
  },
  {
    "city": "Carapicuíba",
    "city_ascii": "Carapicuiba",
    "lat": "-23.5192",
    "lng": "-46.8358",
    "country": "Brazil",
    "iso2": "BR",
    "iso3": "BRA",
    "admin_name": "São Paulo",
    "capital": "",
    "population": "403183",
    "id": "1076874103"
  },
  {
    "city": "Rio Branco",
    "city_ascii": "Rio Branco",
    "lat": "-9.9747",
    "lng": "-67.8100",
    "country": "Brazil",
    "iso2": "BR",
    "iso3": "BRA",
    "admin_name": "Acre",
    "capital": "admin",
    "population": "413418",
    "id": "1076391263"
  },
  {
    "city": "Campina Grande",
    "city_ascii": "Campina Grande",
    "lat": "-7.2306",
    "lng": "-35.8811",
    "country": "Brazil",
    "iso2": "BR",
    "iso3": "BRA",
    "admin_name": "Paraíba",
    "capital": "",
    "population": "405072",
    "id": "1076218697"
  },
  {
    "city": "Maringá",
    "city_ascii": "Maringa",
    "lat": "-23.4000",
    "lng": "-51.9167",
    "country": "Brazil",
    "iso2": "BR",
    "iso3": "BRA",
    "admin_name": "Paraná",
    "capital": "",
    "population": "403063",
    "id": "1076013378"
  },
  {
    "city": "Jundiaí",
    "city_ascii": "Jundiai",
    "lat": "-23.1858",
    "lng": "-46.8839",
    "country": "Brazil",
    "iso2": "BR",
    "iso3": "BRA",
    "admin_name": "São Paulo",
    "capital": "",
    "population": "401896",
    "id": "1076998392"
  },
  {
    "city": "Olinda",
    "city_ascii": "Olinda",
    "lat": "-8.0000",
    "lng": "-34.8833",
    "country": "Brazil",
    "iso2": "BR",
    "iso3": "BRA",
    "admin_name": "Pernambuco",
    "capital": "",
    "population": "393115",
    "id": "1076784718"
  },
  {
    "city": "Piracicaba",
    "city_ascii": "Piracicaba",
    "lat": "-22.7253",
    "lng": "-47.6492",
    "country": "Brazil",
    "iso2": "BR",
    "iso3": "BRA",
    "admin_name": "São Paulo",
    "capital": "",
    "population": "391449",
    "id": "1076166252"
  },
  {
    "city": "Betim",
    "city_ascii": "Betim",
    "lat": "-19.9678",
    "lng": "-44.1978",
    "country": "Brazil",
    "iso2": "BR",
    "iso3": "BRA",
    "admin_name": "Minas Gerais",
    "capital": "",
    "population": "378089",
    "id": "1076953384"
  },
  {
    "city": "Caucaia",
    "city_ascii": "Caucaia",
    "lat": "-3.7167",
    "lng": "-38.6500",
    "country": "Brazil",
    "iso2": "BR",
    "iso3": "BRA",
    "admin_name": "Ceará",
    "capital": "",
    "population": "368918",
    "id": "1076870058"
  },
  {
    "city": "Bauru",
    "city_ascii": "Bauru",
    "lat": "-22.3150",
    "lng": "-49.0608",
    "country": "Brazil",
    "iso2": "BR",
    "iso3": "BRA",
    "admin_name": "São Paulo",
    "capital": "",
    "population": "366992",
    "id": "1076905338"
  },
  {
    "city": "Anápolis",
    "city_ascii": "Anapolis",
    "lat": "-16.3339",
    "lng": "-48.9519",
    "country": "Brazil",
    "iso2": "BR",
    "iso3": "BRA",
    "admin_name": "Goiás",
    "capital": "",
    "population": "366491",
    "id": "1076208869"
  },
  {
    "city": "Blumenau",
    "city_ascii": "Blumenau",
    "lat": "-26.9333",
    "lng": "-49.0500",
    "country": "Brazil",
    "iso2": "BR",
    "iso3": "BRA",
    "admin_name": "Santa Catarina",
    "capital": "",
    "population": "361855",
    "id": "1076618665"
  },
  {
    "city": "Montes Claros",
    "city_ascii": "Montes Claros",
    "lat": "-16.7306",
    "lng": "-43.8639",
    "country": "Brazil",
    "iso2": "BR",
    "iso3": "BRA",
    "admin_name": "Minas Gerais",
    "capital": "",
    "population": "361915",
    "id": "1076113275"
  },
  {
    "city": "Vitória",
    "city_ascii": "Vitoria",
    "lat": "-20.2889",
    "lng": "-40.3083",
    "country": "Brazil",
    "iso2": "BR",
    "iso3": "BRA",
    "admin_name": "Espírito Santo",
    "capital": "admin",
    "population": "355875",
    "id": "1076376829"
  },
  {
    "city": "Franca",
    "city_ascii": "Franca",
    "lat": "-20.5389",
    "lng": "-47.4008",
    "country": "Brazil",
    "iso2": "BR",
    "iso3": "BRA",
    "admin_name": "São Paulo",
    "capital": "",
    "population": "358539",
    "id": "1076740256"
  },
  {
    "city": "São Vicente",
    "city_ascii": "Sao Vicente",
    "lat": "-23.9633",
    "lng": "-46.3922",
    "country": "Brazil",
    "iso2": "BR",
    "iso3": "BRA",
    "admin_name": "São Paulo",
    "capital": "",
    "population": "355542",
    "id": "1076857089"
  },
  {
    "city": "Itaquaquecetuba",
    "city_ascii": "Itaquaquecetuba",
    "lat": "-23.4864",
    "lng": "-46.3486",
    "country": "Brazil",
    "iso2": "BR",
    "iso3": "BRA",
    "admin_name": "São Paulo",
    "capital": "",
    "population": "352801",
    "id": "1076942224"
  },
  {
    "city": "Cariacica",
    "city_ascii": "Cariacica",
    "lat": "-20.2639",
    "lng": "-40.4200",
    "country": "Brazil",
    "iso2": "BR",
    "iso3": "BRA",
    "admin_name": "Espírito Santo",
    "capital": "",
    "population": "348738",
    "id": "1076479479"
  },
  {
    "city": "Caruaru",
    "city_ascii": "Caruaru",
    "lat": "-8.2828",
    "lng": "-35.9758",
    "country": "Brazil",
    "iso2": "BR",
    "iso3": "BRA",
    "admin_name": "Pernambuco",
    "capital": "",
    "population": "347088",
    "id": "1076397475"
  },
  {
    "city": "Vitória da Conquista",
    "city_ascii": "Vitoria da Conquista",
    "lat": "-14.8658",
    "lng": "-40.8389",
    "country": "Brazil",
    "iso2": "BR",
    "iso3": "BRA",
    "admin_name": "Bahia",
    "capital": "",
    "population": "343230",
    "id": "1076812020"
  },
  {
    "city": "Petrolina",
    "city_ascii": "Petrolina",
    "lat": "-9.3928",
    "lng": "-40.5078",
    "country": "Brazil",
    "iso2": "BR",
    "iso3": "BRA",
    "admin_name": "Pernambuco",
    "capital": "",
    "population": "337683",
    "id": "1076843988"
  },
  {
    "city": "Uberaba",
    "city_ascii": "Uberaba",
    "lat": "-19.7478",
    "lng": "-47.9319",
    "country": "Brazil",
    "iso2": "BR",
    "iso3": "BRA",
    "admin_name": "Minas Gerais",
    "capital": "",
    "population": "333783",
    "id": "1076230331"
  },
  {
    "city": "Ribeirão das Neves",
    "city_ascii": "Ribeirao das Neves",
    "lat": "-19.7669",
    "lng": "-44.0869",
    "country": "Brazil",
    "iso2": "BR",
    "iso3": "BRA",
    "admin_name": "Minas Gerais",
    "capital": "",
    "population": "331045",
    "id": "1076482220"
  },
  {
    "city": "Pelotas",
    "city_ascii": "Pelotas",
    "lat": "-31.7719",
    "lng": "-52.3425",
    "country": "Brazil",
    "iso2": "BR",
    "iso3": "BRA",
    "admin_name": "Rio Grande do Sul",
    "capital": "",
    "population": "328275",
    "id": "1076815692"
  },
  {
    "city": "Canoas",
    "city_ascii": "Canoas",
    "lat": "-29.9200",
    "lng": "-51.1800",
    "country": "Brazil",
    "iso2": "BR",
    "iso3": "BRA",
    "admin_name": "Rio Grande do Sul",
    "capital": "",
    "population": "323827",
    "id": "1076009922"
  },
  {
    "city": "Taubaté",
    "city_ascii": "Taubate",
    "lat": "-23.0250",
    "lng": "-45.5556",
    "country": "Brazil",
    "iso2": "BR",
    "iso3": "BRA",
    "admin_name": "São Paulo",
    "capital": "",
    "population": "317915",
    "id": "1076146252"
  },
  {
    "city": "Guarujá",
    "city_ascii": "Guaruja",
    "lat": "-23.9936",
    "lng": "-46.2564",
    "country": "Brazil",
    "iso2": "BR",
    "iso3": "BRA",
    "admin_name": "São Paulo",
    "capital": "",
    "population": "311230",
    "id": "1076832747"
  },
  {
    "city": "Ponta Grossa",
    "city_ascii": "Ponta Grossa",
    "lat": "-25.0994",
    "lng": "-50.1583",
    "country": "Brazil",
    "iso2": "BR",
    "iso3": "BRA",
    "admin_name": "Paraná",
    "capital": "",
    "population": "311611",
    "id": "1076716439"
  },
  {
    "city": "Taboão da Serra",
    "city_ascii": "Taboao da Serra",
    "lat": "-23.5328",
    "lng": "-46.7994",
    "country": "Brazil",
    "iso2": "BR",
    "iso3": "BRA",
    "admin_name": "São Paulo",
    "capital": "",
    "population": "293652",
    "id": "1076000585"
  },
  {
    "city": "Santarém",
    "city_ascii": "Santarem",
    "lat": "-2.4300",
    "lng": "-54.7200",
    "country": "Brazil",
    "iso2": "BR",
    "iso3": "BRA",
    "admin_name": "Pará",
    "capital": "",
    "population": "306480",
    "id": "1076256494"
  },
  {
    "city": "Paulista",
    "city_ascii": "Paulista",
    "lat": "-7.9408",
    "lng": "-34.8728",
    "country": "Brazil",
    "iso2": "BR",
    "iso3": "BRA",
    "admin_name": "Pernambuco",
    "capital": "",
    "population": "300466",
    "id": "1076183876"
  },
  {
    "city": "Limeira",
    "city_ascii": "Limeira",
    "lat": "-22.5650",
    "lng": "-47.4019",
    "country": "Brazil",
    "iso2": "BR",
    "iso3": "BRA",
    "admin_name": "São Paulo",
    "capital": "",
    "population": "300911",
    "id": "1076508566"
  },
  {
    "city": "Praia Grande",
    "city_ascii": "Praia Grande",
    "lat": "-24.0061",
    "lng": "-46.4028",
    "country": "Brazil",
    "iso2": "BR",
    "iso3": "BRA",
    "admin_name": "São Paulo",
    "capital": "",
    "population": "299261",
    "id": "1076548222"
  },
  {
    "city": "Petrópolis",
    "city_ascii": "Petropolis",
    "lat": "-22.5050",
    "lng": "-43.1789",
    "country": "Brazil",
    "iso2": "BR",
    "iso3": "BRA",
    "admin_name": "Rio de Janeiro",
    "capital": "",
    "population": "298142",
    "id": "1076352504"
  },
  {
    "city": "Várzea Grande",
    "city_ascii": "Varzea Grande",
    "lat": "-15.6500",
    "lng": "-56.1333",
    "country": "Brazil",
    "iso2": "BR",
    "iso3": "BRA",
    "admin_name": "Mato Grosso",
    "capital": "",
    "population": "287526",
    "id": "1076359879"
  },
  {
    "city": "Camaçari",
    "city_ascii": "Camacari",
    "lat": "-12.6978",
    "lng": "-38.3239",
    "country": "Brazil",
    "iso2": "BR",
    "iso3": "BRA",
    "admin_name": "Bahia",
    "capital": "",
    "population": "286919",
    "id": "1076610862"
  },
  {
    "city": "Suzano",
    "city_ascii": "Suzano",
    "lat": "-23.5428",
    "lng": "-46.3108",
    "country": "Brazil",
    "iso2": "BR",
    "iso3": "BRA",
    "admin_name": "São Paulo",
    "capital": "",
    "population": "285280",
    "id": "1076830201"
  },
  {
    "city": "Cascavel",
    "city_ascii": "Cascavel",
    "lat": "-24.9556",
    "lng": "-53.4553",
    "country": "Brazil",
    "iso2": "BR",
    "iso3": "BRA",
    "admin_name": "Paraná",
    "capital": "",
    "population": "286205",
    "id": "1076509946"
  },
  {
    "city": "Governador Valadares",
    "city_ascii": "Governador Valadares",
    "lat": "-18.8500",
    "lng": "-41.9333",
    "country": "Brazil",
    "iso2": "BR",
    "iso3": "BRA",
    "admin_name": "Minas Gerais",
    "capital": "",
    "population": "281046",
    "id": "1076271003"
  },
  {
    "city": "Crato",
    "city_ascii": "Crato",
    "lat": "-7.4639",
    "lng": "-63.0400",
    "country": "Brazil",
    "iso2": "BR",
    "iso3": "BRA",
    "admin_name": "Amazonas",
    "capital": "",
    "population": "273883",
    "id": "1076425706"
  },
  {
    "city": "Volta Redonda",
    "city_ascii": "Volta Redonda",
    "lat": "-22.5228",
    "lng": "-44.1039",
    "country": "Brazil",
    "iso2": "BR",
    "iso3": "BRA",
    "admin_name": "Rio de Janeiro",
    "capital": "",
    "population": "273988",
    "id": "1076343513"
  },
  {
    "city": "Palmas",
    "city_ascii": "Palmas",
    "lat": "-10.1844",
    "lng": "-48.3336",
    "country": "Brazil",
    "iso2": "BR",
    "iso3": "BRA",
    "admin_name": "Tocantins",
    "capital": "admin",
    "population": "272726",
    "id": "1076052802"
  },
  {
    "city": "Sumaré",
    "city_ascii": "Sumare",
    "lat": "-22.8219",
    "lng": "-47.2669",
    "country": "Brazil",
    "iso2": "BR",
    "iso3": "BRA",
    "admin_name": "São Paulo",
    "capital": "",
    "population": "265955",
    "id": "1076684312"
  },
  {
    "city": "Marabá",
    "city_ascii": "Maraba",
    "lat": "-5.3500",
    "lng": "-49.1167",
    "country": "Brazil",
    "iso2": "BR",
    "iso3": "BRA",
    "admin_name": "Pará",
    "capital": "",
    "population": "266932",
    "id": "1076974144"
  },
  {
    "city": "Barueri",
    "city_ascii": "Barueri",
    "lat": "-23.5111",
    "lng": "-46.8764",
    "country": "Brazil",
    "iso2": "BR",
    "iso3": "BRA",
    "admin_name": "São Paulo",
    "capital": "",
    "population": "262275",
    "id": "1076211114"
  },
  {
    "city": "São José dos Pinhais",
    "city_ascii": "Sao Jose dos Pinhais",
    "lat": "-25.5350",
    "lng": "-49.2058",
    "country": "Brazil",
    "iso2": "BR",
    "iso3": "BRA",
    "admin_name": "Paraná",
    "capital": "",
    "population": "264210",
    "id": "1076174955"
  },
  {
    "city": "Mossoró",
    "city_ascii": "Mossoro",
    "lat": "-5.1878",
    "lng": "-37.3439",
    "country": "Brazil",
    "iso2": "BR",
    "iso3": "BRA",
    "admin_name": "Rio Grande do Norte",
    "capital": "",
    "population": "259815",
    "id": "1076461194"
  },
  {
    "city": "Indaiatuba",
    "city_ascii": "Indaiatuba",
    "lat": "-23.0903",
    "lng": "-47.2181",
    "country": "Brazil",
    "iso2": "BR",
    "iso3": "BRA",
    "admin_name": "São Paulo",
    "capital": "",
    "population": "256223",
    "id": "1076347789"
  },
  {
    "city": "Foz do Iguaçu",
    "city_ascii": "Foz do Iguacu",
    "lat": "-25.5400",
    "lng": "-54.5875",
    "country": "Brazil",
    "iso2": "BR",
    "iso3": "BRA",
    "admin_name": "Paraná",
    "capital": "",
    "population": "256088",
    "id": "1076025805"
  },
  {
    "city": "Gravataí",
    "city_ascii": "Gravatai",
    "lat": "-29.9333",
    "lng": "-50.9833",
    "country": "Brazil",
    "iso2": "BR",
    "iso3": "BRA",
    "admin_name": "Rio Grande do Sul",
    "capital": "",
    "population": "255660",
    "id": "1076919841"
  },
  {
    "city": "São Carlos",
    "city_ascii": "Sao Carlos",
    "lat": "-22.0000",
    "lng": "-47.8908",
    "country": "Brazil",
    "iso2": "BR",
    "iso3": "BRA",
    "admin_name": "São Paulo",
    "capital": "",
    "population": "254484",
    "id": "1076673445"
  },
  {
    "city": "São José",
    "city_ascii": "Sao Jose",
    "lat": "-27.6000",
    "lng": "-48.6167",
    "country": "Brazil",
    "iso2": "BR",
    "iso3": "BRA",
    "admin_name": "Santa Catarina",
    "capital": "",
    "population": "250181",
    "id": "1076689151"
  },
  {
    "city": "Juazeiro do Norte",
    "city_ascii": "Juazeiro do Norte",
    "lat": "-7.2000",
    "lng": "-39.3333",
    "country": "Brazil",
    "iso2": "BR",
    "iso3": "BRA",
    "admin_name": "Ceará",
    "capital": "",
    "population": "249939",
    "id": "1076912078"
  },
  {
    "city": "Imperatriz",
    "city_ascii": "Imperatriz",
    "lat": "-5.5333",
    "lng": "-47.4833",
    "country": "Brazil",
    "iso2": "BR",
    "iso3": "BRA",
    "admin_name": "Maranhão",
    "capital": "",
    "population": "247505",
    "id": "1076486025"
  },
  {
    "city": "Americana",
    "city_ascii": "Americana",
    "lat": "-22.7386",
    "lng": "-47.3311",
    "country": "Brazil",
    "iso2": "BR",
    "iso3": "BRA",
    "admin_name": "São Paulo",
    "capital": "",
    "population": "244270",
    "id": "1076922153"
  },
  {
    "city": "Santa Maria",
    "city_ascii": "Santa Maria",
    "lat": "-29.6833",
    "lng": "-53.8000",
    "country": "Brazil",
    "iso2": "BR",
    "iso3": "BRA",
    "admin_name": "Rio Grande do Sul",
    "capital": "",
    "population": "243611",
    "id": "1076178738"
  },
  {
    "city": "Ipatinga",
    "city_ascii": "Ipatinga",
    "lat": "-19.5000",
    "lng": "-42.5333",
    "country": "Brazil",
    "iso2": "BR",
    "iso3": "BRA",
    "admin_name": "Minas Gerais",
    "capital": "",
    "population": "239468",
    "id": "1076484921"
  },
  {
    "city": "Marília",
    "city_ascii": "Marilia",
    "lat": "-22.2139",
    "lng": "-49.9458",
    "country": "Brazil",
    "iso2": "BR",
    "iso3": "BRA",
    "admin_name": "São Paulo",
    "capital": "",
    "population": "240590",
    "id": "1076042151"
  },
  {
    "city": "Novo Hamburgo",
    "city_ascii": "Novo Hamburgo",
    "lat": "-29.6778",
    "lng": "-51.1308",
    "country": "Brazil",
    "iso2": "BR",
    "iso3": "BRA",
    "admin_name": "Rio Grande do Sul",
    "capital": "",
    "population": "238940",
    "id": "1076221386"
  },
  {
    "city": "Viamão",
    "city_ascii": "Viamao",
    "lat": "-30.0808",
    "lng": "-51.0228",
    "country": "Brazil",
    "iso2": "BR",
    "iso3": "BRA",
    "admin_name": "Rio Grande do Sul",
    "capital": "",
    "population": "239384",
    "id": "1076314777"
  },
  {
    "city": "Jacareí",
    "city_ascii": "Jacarei",
    "lat": "-23.3053",
    "lng": "-45.9658",
    "country": "Brazil",
    "iso2": "BR",
    "iso3": "BRA",
    "admin_name": "São Paulo",
    "capital": "",
    "population": "235416",
    "id": "1076592769"
  },
  {
    "city": "Macaé",
    "city_ascii": "Macae",
    "lat": "-22.3708",
    "lng": "-41.7869",
    "country": "Brazil",
    "iso2": "BR",
    "iso3": "BRA",
    "admin_name": "Rio de Janeiro",
    "capital": "",
    "population": "234628",
    "id": "1076074287"
  },
  {
    "city": "Arapiraca",
    "city_ascii": "Arapiraca",
    "lat": "-9.7519",
    "lng": "-36.6608",
    "country": "Brazil",
    "iso2": "BR",
    "iso3": "BRA",
    "admin_name": "Alagoas",
    "capital": "",
    "population": "233047",
    "id": "1076615737"
  },
  {
    "city": "Cotia",
    "city_ascii": "Cotia",
    "lat": "-23.6042",
    "lng": "-46.9194",
    "country": "Brazil",
    "iso2": "BR",
    "iso3": "BRA",
    "admin_name": "São Paulo",
    "capital": "",
    "population": "229548",
    "id": "1076098590"
  },
  {
    "city": "Rondonópolis",
    "city_ascii": "Rondonopolis",
    "lat": "-16.4667",
    "lng": "-54.6333",
    "country": "Brazil",
    "iso2": "BR",
    "iso3": "BRA",
    "admin_name": "Mato Grosso",
    "capital": "",
    "population": "228857",
    "id": "1076627175"
  },
  {
    "city": "Magé",
    "city_ascii": "Mage",
    "lat": "-22.6528",
    "lng": "-43.0408",
    "country": "Brazil",
    "iso2": "BR",
    "iso3": "BRA",
    "admin_name": "Rio de Janeiro",
    "capital": "",
    "population": "227322",
    "id": "1076385139"
  },
  {
    "city": "Araraquara",
    "city_ascii": "Araraquara",
    "lat": "-21.7939",
    "lng": "-48.1758",
    "country": "Brazil",
    "iso2": "BR",
    "iso3": "BRA",
    "admin_name": "São Paulo",
    "capital": "",
    "population": "226508",
    "id": "1076251019"
  },
  {
    "city": "Itapevi",
    "city_ascii": "Itapevi",
    "lat": "-23.5489",
    "lng": "-46.9342",
    "country": "Brazil",
    "iso2": "BR",
    "iso3": "BRA",
    "admin_name": "São Paulo",
    "capital": "",
    "population": "223404",
    "id": "1076008789"
  },
  {
    "city": "Chapecó",
    "city_ascii": "Chapeco",
    "lat": "-27.0958",
    "lng": "-52.6178",
    "country": "Brazil",
    "iso2": "BR",
    "iso3": "BRA",
    "admin_name": "Santa Catarina",
    "capital": "",
    "population": "224013",
    "id": "1076258255"
  },
  {
    "city": "Presidente Prudente",
    "city_ascii": "Presidente Prudente",
    "lat": "-22.1256",
    "lng": "-51.3889",
    "country": "Brazil",
    "iso2": "BR",
    "iso3": "BRA",
    "admin_name": "São Paulo",
    "capital": "",
    "population": "222192",
    "id": "1076239965"
  },
  {
    "city": "Santa Luzia",
    "city_ascii": "Santa Luzia",
    "lat": "-19.7700",
    "lng": "-43.8506",
    "country": "Brazil",
    "iso2": "BR",
    "iso3": "BRA",
    "admin_name": "Minas Gerais",
    "capital": "",
    "population": "220444",
    "id": "1076123204"
  },
  {
    "city": "Juazeiro",
    "city_ascii": "Juazeiro",
    "lat": "-9.4306",
    "lng": "-40.5028",
    "country": "Brazil",
    "iso2": "BR",
    "iso3": "BRA",
    "admin_name": "Bahia",
    "capital": "",
    "population": "220253",
    "id": "1076632040"
  },
  {
    "city": "Itabuna",
    "city_ascii": "Itabuna",
    "lat": "-14.7858",
    "lng": "-39.2800",
    "country": "Brazil",
    "iso2": "BR",
    "iso3": "BRA",
    "admin_name": "Bahia",
    "capital": "",
    "population": "219680",
    "id": "1076003792"
  },
  {
    "city": "Hortolândia",
    "city_ascii": "Hortolandia",
    "lat": "-22.8583",
    "lng": "-47.2200",
    "country": "Brazil",
    "iso2": "BR",
    "iso3": "BRA",
    "admin_name": "São Paulo",
    "capital": "",
    "population": "215819",
    "id": "1076591779"
  },
  {
    "city": "Itaboraí",
    "city_ascii": "Itaborai",
    "lat": "-22.7439",
    "lng": "-42.8589",
    "country": "Brazil",
    "iso2": "BR",
    "iso3": "BRA",
    "admin_name": "Rio de Janeiro",
    "capital": "",
    "population": "218008",
    "id": "1076964860"
  },
  {
    "city": "São Leopoldo",
    "city_ascii": "Sao Leopoldo",
    "lat": "-29.7600",
    "lng": "-51.1469",
    "country": "Brazil",
    "iso2": "BR",
    "iso3": "BRA",
    "admin_name": "Rio Grande do Sul",
    "capital": "",
    "population": "214087",
    "id": "1076834293"
  },
  {
    "city": "Sete Lagoas",
    "city_ascii": "Sete Lagoas",
    "lat": "-19.4658",
    "lng": "-44.2469",
    "country": "Brazil",
    "iso2": "BR",
    "iso3": "BRA",
    "admin_name": "Minas Gerais",
    "capital": "",
    "population": "214152",
    "id": "1076863850"
  },
  {
    "city": "Divinópolis",
    "city_ascii": "Divinopolis",
    "lat": "-20.1389",
    "lng": "-44.8839",
    "country": "Brazil",
    "iso2": "BR",
    "iso3": "BRA",
    "admin_name": "Minas Gerais",
    "capital": "",
    "population": "213016",
    "id": "1076716552"
  },
  {
    "city": "Colombo",
    "city_ascii": "Colombo",
    "lat": "-25.2919",
    "lng": "-49.2239",
    "country": "Brazil",
    "iso2": "BR",
    "iso3": "BRA",
    "admin_name": "Paraná",
    "capital": "",
    "population": "212967",
    "id": "1076976439"
  },
  {
    "city": "Criciúma",
    "city_ascii": "Criciuma",
    "lat": "-28.6775",
    "lng": "-49.3697",
    "country": "Brazil",
    "iso2": "BR",
    "iso3": "BRA",
    "admin_name": "Santa Catarina",
    "capital": "",
    "population": "211369",
    "id": "1076000206"
  },
  {
    "city": "Maracanaú",
    "city_ascii": "Maracanau",
    "lat": "-3.8667",
    "lng": "-38.6333",
    "country": "Brazil",
    "iso2": "BR",
    "iso3": "BRA",
    "admin_name": "Ceará",
    "capital": "",
    "population": "209057",
    "id": "1076848743"
  },
  {
    "city": "Santo Agostinho",
    "city_ascii": "Santo Agostinho",
    "lat": "-8.2897",
    "lng": "-35.0300",
    "country": "Brazil",
    "iso2": "BR",
    "iso3": "BRA",
    "admin_name": "Pernambuco",
    "capital": "",
    "population": "208944",
    "id": "1076363089"
  },
  {
    "city": "Passo Fundo",
    "city_ascii": "Passo Fundo",
    "lat": "-28.2500",
    "lng": "-52.4000",
    "country": "Brazil",
    "iso2": "BR",
    "iso3": "BRA",
    "admin_name": "Rio Grande do Sul",
    "capital": "",
    "population": "204722",
    "id": "1076763340"
  },
  {
    "city": "Parnamirim",
    "city_ascii": "Parnamirim",
    "lat": "-5.9167",
    "lng": "-35.2500",
    "country": "Brazil",
    "iso2": "BR",
    "iso3": "BRA",
    "admin_name": "Rio Grande do Norte",
    "capital": "",
    "population": "202456",
    "id": "1076600360"
  },
  {
    "city": "Rio Claro",
    "city_ascii": "Rio Claro",
    "lat": "-22.4108",
    "lng": "-47.5608",
    "country": "Brazil",
    "iso2": "BR",
    "iso3": "BRA",
    "admin_name": "São Paulo",
    "capital": "",
    "population": "199961",
    "id": "1076411428"
  },
  {
    "city": "Alvorada",
    "city_ascii": "Alvorada",
    "lat": "-29.9897",
    "lng": "-51.0833",
    "country": "Brazil",
    "iso2": "BR",
    "iso3": "BRA",
    "admin_name": "Rio Grande do Sul",
    "capital": "",
    "population": "195673",
    "id": "1076999998"
  },
  {
    "city": "Araçatuba",
    "city_ascii": "Aracatuba",
    "lat": "-21.2089",
    "lng": "-50.4328",
    "country": "Brazil",
    "iso2": "BR",
    "iso3": "BRA",
    "admin_name": "São Paulo",
    "capital": "",
    "population": "198129",
    "id": "1076630308"
  },
  {
    "city": "Rio Grande",
    "city_ascii": "Rio Grande",
    "lat": "-32.0350",
    "lng": "-52.0986",
    "country": "Brazil",
    "iso2": "BR",
    "iso3": "BRA",
    "admin_name": "Rio Grande do Sul",
    "capital": "",
    "population": "197228",
    "id": "1076567920"
  },
  {
    "city": "Castanhal",
    "city_ascii": "Castanhal",
    "lat": "-1.2969",
    "lng": "-47.9219",
    "country": "Brazil",
    "iso2": "BR",
    "iso3": "BRA",
    "admin_name": "Pará",
    "capital": "",
    "population": "192571",
    "id": "1076216938"
  },
  {
    "city": "Ferraz de Vasconcelos",
    "city_ascii": "Ferraz de Vasconcelos",
    "lat": "-23.5411",
    "lng": "-46.3689",
    "country": "Brazil",
    "iso2": "BR",
    "iso3": "BRA",
    "admin_name": "São Paulo",
    "capital": "",
    "population": "184700",
    "id": "1076173995"
  },
  {
    "city": "Santa Bárbara d’Oeste",
    "city_ascii": "Santa Barbara d'Oeste",
    "lat": "-22.7544",
    "lng": "-47.4142",
    "country": "Brazil",
    "iso2": "BR",
    "iso3": "BRA",
    "admin_name": "São Paulo",
    "capital": "",
    "population": "190139",
    "id": "1076199404"
  },
  {
    "city": "Cachoeiro de Itapemirim",
    "city_ascii": "Cachoeiro de Itapemirim",
    "lat": "-20.8489",
    "lng": "-41.1128",
    "country": "Brazil",
    "iso2": "BR",
    "iso3": "BRA",
    "admin_name": "Espírito Santo",
    "capital": "",
    "population": "189889",
    "id": "1076536175"
  },
  {
    "city": "Angra dos Reis",
    "city_ascii": "Angra dos Reis",
    "lat": "-23.0067",
    "lng": "-44.3181",
    "country": "Brazil",
    "iso2": "BR",
    "iso3": "BRA",
    "admin_name": "Rio de Janeiro",
    "capital": "",
    "population": "188276",
    "id": "1076039737"
  },
  {
    "city": "Sobral",
    "city_ascii": "Sobral",
    "lat": "-3.6739",
    "lng": "-40.2389",
    "country": "Brazil",
    "iso2": "BR",
    "iso3": "BRA",
    "admin_name": "Ceará",
    "capital": "",
    "population": "188233",
    "id": "1076577102"
  },
  {
    "city": "Cabo Frio",
    "city_ascii": "Cabo Frio",
    "lat": "-22.8789",
    "lng": "-42.0189",
    "country": "Brazil",
    "iso2": "BR",
    "iso3": "BRA",
    "admin_name": "Rio de Janeiro",
    "capital": "",
    "population": "186227",
    "id": "1076449553"
  },
  {
    "city": "Nossa Senhora do Socorro",
    "city_ascii": "Nossa Senhora do Socorro",
    "lat": "-10.8550",
    "lng": "-37.0592",
    "country": "Brazil",
    "iso2": "BR",
    "iso3": "BRA",
    "admin_name": "Sergipe",
    "capital": "",
    "population": "185706",
    "id": "1076881156"
  },
  {
    "city": "Itajaí",
    "city_ascii": "Itajai",
    "lat": "-26.9000",
    "lng": "-48.6667",
    "country": "Brazil",
    "iso2": "BR",
    "iso3": "BRA",
    "admin_name": "Santa Catarina",
    "capital": "",
    "population": "183373",
    "id": "1076348188"
  },
  {
    "city": "Dourados",
    "city_ascii": "Dourados",
    "lat": "-22.2208",
    "lng": "-54.8058",
    "country": "Brazil",
    "iso2": "BR",
    "iso3": "BRA",
    "admin_name": "Mato Grosso do Sul",
    "capital": "",
    "population": "182747",
    "id": "1076544482"
  },
  {
    "city": "Nova Friburgo",
    "city_ascii": "Nova Friburgo",
    "lat": "-22.2819",
    "lng": "-42.5311",
    "country": "Brazil",
    "iso2": "BR",
    "iso3": "BRA",
    "admin_name": "Rio de Janeiro",
    "capital": "",
    "population": "182082",
    "id": "1076922983"
  },
  {
    "city": "Ilhéus",
    "city_ascii": "Ilheus",
    "lat": "-14.7889",
    "lng": "-39.0489",
    "country": "Brazil",
    "iso2": "BR",
    "iso3": "BRA",
    "admin_name": "Bahia",
    "capital": "",
    "population": "180213",
    "id": "1076021121"
  },
  {
    "city": "Barra Mansa",
    "city_ascii": "Barra Mansa",
    "lat": "-22.5439",
    "lng": "-44.1708",
    "country": "Brazil",
    "iso2": "BR",
    "iso3": "BRA",
    "admin_name": "Rio de Janeiro",
    "capital": "",
    "population": "179915",
    "id": "1076686083"
  },
  {
    "city": "Linhares",
    "city_ascii": "Linhares",
    "lat": "-19.3894",
    "lng": "-40.0678",
    "country": "Brazil",
    "iso2": "BR",
    "iso3": "BRA",
    "admin_name": "Espírito Santo",
    "capital": "",
    "population": "176688",
    "id": "1076355611"
  },
  {
    "city": "Rio Verde",
    "city_ascii": "Rio Verde",
    "lat": "-17.7450",
    "lng": "-50.9167",
    "country": "Brazil",
    "iso2": "BR",
    "iso3": "BRA",
    "admin_name": "Goiás",
    "capital": "",
    "population": "176424",
    "id": "1076844683"
  },
  {
    "city": "Luziânia",
    "city_ascii": "Luziania",
    "lat": "-16.2528",
    "lng": "-47.9500",
    "country": "Brazil",
    "iso2": "BR",
    "iso3": "BRA",
    "admin_name": "Goiás",
    "capital": "",
    "population": "174531",
    "id": "1076073549"
  },
  {
    "city": "São Caetano do Sul",
    "city_ascii": "Sao Caetano do Sul",
    "lat": "-23.7000",
    "lng": "-46.5500",
    "country": "Brazil",
    "iso2": "BR",
    "iso3": "BRA",
    "admin_name": "São Paulo",
    "capital": "",
    "population": "161957",
    "id": "1076527920"
  },
  {
    "city": "Francisco Morato",
    "city_ascii": "Francisco Morato",
    "lat": "-23.2817",
    "lng": "-46.7425",
    "country": "Brazil",
    "iso2": "BR",
    "iso3": "BRA",
    "admin_name": "São Paulo",
    "capital": "",
    "population": "168243",
    "id": "1076808330"
  },
  {
    "city": "Itapecerica da Serra",
    "city_ascii": "Itapecerica da Serra",
    "lat": "-23.7172",
    "lng": "-46.8494",
    "country": "Brazil",
    "iso2": "BR",
    "iso3": "BRA",
    "admin_name": "São Paulo",
    "capital": "",
    "population": "167236",
    "id": "1076163359"
  },
  {
    "city": "Guarapuava",
    "city_ascii": "Guarapuava",
    "lat": "-25.3833",
    "lng": "-51.4500",
    "country": "Brazil",
    "iso2": "BR",
    "iso3": "BRA",
    "admin_name": "Paraná",
    "capital": "",
    "population": "167328",
    "id": "1076415327"
  },
  {
    "city": "Itu",
    "city_ascii": "Itu",
    "lat": "-23.2642",
    "lng": "-47.2992",
    "country": "Brazil",
    "iso2": "BR",
    "iso3": "BRA",
    "admin_name": "São Paulo",
    "capital": "",
    "population": "167095",
    "id": "1076622789"
  },
  {
    "city": "Teresópolis",
    "city_ascii": "Teresopolis",
    "lat": "-22.4119",
    "lng": "-42.9658",
    "country": "Brazil",
    "iso2": "BR",
    "iso3": "BRA",
    "admin_name": "Rio de Janeiro",
    "capital": "",
    "population": "163746",
    "id": "1076000296"
  },
  {
    "city": "São José de Ribamar",
    "city_ascii": "Sao Jose de Ribamar",
    "lat": "-2.5500",
    "lng": "-44.0500",
    "country": "Brazil",
    "iso2": "BR",
    "iso3": "BRA",
    "admin_name": "Maranhão",
    "capital": "",
    "population": "163045",
    "id": "1076976057"
  },
  {
    "city": "Jequié",
    "city_ascii": "Jequie",
    "lat": "-13.8630",
    "lng": "-40.0843",
    "country": "Brazil",
    "iso2": "BR",
    "iso3": "BRA",
    "admin_name": "Bahia",
    "capital": "",
    "population": "161528",
    "id": "1076558785"
  },
  {
    "city": "Ibirité",
    "city_ascii": "Ibirite",
    "lat": "-20.0219",
    "lng": "-44.0589",
    "country": "Brazil",
    "iso2": "BR",
    "iso3": "BRA",
    "admin_name": "Minas Gerais",
    "capital": "",
    "population": "158954",
    "id": "1076368194"
  },
  {
    "city": "Bragança Paulista",
    "city_ascii": "Braganca Paulista",
    "lat": "-22.9531",
    "lng": "-46.5422",
    "country": "Brazil",
    "iso2": "BR",
    "iso3": "BRA",
    "admin_name": "São Paulo",
    "capital": "",
    "population": "160665",
    "id": "1076245528"
  },
  {
    "city": "Pindamonhangaba",
    "city_ascii": "Pindamonhangaba",
    "lat": "-22.9239",
    "lng": "-45.4617",
    "country": "Brazil",
    "iso2": "BR",
    "iso3": "BRA",
    "admin_name": "São Paulo",
    "capital": "",
    "population": "160614",
    "id": "1076937468"
  },
  {
    "city": "Teixeira de Freitas",
    "city_ascii": "Teixeira de Freitas",
    "lat": "-17.5403",
    "lng": "-39.7437",
    "country": "Brazil",
    "iso2": "BR",
    "iso3": "BRA",
    "admin_name": "Bahia",
    "capital": "",
    "population": "157804",
    "id": "1076918835"
  },
  {
    "city": "Camarajibe",
    "city_ascii": "Camarajibe",
    "lat": "-8.0219",
    "lng": "-34.9808",
    "country": "Brazil",
    "iso2": "BR",
    "iso3": "BRA",
    "admin_name": "Pernambuco",
    "capital": "",
    "population": "155054",
    "id": "1076738662"
  },
  {
    "city": "Itapetininga",
    "city_ascii": "Itapetininga",
    "lat": "-23.5917",
    "lng": "-48.0531",
    "country": "Brazil",
    "iso2": "BR",
    "iso3": "BRA",
    "admin_name": "São Paulo",
    "capital": "",
    "population": "157016",
    "id": "1076425970"
  },
  {
    "city": "Lajes",
    "city_ascii": "Lajes",
    "lat": "-27.8158",
    "lng": "-50.3258",
    "country": "Brazil",
    "iso2": "BR",
    "iso3": "BRA",
    "admin_name": "Santa Catarina",
    "capital": "",
    "population": "156727",
    "id": "1076517475"
  },
  {
    "city": "Timon",
    "city_ascii": "Timon",
    "lat": "-5.0939",
    "lng": "-42.8369",
    "country": "Brazil",
    "iso2": "BR",
    "iso3": "BRA",
    "admin_name": "Maranhão",
    "capital": "",
    "population": "155460",
    "id": "1076758286"
  },
  {
    "city": "Caxias",
    "city_ascii": "Caxias",
    "lat": "-4.8589",
    "lng": "-43.3558",
    "country": "Brazil",
    "iso2": "BR",
    "iso3": "BRA",
    "admin_name": "Maranhão",
    "capital": "",
    "population": "155129",
    "id": "1076325693"
  },
  {
    "city": "Alagoinhas",
    "city_ascii": "Alagoinhas",
    "lat": "-12.1358",
    "lng": "-38.4189",
    "country": "Brazil",
    "iso2": "BR",
    "iso3": "BRA",
    "admin_name": "Bahia",
    "capital": "",
    "population": "154495",
    "id": "1076155953"
  },
  {
    "city": "Barreiras",
    "city_ascii": "Barreiras",
    "lat": "-12.1483",
    "lng": "-44.9925",
    "country": "Brazil",
    "iso2": "BR",
    "iso3": "BRA",
    "admin_name": "Bahia",
    "capital": "",
    "population": "153918",
    "id": "1076854674"
  },
  {
    "city": "Poços de Caldas",
    "city_ascii": "Pocos de Caldas",
    "lat": "-21.7878",
    "lng": "-46.5608",
    "country": "Brazil",
    "iso2": "BR",
    "iso3": "BRA",
    "admin_name": "Minas Gerais",
    "capital": "",
    "population": "152435",
    "id": "1076336113"
  },
  {
    "city": "Abaetetuba",
    "city_ascii": "Abaetetuba",
    "lat": "-1.7178",
    "lng": "-48.8828",
    "country": "Brazil",
    "iso2": "BR",
    "iso3": "BRA",
    "admin_name": "Pará",
    "capital": "",
    "population": "151934",
    "id": "1076974632"
  },
  {
    "city": "Patos de Minas",
    "city_ascii": "Patos de Minas",
    "lat": "-18.5817",
    "lng": "-46.5147",
    "country": "Brazil",
    "iso2": "BR",
    "iso3": "BRA",
    "admin_name": "Minas Gerais",
    "capital": "",
    "population": "150833",
    "id": "1076100026"
  },
  {
    "city": "Pôrto Seguro",
    "city_ascii": "Porto Seguro",
    "lat": "-16.4333",
    "lng": "-39.0833",
    "country": "Brazil",
    "iso2": "BR",
    "iso3": "BRA",
    "admin_name": "Bahia",
    "capital": "",
    "population": "150658",
    "id": "1076932180"
  },
  {
    "city": "Araguaína",
    "city_ascii": "Araguaina",
    "lat": "-7.1908",
    "lng": "-48.2069",
    "country": "Brazil",
    "iso2": "BR",
    "iso3": "BRA",
    "admin_name": "Tocantins",
    "capital": "",
    "population": "150484",
    "id": "1076632868"
  },
  {
    "city": "Mogi Guaçu",
    "city_ascii": "Mogi Guacu",
    "lat": "-22.3719",
    "lng": "-46.9419",
    "country": "Brazil",
    "iso2": "BR",
    "iso3": "BRA",
    "admin_name": "São Paulo",
    "capital": "",
    "population": "147233",
    "id": "1076749992"
  },
  {
    "city": "Franco da Rocha",
    "city_ascii": "Franco da Rocha",
    "lat": "-23.3286",
    "lng": "-46.7244",
    "country": "Brazil",
    "iso2": "BR",
    "iso3": "BRA",
    "admin_name": "São Paulo",
    "capital": "",
    "population": "145755",
    "id": "1076071582"
  },
  {
    "city": "Parnaíba",
    "city_ascii": "Parnaiba",
    "lat": "-2.9050",
    "lng": "-41.7769",
    "country": "Brazil",
    "iso2": "BR",
    "iso3": "BRA",
    "admin_name": "Piauí",
    "capital": "",
    "population": "145705",
    "id": "1076568871"
  },
  {
    "city": "Jaú",
    "city_ascii": "Jau",
    "lat": "-22.2958",
    "lng": "-48.5578",
    "country": "Brazil",
    "iso2": "BR",
    "iso3": "BRA",
    "admin_name": "São Paulo",
    "capital": "",
    "population": "143283",
    "id": "1076312559"
  },
  {
    "city": "Jaraguá do Sul",
    "city_ascii": "Jaragua do Sul",
    "lat": "-26.4833",
    "lng": "-49.0667",
    "country": "Brazil",
    "iso2": "BR",
    "iso3": "BRA",
    "admin_name": "Santa Catarina",
    "capital": "",
    "population": "143123",
    "id": "1076588128"
  },
  {
    "city": "Rio das Ostras",
    "city_ascii": "Rio das Ostras",
    "lat": "-22.5269",
    "lng": "-41.9450",
    "country": "Brazil",
    "iso2": "BR",
    "iso3": "BRA",
    "admin_name": "Rio de Janeiro",
    "capital": "",
    "population": "141117",
    "id": "1076148122"
  },
  {
    "city": "Paranaguá",
    "city_ascii": "Paranagua",
    "lat": "-25.5208",
    "lng": "-48.5094",
    "country": "Brazil",
    "iso2": "BR",
    "iso3": "BRA",
    "admin_name": "Paraná",
    "capital": "",
    "population": "140469",
    "id": "1076265266"
  },
  {
    "city": "Botucatu",
    "city_ascii": "Botucatu",
    "lat": "-22.8858",
    "lng": "-48.4450",
    "country": "Brazil",
    "iso2": "BR",
    "iso3": "BRA",
    "admin_name": "São Paulo",
    "capital": "",
    "population": "139483",
    "id": "1076113865"
  },
  {
    "city": "Brusque",
    "city_ascii": "Brusque",
    "lat": "-27.0949",
    "lng": "-48.9148",
    "country": "Brazil",
    "iso2": "BR",
    "iso3": "BRA",
    "admin_name": "Santa Catarina",
    "capital": "",
    "population": "137689",
    "id": "1076418225"
  },
  {
    "city": "Palhoça",
    "city_ascii": "Palhoca",
    "lat": "-27.6444",
    "lng": "-48.6678",
    "country": "Brazil",
    "iso2": "BR",
    "iso3": "BRA",
    "admin_name": "Santa Catarina",
    "capital": "",
    "population": "137334",
    "id": "1076000559"
  },
  {
    "city": "Atibaia",
    "city_ascii": "Atibaia",
    "lat": "-23.1172",
    "lng": "-46.5506",
    "country": "Brazil",
    "iso2": "BR",
    "iso3": "BRA",
    "admin_name": "São Paulo",
    "capital": "",
    "population": "137187",
    "id": "1076042485"
  },
  {
    "city": "Garanhuns",
    "city_ascii": "Garanhuns",
    "lat": "-8.8903",
    "lng": "-36.4928",
    "country": "Brazil",
    "iso2": "BR",
    "iso3": "BRA",
    "admin_name": "Pernambuco",
    "capital": "",
    "population": "136949",
    "id": "1076673653"
  },
  {
    "city": "Santa Rita",
    "city_ascii": "Santa Rita",
    "lat": "-7.1139",
    "lng": "-34.9778",
    "country": "Brazil",
    "iso2": "BR",
    "iso3": "BRA",
    "admin_name": "Paraíba",
    "capital": "",
    "population": "134940",
    "id": "1076661082"
  },
  {
    "city": "Teófilo Otoni",
    "city_ascii": "Teofilo Otoni",
    "lat": "-17.8578",
    "lng": "-41.5050",
    "country": "Brazil",
    "iso2": "BR",
    "iso3": "BRA",
    "admin_name": "Minas Gerais",
    "capital": "",
    "population": "134745",
    "id": "1076465745"
  },
  {
    "city": "Marituba",
    "city_ascii": "Marituba",
    "lat": "-10.2833",
    "lng": "-36.4000",
    "country": "Brazil",
    "iso2": "BR",
    "iso3": "BRA",
    "admin_name": "Alagoas",
    "capital": "",
    "population": "133685",
    "id": "1076858443"
  },
  {
    "city": "Jandira",
    "city_ascii": "Jandira",
    "lat": "-23.5278",
    "lng": "-46.9028",
    "country": "Brazil",
    "iso2": "BR",
    "iso3": "BRA",
    "admin_name": "São Paulo",
    "capital": "",
    "population": "126356",
    "id": "1076873964"
  },
  {
    "city": "Crato",
    "city_ascii": "Crato",
    "lat": "-7.2339",
    "lng": "-39.4089",
    "country": "Brazil",
    "iso2": "BR",
    "iso3": "BRA",
    "admin_name": "Ceará",
    "capital": "",
    "population": "133031",
    "id": "1076894967"
  },
  {
    "city": "Sinop",
    "city_ascii": "Sinop",
    "lat": "-11.8481",
    "lng": "-55.6492",
    "country": "Brazil",
    "iso2": "BR",
    "iso3": "BRA",
    "admin_name": "Mato Grosso",
    "capital": "",
    "population": "132934",
    "id": "1076876295"
  },
  {
    "city": "Cametá",
    "city_ascii": "Cameta",
    "lat": "-2.2439",
    "lng": "-49.4958",
    "country": "Brazil",
    "iso2": "BR",
    "iso3": "BRA",
    "admin_name": "Pará",
    "capital": "",
    "population": "132515",
    "id": "1076010069"
  },
  {
    "city": "Cubatão",
    "city_ascii": "Cubatao",
    "lat": "-23.8953",
    "lng": "-46.4256",
    "country": "Brazil",
    "iso2": "BR",
    "iso3": "BRA",
    "admin_name": "São Paulo",
    "capital": "",
    "population": "131626",
    "id": "1076384228"
  },
  {
    "city": "Ji-Paraná",
    "city_ascii": "Ji-Parana",
    "lat": "-10.8853",
    "lng": "-61.9517",
    "country": "Brazil",
    "iso2": "BR",
    "iso3": "BRA",
    "admin_name": "Rondônia",
    "capital": "",
    "population": "131560",
    "id": "1076313540"
  },
  {
    "city": "Pouso Alegre",
    "city_ascii": "Pouso Alegre",
    "lat": "-22.2281",
    "lng": "-45.9336",
    "country": "Brazil",
    "iso2": "BR",
    "iso3": "BRA",
    "admin_name": "Minas Gerais",
    "capital": "",
    "population": "130615",
    "id": "1076082333"
  },
  {
    "city": "Vitória de Santo Antão",
    "city_ascii": "Vitoria de Santo Antao",
    "lat": "-8.1264",
    "lng": "-35.3075",
    "country": "Brazil",
    "iso2": "BR",
    "iso3": "BRA",
    "admin_name": "Pernambuco",
    "capital": "",
    "population": "129974",
    "id": "1076843224"
  },
  {
    "city": "Araras",
    "city_ascii": "Araras",
    "lat": "-22.3572",
    "lng": "-47.3844",
    "country": "Brazil",
    "iso2": "BR",
    "iso3": "BRA",
    "admin_name": "São Paulo",
    "capital": "",
    "population": "128895",
    "id": "1076656148"
  },
  {
    "city": "Maricá",
    "city_ascii": "Marica",
    "lat": "-22.9189",
    "lng": "-42.8189",
    "country": "Brazil",
    "iso2": "BR",
    "iso3": "BRA",
    "admin_name": "Rio de Janeiro",
    "capital": "",
    "population": "127461",
    "id": "1076927018"
  },
  {
    "city": "Balneário de Camboriú",
    "city_ascii": "Balneario de Camboriu",
    "lat": "-26.9953",
    "lng": "-48.6356",
    "country": "Brazil",
    "iso2": "BR",
    "iso3": "BRA",
    "admin_name": "Santa Catarina",
    "capital": "",
    "population": "124557",
    "id": "1076385564"
  },
  {
    "city": "Santana de Parnaíba",
    "city_ascii": "Santana de Parnaiba",
    "lat": "-23.4439",
    "lng": "-46.9178",
    "country": "Brazil",
    "iso2": "BR",
    "iso3": "BRA",
    "admin_name": "São Paulo",
    "capital": "",
    "population": "126574",
    "id": "1076401391"
  },
  {
    "city": "Sabará",
    "city_ascii": "Sabara",
    "lat": "-19.8858",
    "lng": "-43.8069",
    "country": "Brazil",
    "iso2": "BR",
    "iso3": "BRA",
    "admin_name": "Minas Gerais",
    "capital": "",
    "population": "126269",
    "id": "1076006379"
  },
  {
    "city": "Barbacena",
    "city_ascii": "Barbacena",
    "lat": "-21.2167",
    "lng": "-43.7667",
    "country": "Brazil",
    "iso2": "BR",
    "iso3": "BRA",
    "admin_name": "Minas Gerais",
    "capital": "",
    "population": "126284",
    "id": "1076877003"
  },
  {
    "city": "Uruguaiana",
    "city_ascii": "Uruguaiana",
    "lat": "-29.7550",
    "lng": "-57.0878",
    "country": "Brazil",
    "iso2": "BR",
    "iso3": "BRA",
    "admin_name": "Rio Grande do Sul",
    "capital": "",
    "population": "125435",
    "id": "1076680267"
  },
  {
    "city": "Resende",
    "city_ascii": "Resende",
    "lat": "-22.4689",
    "lng": "-44.4469",
    "country": "Brazil",
    "iso2": "BR",
    "iso3": "BRA",
    "admin_name": "Rio de Janeiro",
    "capital": "",
    "population": "125214",
    "id": "1076678781"
  },
  {
    "city": "Varginha",
    "city_ascii": "Varginha",
    "lat": "-21.5517",
    "lng": "-45.4300",
    "country": "Brazil",
    "iso2": "BR",
    "iso3": "BRA",
    "admin_name": "Minas Gerais",
    "capital": "",
    "population": "123081",
    "id": "1076731794"
  },
  {
    "city": "Santana",
    "city_ascii": "Santana",
    "lat": "-0.0350",
    "lng": "-51.1750",
    "country": "Brazil",
    "iso2": "BR",
    "iso3": "BRA",
    "admin_name": "Amapá",
    "capital": "",
    "population": "123096",
    "id": "1076974952"
  },
  {
    "city": "Itatiba",
    "city_ascii": "Itatiba",
    "lat": "-23.0058",
    "lng": "-46.8389",
    "country": "Brazil",
    "iso2": "BR",
    "iso3": "BRA",
    "admin_name": "São Paulo",
    "capital": "",
    "population": "122581",
    "id": "1076747401"
  },
  {
    "city": "Bragança",
    "city_ascii": "Braganca",
    "lat": "-1.0628",
    "lng": "-46.7728",
    "country": "Brazil",
    "iso2": "BR",
    "iso3": "BRA",
    "admin_name": "Pará",
    "capital": "",
    "population": "122881",
    "id": "1076855072"
  },
  {
    "city": "Barretos",
    "city_ascii": "Barretos",
    "lat": "-20.5569",
    "lng": "-48.5678",
    "country": "Brazil",
    "iso2": "BR",
    "iso3": "BRA",
    "admin_name": "São Paulo",
    "capital": "",
    "population": "122833",
    "id": "1076042195"
  },
  {
    "city": "Bento Gonçalves",
    "city_ascii": "Bento Goncalves",
    "lat": "-29.1708",
    "lng": "-51.5189",
    "country": "Brazil",
    "iso2": "BR",
    "iso3": "BRA",
    "admin_name": "Rio Grande do Sul",
    "capital": "",
    "population": "121803",
    "id": "1076492877"
  },
  {
    "city": "Guarapari",
    "city_ascii": "Guarapari",
    "lat": "-20.6500",
    "lng": "-40.5000",
    "country": "Brazil",
    "iso2": "BR",
    "iso3": "BRA",
    "admin_name": "Espírito Santo",
    "capital": "",
    "population": "121506",
    "id": "1076076726"
  },
  {
    "city": "Ribeirão Pires",
    "city_ascii": "Ribeirao Pires",
    "lat": "-23.7153",
    "lng": "-46.4194",
    "country": "Brazil",
    "iso2": "BR",
    "iso3": "BRA",
    "admin_name": "São Paulo",
    "capital": "",
    "population": "120396",
    "id": "1076050419"
  },
  {
    "city": "Apucarana",
    "city_ascii": "Apucarana",
    "lat": "-23.5508",
    "lng": "-51.4608",
    "country": "Brazil",
    "iso2": "BR",
    "iso3": "BRA",
    "admin_name": "Paraná",
    "capital": "",
    "population": "120919",
    "id": "1076256387"
  },
  {
    "city": "Valinhos",
    "city_ascii": "Valinhos",
    "lat": "-22.9706",
    "lng": "-46.9958",
    "country": "Brazil",
    "iso2": "BR",
    "iso3": "BRA",
    "admin_name": "São Paulo",
    "capital": "minor",
    "population": "120258",
    "id": "1076809155"
  },
  {
    "city": "Cachoeirinha",
    "city_ascii": "Cachoeirinha",
    "lat": "-29.9508",
    "lng": "-51.0939",
    "country": "Brazil",
    "iso2": "BR",
    "iso3": "BRA",
    "admin_name": "Rio Grande do Sul",
    "capital": "",
    "population": "118278",
    "id": "1076573967"
  },
  {
    "city": "Sertãozinho",
    "city_ascii": "Sertaozinho",
    "lat": "-21.1381",
    "lng": "-47.9906",
    "country": "Brazil",
    "iso2": "BR",
    "iso3": "BRA",
    "admin_name": "São Paulo",
    "capital": "",
    "population": "120152",
    "id": "1076989194"
  },
  {
    "city": "Poá",
    "city_ascii": "Poa",
    "lat": "-23.5286",
    "lng": "-46.3450",
    "country": "Brazil",
    "iso2": "BR",
    "iso3": "BRA",
    "admin_name": "São Paulo",
    "capital": "",
    "population": "113793",
    "id": "1076905631"
  },
  {
    "city": "Várzea Paulista",
    "city_ascii": "Varzea Paulista",
    "lat": "-23.2114",
    "lng": "-46.8283",
    "country": "Brazil",
    "iso2": "BR",
    "iso3": "BRA",
    "admin_name": "São Paulo",
    "capital": "",
    "population": "116601",
    "id": "1076046083"
  },
  {
    "city": "Catanduva",
    "city_ascii": "Catanduva",
    "lat": "-21.1378",
    "lng": "-48.9728",
    "country": "Brazil",
    "iso2": "BR",
    "iso3": "BRA",
    "admin_name": "São Paulo",
    "capital": "",
    "population": "119480",
    "id": "1076772178"
  },
  {
    "city": "Toledo",
    "city_ascii": "Toledo",
    "lat": "-24.7139",
    "lng": "-53.7428",
    "country": "Brazil",
    "iso2": "BR",
    "iso3": "BRA",
    "admin_name": "Paraná",
    "capital": "",
    "population": "119313",
    "id": "1076312600"
  },
  {
    "city": "Araucária",
    "city_ascii": "Araucaria",
    "lat": "-25.5928",
    "lng": "-49.4100",
    "country": "Brazil",
    "iso2": "BR",
    "iso3": "BRA",
    "admin_name": "Paraná",
    "capital": "",
    "population": "119123",
    "id": "1076784908"
  },
  {
    "city": "Paulo Afonso",
    "city_ascii": "Paulo Afonso",
    "lat": "-9.4000",
    "lng": "-38.2250",
    "country": "Brazil",
    "iso2": "BR",
    "iso3": "BRA",
    "admin_name": "Bahia",
    "capital": "",
    "population": "119214",
    "id": "1076084498"
  },
  {
    "city": "Guaratinguetá",
    "city_ascii": "Guaratingueta",
    "lat": "-22.8167",
    "lng": "-45.2278",
    "country": "Brazil",
    "iso2": "BR",
    "iso3": "BRA",
    "admin_name": "São Paulo",
    "capital": "",
    "population": "119073",
    "id": "1076125544"
  },
  {
    "city": "Barcarena Nova",
    "city_ascii": "Barcarena Nova",
    "lat": "-1.5058",
    "lng": "-48.6258",
    "country": "Brazil",
    "iso2": "BR",
    "iso3": "BRA",
    "admin_name": "Pará",
    "capital": "",
    "population": "118537",
    "id": "1076791102"
  },
  {
    "city": "Birigui",
    "city_ascii": "Birigui",
    "lat": "-21.2886",
    "lng": "-50.3400",
    "country": "Brazil",
    "iso2": "BR",
    "iso3": "BRA",
    "admin_name": "São Paulo",
    "capital": "",
    "population": "118352",
    "id": "1076546798"
  },
  {
    "city": "Santa Cruz do Sul",
    "city_ascii": "Santa Cruz do Sul",
    "lat": "-29.7178",
    "lng": "-52.4258",
    "country": "Brazil",
    "iso2": "BR",
    "iso3": "BRA",
    "admin_name": "Rio Grande do Sul",
    "capital": "",
    "population": "118374",
    "id": "1076862896"
  },
  {
    "city": "Votorantim",
    "city_ascii": "Votorantim",
    "lat": "-23.5469",
    "lng": "-47.4378",
    "country": "Brazil",
    "iso2": "BR",
    "iso3": "BRA",
    "admin_name": "São Paulo",
    "capital": "",
    "population": "117794",
    "id": "1076604064"
  },
  {
    "city": "Codó",
    "city_ascii": "Codo",
    "lat": "-4.4550",
    "lng": "-43.8858",
    "country": "Brazil",
    "iso2": "BR",
    "iso3": "BRA",
    "admin_name": "Maranhão",
    "capital": "",
    "population": "118038",
    "id": "1076537068"
  },
  {
    "city": "Araguari",
    "city_ascii": "Araguari",
    "lat": "-18.6489",
    "lng": "-48.1869",
    "country": "Brazil",
    "iso2": "BR",
    "iso3": "BRA",
    "admin_name": "Minas Gerais",
    "capital": "",
    "population": "116871",
    "id": "1076402865"
  },
  {
    "city": "Tatuí",
    "city_ascii": "Tatui",
    "lat": "-23.3556",
    "lng": "-47.8569",
    "country": "Brazil",
    "iso2": "BR",
    "iso3": "BRA",
    "admin_name": "São Paulo",
    "capital": "",
    "population": "116682",
    "id": "1076587962"
  },
  {
    "city": "Conselheiro Lafaiete",
    "city_ascii": "Conselheiro Lafaiete",
    "lat": "-20.6600",
    "lng": "-43.7858",
    "country": "Brazil",
    "iso2": "BR",
    "iso3": "BRA",
    "admin_name": "Minas Gerais",
    "capital": "",
    "population": "116512",
    "id": "1076456009"
  },
  {
    "city": "Bagé",
    "city_ascii": "Bage",
    "lat": "-31.3308",
    "lng": "-54.1069",
    "country": "Brazil",
    "iso2": "BR",
    "iso3": "BRA",
    "admin_name": "Rio Grande do Sul",
    "capital": "",
    "population": "116794",
    "id": "1076515015"
  },
  {
    "city": "Itapipoca",
    "city_ascii": "Itapipoca",
    "lat": "-3.4939",
    "lng": "-39.5789",
    "country": "Brazil",
    "iso2": "BR",
    "iso3": "BRA",
    "admin_name": "Ceará",
    "capital": "",
    "population": "116065",
    "id": "1076980375"
  },
  {
    "city": "Três Lagoas",
    "city_ascii": "Tres Lagoas",
    "lat": "-20.7511",
    "lng": "-51.6783",
    "country": "Brazil",
    "iso2": "BR",
    "iso3": "BRA",
    "admin_name": "Mato Grosso do Sul",
    "capital": "",
    "population": "115561",
    "id": "1076281782"
  },
  {
    "city": "Salto",
    "city_ascii": "Salto",
    "lat": "-23.2008",
    "lng": "-47.2869",
    "country": "Brazil",
    "iso2": "BR",
    "iso3": "BRA",
    "admin_name": "São Paulo",
    "capital": "",
    "population": "114171",
    "id": "1076427264"
  },
  {
    "city": "Maranguape",
    "city_ascii": "Maranguape",
    "lat": "-3.8900",
    "lng": "-38.6858",
    "country": "Brazil",
    "iso2": "BR",
    "iso3": "BRA",
    "admin_name": "Ceará",
    "capital": "",
    "population": "113561",
    "id": "1076845536"
  },
  {
    "city": "Ubá",
    "city_ascii": "Uba",
    "lat": "-21.1200",
    "lng": "-42.9428",
    "country": "Brazil",
    "iso2": "BR",
    "iso3": "BRA",
    "admin_name": "Minas Gerais",
    "capital": "",
    "population": "113300",
    "id": "1076389529"
  },
  {
    "city": "Caraguatatuba",
    "city_ascii": "Caraguatatuba",
    "lat": "-23.6200",
    "lng": "-45.4128",
    "country": "Brazil",
    "iso2": "BR",
    "iso3": "BRA",
    "admin_name": "São Paulo",
    "capital": "",
    "population": "113317",
    "id": "1076107372"
  },
  {
    "city": "Euriápolis",
    "city_ascii": "Euriapolis",
    "lat": "-16.3778",
    "lng": "-39.5800",
    "country": "Brazil",
    "iso2": "BR",
    "iso3": "BRA",
    "admin_name": "Bahia",
    "capital": "",
    "population": "113191",
    "id": "1076770753"
  },
  {
    "city": "Campo Largo",
    "city_ascii": "Campo Largo",
    "lat": "-25.4589",
    "lng": "-49.5278",
    "country": "Brazil",
    "iso2": "BR",
    "iso3": "BRA",
    "admin_name": "Paraná",
    "capital": "",
    "population": "112377",
    "id": "1076072105"
  },
  {
    "city": "Araruama",
    "city_ascii": "Araruama",
    "lat": "-22.8728",
    "lng": "-42.3428",
    "country": "Brazil",
    "iso2": "BR",
    "iso3": "BRA",
    "admin_name": "Rio de Janeiro",
    "capital": "",
    "population": "112008",
    "id": "1076900900"
  },
  {
    "city": "Corumbá",
    "city_ascii": "Corumba",
    "lat": "-19.0089",
    "lng": "-57.6528",
    "country": "Brazil",
    "iso2": "BR",
    "iso3": "BRA",
    "admin_name": "Mato Grosso do Sul",
    "capital": "",
    "population": "112058",
    "id": "1076131775"
  },
  {
    "city": "Colatina",
    "city_ascii": "Colatina",
    "lat": "-19.5389",
    "lng": "-40.6308",
    "country": "Brazil",
    "iso2": "BR",
    "iso3": "BRA",
    "admin_name": "Espírito Santo",
    "capital": "",
    "population": "111788",
    "id": "1076751743"
  },
  {
    "city": "Parintins",
    "city_ascii": "Parintins",
    "lat": "-2.6278",
    "lng": "-56.7358",
    "country": "Brazil",
    "iso2": "BR",
    "iso3": "BRA",
    "admin_name": "Amazonas",
    "capital": "",
    "population": "111575",
    "id": "1076090375"
  },
  {
    "city": "Catalão",
    "city_ascii": "Catalao",
    "lat": "-18.1700",
    "lng": "-47.9419",
    "country": "Brazil",
    "iso2": "BR",
    "iso3": "BRA",
    "admin_name": "Goiás",
    "capital": "",
    "population": "110983",
    "id": "1076169871"
  },
  {
    "city": "Ourinhos",
    "city_ascii": "Ourinhos",
    "lat": "-22.9744",
    "lng": "-49.8719",
    "country": "Brazil",
    "iso2": "BR",
    "iso3": "BRA",
    "admin_name": "São Paulo",
    "capital": "",
    "population": "110282",
    "id": "1076551408"
  },
  {
    "city": "Altamira",
    "city_ascii": "Altamira",
    "lat": "-3.2028",
    "lng": "-52.2058",
    "country": "Brazil",
    "iso2": "BR",
    "iso3": "BRA",
    "admin_name": "Pará",
    "capital": "",
    "population": "109938",
    "id": "1076710878"
  },
  {
    "city": "Itabira",
    "city_ascii": "Itabira",
    "lat": "-19.6189",
    "lng": "-43.2269",
    "country": "Brazil",
    "iso2": "BR",
    "iso3": "BRA",
    "admin_name": "Minas Gerais",
    "capital": "",
    "population": "109783",
    "id": "1076783407"
  },
  {
    "city": "São Mateus",
    "city_ascii": "Sao Mateus",
    "lat": "-18.7158",
    "lng": "-39.8589",
    "country": "Brazil",
    "iso2": "BR",
    "iso3": "BRA",
    "admin_name": "Espírito Santo",
    "capital": "",
    "population": "109028",
    "id": "1076829621"
  },
  {
    "city": "Erechim",
    "city_ascii": "Erechim",
    "lat": "-27.6339",
    "lng": "-52.2739",
    "country": "Brazil",
    "iso2": "BR",
    "iso3": "BRA",
    "admin_name": "Rio Grande do Sul",
    "capital": "",
    "population": "106633",
    "id": "1076359548"
  },
  {
    "city": "Patos",
    "city_ascii": "Patos",
    "lat": "-7.0244",
    "lng": "-37.2800",
    "country": "Brazil",
    "iso2": "BR",
    "iso3": "BRA",
    "admin_name": "Paraíba",
    "capital": "",
    "population": "106314",
    "id": "1076232522"
  },
  {
    "city": "Passos",
    "city_ascii": "Passos",
    "lat": "-20.7189",
    "lng": "-46.6100",
    "country": "Brazil",
    "iso2": "BR",
    "iso3": "BRA",
    "admin_name": "Minas Gerais",
    "capital": "",
    "population": "106290",
    "id": "1076782492"
  },
  {
    "city": "Vespasiano",
    "city_ascii": "Vespasiano",
    "lat": "-19.6919",
    "lng": "-43.9228",
    "country": "Brazil",
    "iso2": "BR",
    "iso3": "BRA",
    "admin_name": "Minas Gerais",
    "capital": "",
    "population": "104527",
    "id": "1076342199"
  },
  {
    "city": "Ariquemes",
    "city_ascii": "Ariquemes",
    "lat": "-9.9161",
    "lng": "-63.0408",
    "country": "Brazil",
    "iso2": "BR",
    "iso3": "BRA",
    "admin_name": "Rondônia",
    "capital": "",
    "population": "105896",
    "id": "1076442639"
  },
  {
    "city": "Paço do Lumiar",
    "city_ascii": "Paco do Lumiar",
    "lat": "-2.5319",
    "lng": "-44.1078",
    "country": "Brazil",
    "iso2": "BR",
    "iso3": "BRA",
    "admin_name": "Maranhão",
    "capital": "",
    "population": "105121",
    "id": "1076632637"
  },
  {
    "city": "Assis",
    "city_ascii": "Assis",
    "lat": "-22.6619",
    "lng": "-50.4119",
    "country": "Brazil",
    "iso2": "BR",
    "iso3": "BRA",
    "admin_name": "São Paulo",
    "capital": "",
    "population": "105087",
    "id": "1076782502"
  },
  {
    "city": "Trindade",
    "city_ascii": "Trindade",
    "lat": "-16.6581",
    "lng": "-49.4836",
    "country": "Brazil",
    "iso2": "BR",
    "iso3": "BRA",
    "admin_name": "Goiás",
    "capital": "",
    "population": "104488",
    "id": "1076815881"
  },
  {
    "city": "Leme",
    "city_ascii": "Leme",
    "lat": "-22.1861",
    "lng": "-47.3906",
    "country": "Brazil",
    "iso2": "BR",
    "iso3": "BRA",
    "admin_name": "São Paulo",
    "capital": "",
    "population": "104346",
    "id": "1076542731"
  },
  {
    "city": "Arapongas",
    "city_ascii": "Arapongas",
    "lat": "-23.4189",
    "lng": "-51.4239",
    "country": "Brazil",
    "iso2": "BR",
    "iso3": "BRA",
    "admin_name": "Paraná",
    "capital": "",
    "population": "104150",
    "id": "1076623771"
  },
  {
    "city": "Coronel Fabriciano",
    "city_ascii": "Coronel Fabriciano",
    "lat": "-19.5189",
    "lng": "-42.6289",
    "country": "Brazil",
    "iso2": "BR",
    "iso3": "BRA",
    "admin_name": "Minas Gerais",
    "capital": "",
    "population": "103694",
    "id": "1076563450"
  },
  {
    "city": "Açailandia",
    "city_ascii": "Acailandia",
    "lat": "-4.9469",
    "lng": "-47.5050",
    "country": "Brazil",
    "iso2": "BR",
    "iso3": "BRA",
    "admin_name": "Tocantins",
    "capital": "",
    "population": "104047",
    "id": "1076993685"
  },
  {
    "city": "Araxá",
    "city_ascii": "Araxa",
    "lat": "-19.5928",
    "lng": "-46.9408",
    "country": "Brazil",
    "iso2": "BR",
    "iso3": "BRA",
    "admin_name": "Minas Gerais",
    "capital": "",
    "population": "103287",
    "id": "1076259402"
  },
  {
    "city": "Almirante Tamandaré",
    "city_ascii": "Almirante Tamandare",
    "lat": "-25.3250",
    "lng": "-49.3100",
    "country": "Brazil",
    "iso2": "BR",
    "iso3": "BRA",
    "admin_name": "Paraná",
    "capital": "",
    "population": "103204",
    "id": "1076372357"
  },
  {
    "city": "São Lourenço da Mata",
    "city_ascii": "Sao Lourenco da Mata",
    "lat": "-8.0019",
    "lng": "-35.0178",
    "country": "Brazil",
    "iso2": "BR",
    "iso3": "BRA",
    "admin_name": "Pernambuco",
    "capital": "",
    "population": "102895",
    "id": "1076714150"
  },
  {
    "city": "Itanhaém",
    "city_ascii": "Itanhaem",
    "lat": "-24.1806",
    "lng": "-46.7828",
    "country": "Brazil",
    "iso2": "BR",
    "iso3": "BRA",
    "admin_name": "São Paulo",
    "capital": "",
    "population": "103102",
    "id": "1076274068"
  },
  {
    "city": "Igarassu",
    "city_ascii": "Igarassu",
    "lat": "-7.8342",
    "lng": "-34.9064",
    "country": "Brazil",
    "iso2": "BR",
    "iso3": "BRA",
    "admin_name": "Pernambuco",
    "capital": "",
    "population": "102021",
    "id": "1076739866"
  },
  {
    "city": "Santo Antônio de Jesus",
    "city_ascii": "Santo Antonio de Jesus",
    "lat": "-12.9692",
    "lng": "-39.2611",
    "country": "Brazil",
    "iso2": "BR",
    "iso3": "BRA",
    "admin_name": "Bahia",
    "capital": "",
    "population": "101548",
    "id": "1076231231"
  },
  {
    "city": "Balsas",
    "city_ascii": "Balsas",
    "lat": "-7.5328",
    "lng": "-46.0358",
    "country": "Brazil",
    "iso2": "BR",
    "iso3": "BRA",
    "admin_name": "Maranhão",
    "capital": "",
    "population": "101456",
    "id": "1076067021"
  },
  {
    "city": "Muriaé",
    "city_ascii": "Muriae",
    "lat": "-21.1306",
    "lng": "-42.3664",
    "country": "Brazil",
    "iso2": "BR",
    "iso3": "BRA",
    "admin_name": "Minas Gerais",
    "capital": "",
    "population": "100765",
    "id": "1076003733"
  },
  {
    "city": "Umuarama",
    "city_ascii": "Umuarama",
    "lat": "-23.7658",
    "lng": "-53.3250",
    "country": "Brazil",
    "iso2": "BR",
    "iso3": "BRA",
    "admin_name": "Paraná",
    "capital": "",
    "population": "100676",
    "id": "1076793612"
  },
  {
    "city": "Mairiporã",
    "city_ascii": "Mairipora",
    "lat": "-23.3189",
    "lng": "-46.5869",
    "country": "Brazil",
    "iso2": "BR",
    "iso3": "BRA",
    "admin_name": "São Paulo",
    "capital": "",
    "population": "100179",
    "id": "1076161359"
  },
  {
    "city": "Formosa",
    "city_ascii": "Formosa",
    "lat": "-15.5369",
    "lng": "-47.3339",
    "country": "Brazil",
    "iso2": "BR",
    "iso3": "BRA",
    "admin_name": "Goiás",
    "capital": "",
    "population": "100085",
    "id": "1076601172"
  },
  {
    "city": "Bacabal",
    "city_ascii": "Bacabal",
    "lat": "-4.2250",
    "lng": "-44.7800",
    "country": "Brazil",
    "iso2": "BR",
    "iso3": "BRA",
    "admin_name": "Maranhão",
    "capital": "",
    "population": "100014",
    "id": "1076125117"
  },
  {
    "city": "Bayeux",
    "city_ascii": "Bayeux",
    "lat": "-7.1333",
    "lng": "-34.9333",
    "country": "Brazil",
    "iso2": "BR",
    "iso3": "BRA",
    "admin_name": "Paraíba",
    "capital": "",
    "population": "96140",
    "id": "1076607187"
  },
  {
    "city": "Esteio",
    "city_ascii": "Esteio",
    "lat": "-29.8608",
    "lng": "-51.1789",
    "country": "Brazil",
    "iso2": "BR",
    "iso3": "BRA",
    "admin_name": "Rio Grande do Sul",
    "capital": "",
    "population": "80755",
    "id": "1076924823"
  },
  {
    "city": "Campo Formoso",
    "city_ascii": "Campo Formoso",
    "lat": "-10.5089",
    "lng": "-40.3208",
    "country": "Brazil",
    "iso2": "BR",
    "iso3": "BRA",
    "admin_name": "Bahia",
    "capital": "",
    "population": "72271",
    "id": "1076847580"
  },
  {
    "city": "Cabedelo",
    "city_ascii": "Cabedelo",
    "lat": "-6.9808",
    "lng": "-34.8339",
    "country": "Brazil",
    "iso2": "BR",
    "iso3": "BRA",
    "admin_name": "Paraíba",
    "capital": "",
    "population": "65634",
    "id": "1076791382"
  },
  {
    "city": "Euclides da Cunha",
    "city_ascii": "Euclides da Cunha",
    "lat": "-10.5078",
    "lng": "-39.0139",
    "country": "Brazil",
    "iso2": "BR",
    "iso3": "BRA",
    "admin_name": "Bahia",
    "capital": "",
    "population": "60666",
    "id": "1076277178"
  },
  {
    "city": "Mineiros",
    "city_ascii": "Mineiros",
    "lat": "-17.5689",
    "lng": "-52.5508",
    "country": "Brazil",
    "iso2": "BR",
    "iso3": "BRA",
    "admin_name": "Goiás",
    "capital": "",
    "population": "52935",
    "id": "1076000916"
  },
  {
    "city": "Riacho de Santana",
    "city_ascii": "Riacho de Santana",
    "lat": "-13.6089",
    "lng": "-42.9389",
    "country": "Brazil",
    "iso2": "BR",
    "iso3": "BRA",
    "admin_name": "Bahia",
    "capital": "",
    "population": "36039",
    "id": "1076808220"
  },
  {
    "city": "Pompeu",
    "city_ascii": "Pompeu",
    "lat": "-19.2239",
    "lng": "-44.9350",
    "country": "Brazil",
    "iso2": "BR",
    "iso3": "BRA",
    "admin_name": "Minas Gerais",
    "capital": "",
    "population": "29105",
    "id": "1076507348"
  },
  {
    "city": "Ipu",
    "city_ascii": "Ipu",
    "lat": "-4.3257",
    "lng": "-40.7103",
    "country": "Brazil",
    "iso2": "BR",
    "iso3": "BRA",
    "admin_name": "Ceará",
    "capital": "",
    "population": "26678",
    "id": "1076972725"
  },
  {
    "city": "Arapoti",
    "city_ascii": "Arapoti",
    "lat": "-24.1578",
    "lng": "-49.8269",
    "country": "Brazil",
    "iso2": "BR",
    "iso3": "BRA",
    "admin_name": "Paraná",
    "capital": "",
    "population": "25855",
    "id": "1076793835"
  },
  {
    "city": "Itambé",
    "city_ascii": "Itambe",
    "lat": "-15.2450",
    "lng": "-40.6239",
    "country": "Brazil",
    "iso2": "BR",
    "iso3": "BRA",
    "admin_name": "Bahia",
    "capital": "",
    "population": "23327",
    "id": "1076307665"
  },
  {
    "city": "Pedreiras",
    "city_ascii": "Pedreiras",
    "lat": "-4.5696",
    "lng": "-44.6700",
    "country": "Brazil",
    "iso2": "BR",
    "iso3": "BRA",
    "admin_name": "Maranhão",
    "capital": "",
    "population": "13638",
    "id": "1076527878"
  },
  {
    "city": "Cachoeira Alta",
    "city_ascii": "Cachoeira Alta",
    "lat": "-18.7628",
    "lng": "-50.9419",
    "country": "Brazil",
    "iso2": "BR",
    "iso3": "BRA",
    "admin_name": "Goiás",
    "capital": "",
    "population": "10553",
    "id": "1076336461"
  },
  {
    "city": "Elesbão Veloso",
    "city_ascii": "Elesbao Veloso",
    "lat": "-6.2019",
    "lng": "-42.1400",
    "country": "Brazil",
    "iso2": "BR",
    "iso3": "BRA",
    "admin_name": "Piauí",
    "capital": "",
    "population": "14512",
    "id": "1076369423"
  },
  {
    "city": "Breves",
    "city_ascii": "Breves",
    "lat": "-1.6819",
    "lng": "-50.4800",
    "country": "Brazil",
    "iso2": "BR",
    "iso3": "BRA",
    "admin_name": "Pará",
    "capital": "",
    "population": "99080",
    "id": "1076061751"
  },
  {
    "city": "Itaituba",
    "city_ascii": "Itaituba",
    "lat": "-4.2758",
    "lng": "-55.9839",
    "country": "Brazil",
    "iso2": "BR",
    "iso3": "BRA",
    "admin_name": "Pará",
    "capital": "",
    "population": "98485",
    "id": "1076849673"
  },
  {
    "city": "Paulínia",
    "city_ascii": "Paulinia",
    "lat": "-22.7611",
    "lng": "-47.1542",
    "country": "Brazil",
    "iso2": "BR",
    "iso3": "BRA",
    "admin_name": "São Paulo",
    "capital": "",
    "population": "97702",
    "id": "1076327352"
  },
  {
    "city": "Paragominas",
    "city_ascii": "Paragominas",
    "lat": "-2.9958",
    "lng": "-47.3528",
    "country": "Brazil",
    "iso2": "BR",
    "iso3": "BRA",
    "admin_name": "Pará",
    "capital": "",
    "population": "97819",
    "id": "1076557071"
  },
  {
    "city": "Tubarão",
    "city_ascii": "Tubarao",
    "lat": "-28.4667",
    "lng": "-49.0069",
    "country": "Brazil",
    "iso2": "BR",
    "iso3": "BRA",
    "admin_name": "Santa Catarina",
    "capital": "",
    "population": "97235",
    "id": "1076663243"
  },
  {
    "city": "Valença",
    "city_ascii": "Valenca",
    "lat": "-13.3700",
    "lng": "-39.0728",
    "country": "Brazil",
    "iso2": "BR",
    "iso3": "BRA",
    "admin_name": "Bahia",
    "capital": "",
    "population": "97305",
    "id": "1076455406"
  },
  {
    "city": "Ituiutaba",
    "city_ascii": "Ituiutaba",
    "lat": "-18.9667",
    "lng": "-49.4667",
    "country": "Brazil",
    "iso2": "BR",
    "iso3": "BRA",
    "admin_name": "Minas Gerais",
    "capital": "",
    "population": "97171",
    "id": "1076873111"
  },
  {
    "city": "Tucuruí",
    "city_ascii": "Tucurui",
    "lat": "-3.7678",
    "lng": "-49.6728",
    "country": "Brazil",
    "iso2": "BR",
    "iso3": "BRA",
    "admin_name": "Pará",
    "capital": "",
    "population": "97128",
    "id": "1076000076"
  },
  {
    "city": "Itacoatiara",
    "city_ascii": "Itacoatiara",
    "lat": "-3.1428",
    "lng": "-58.4439",
    "country": "Brazil",
    "iso2": "BR",
    "iso3": "BRA",
    "admin_name": "Amazonas",
    "capital": "",
    "population": "97122",
    "id": "1076759384"
  },
  {
    "city": "Barra do Piraí",
    "city_ascii": "Barra do Pirai",
    "lat": "-22.4700",
    "lng": "-43.8258",
    "country": "Brazil",
    "iso2": "BR",
    "iso3": "BRA",
    "admin_name": "Rio de Janeiro",
    "capital": "",
    "population": "96865",
    "id": "1076997923"
  },
  {
    "city": "Caieiras",
    "city_ascii": "Caieiras",
    "lat": "-23.3644",
    "lng": "-46.7408",
    "country": "Brazil",
    "iso2": "BR",
    "iso3": "BRA",
    "admin_name": "São Paulo",
    "capital": "",
    "population": "95780",
    "id": "1076000967"
  },
  {
    "city": "Cambé",
    "city_ascii": "Cambe",
    "lat": "-23.2758",
    "lng": "-51.2778",
    "country": "Brazil",
    "iso2": "BR",
    "iso3": "BRA",
    "admin_name": "Paraná",
    "capital": "",
    "population": "96733",
    "id": "1076233235"
  },
  {
    "city": "Japeri",
    "city_ascii": "Japeri",
    "lat": "-22.6431",
    "lng": "-43.6533",
    "country": "Brazil",
    "iso2": "BR",
    "iso3": "BRA",
    "admin_name": "Rio de Janeiro",
    "capital": "",
    "population": "95492",
    "id": "1076331274"
  },
  {
    "city": "Iguatu",
    "city_ascii": "Iguatu",
    "lat": "-6.3589",
    "lng": "-39.2989",
    "country": "Brazil",
    "iso2": "BR",
    "iso3": "BRA",
    "admin_name": "Ceará",
    "capital": "",
    "population": "96495",
    "id": "1076734026"
  },
  {
    "city": "Nova Lima",
    "city_ascii": "Nova Lima",
    "lat": "-19.9858",
    "lng": "-43.8469",
    "country": "Brazil",
    "iso2": "BR",
    "iso3": "BRA",
    "admin_name": "Minas Gerais",
    "capital": "",
    "population": "96157",
    "id": "1076876220"
  },
  {
    "city": "Itaperuna",
    "city_ascii": "Itaperuna",
    "lat": "-21.2050",
    "lng": "-41.8878",
    "country": "Brazil",
    "iso2": "BR",
    "iso3": "BRA",
    "admin_name": "Rio de Janeiro",
    "capital": "",
    "population": "95841",
    "id": "1076348886"
  },
  {
    "city": "Guaíba",
    "city_ascii": "Guaiba",
    "lat": "-30.1139",
    "lng": "-51.3250",
    "country": "Brazil",
    "iso2": "BR",
    "iso3": "BRA",
    "admin_name": "Rio Grande do Sul",
    "capital": "",
    "population": "95204",
    "id": "1076594929"
  },
  {
    "city": "Abreu e Lima",
    "city_ascii": "Abreu e Lima",
    "lat": "-7.9117",
    "lng": "-34.9028",
    "country": "Brazil",
    "iso2": "BR",
    "iso3": "BRA",
    "admin_name": "Pernambuco",
    "capital": "",
    "population": "94429",
    "id": "1076355835"
  },
  {
    "city": "Lagarto",
    "city_ascii": "Lagarto",
    "lat": "-10.9169",
    "lng": "-37.6500",
    "country": "Brazil",
    "iso2": "BR",
    "iso3": "BRA",
    "admin_name": "Sergipe",
    "capital": "",
    "population": "94861",
    "id": "1076051433"
  },
  {
    "city": "Manacapuru",
    "city_ascii": "Manacapuru",
    "lat": "-3.3000",
    "lng": "-60.6206",
    "country": "Brazil",
    "iso2": "BR",
    "iso3": "BRA",
    "admin_name": "Amazonas",
    "capital": "",
    "population": "94175",
    "id": "1076484341"
  },
  {
    "city": "Itaúna",
    "city_ascii": "Itauna",
    "lat": "-20.0750",
    "lng": "-44.5758",
    "country": "Brazil",
    "iso2": "BR",
    "iso3": "BRA",
    "admin_name": "Minas Gerais",
    "capital": "",
    "population": "93847",
    "id": "1076321811"
  },
  {
    "city": "Vilhena",
    "city_ascii": "Vilhena",
    "lat": "-12.7406",
    "lng": "-60.1458",
    "country": "Brazil",
    "iso2": "BR",
    "iso3": "BRA",
    "admin_name": "Rondônia",
    "capital": "",
    "population": "93745",
    "id": "1076196581"
  },
  {
    "city": "Piraquara",
    "city_ascii": "Piraquara",
    "lat": "-25.4419",
    "lng": "-49.0628",
    "country": "Brazil",
    "iso2": "BR",
    "iso3": "BRA",
    "admin_name": "Paraná",
    "capital": "",
    "population": "93207",
    "id": "1076240504"
  },
  {
    "city": "Itumbiara",
    "city_ascii": "Itumbiara",
    "lat": "-18.4167",
    "lng": "-49.2167",
    "country": "Brazil",
    "iso2": "BR",
    "iso3": "BRA",
    "admin_name": "Goiás",
    "capital": "",
    "population": "92883",
    "id": "1076693747"
  },
  {
    "city": "Itapeva",
    "city_ascii": "Itapeva",
    "lat": "-23.9819",
    "lng": "-48.8758",
    "country": "Brazil",
    "iso2": "BR",
    "iso3": "BRA",
    "admin_name": "São Paulo",
    "capital": "",
    "population": "92710",
    "id": "1076767110"
  },
  {
    "city": "Lavras",
    "city_ascii": "Lavras",
    "lat": "-21.2450",
    "lng": "-45.0000",
    "country": "Brazil",
    "iso2": "BR",
    "iso3": "BRA",
    "admin_name": "Minas Gerais",
    "capital": "",
    "population": "92200",
    "id": "1076751259"
  },
  {
    "city": "Ubatuba",
    "city_ascii": "Ubatuba",
    "lat": "-23.4339",
    "lng": "-45.0708",
    "country": "Brazil",
    "iso2": "BR",
    "iso3": "BRA",
    "admin_name": "São Paulo",
    "capital": "",
    "population": "91824",
    "id": "1076510903"
  },
  {
    "city": "São João da Boa Vista",
    "city_ascii": "Sao Joao da Boa Vista",
    "lat": "-21.9689",
    "lng": "-46.7978",
    "country": "Brazil",
    "iso2": "BR",
    "iso3": "BRA",
    "admin_name": "São Paulo",
    "capital": "",
    "population": "91771",
    "id": "1076459561"
  },
  {
    "city": "Mogi Mirim",
    "city_ascii": "Mogi Mirim",
    "lat": "-22.4319",
    "lng": "-46.9578",
    "country": "Brazil",
    "iso2": "BR",
    "iso3": "BRA",
    "admin_name": "São Paulo",
    "capital": "",
    "population": "91483",
    "id": "1076719683"
  },
  {
    "city": "Votuporanga",
    "city_ascii": "Votuporanga",
    "lat": "-20.4228",
    "lng": "-49.9728",
    "country": "Brazil",
    "iso2": "BR",
    "iso3": "BRA",
    "admin_name": "São Paulo",
    "capital": "",
    "population": "91278",
    "id": "1076423091"
  },
  {
    "city": "Caçapava",
    "city_ascii": "Cacapava",
    "lat": "-23.1008",
    "lng": "-45.7069",
    "country": "Brazil",
    "iso2": "BR",
    "iso3": "BRA",
    "admin_name": "São Paulo",
    "capital": "",
    "population": "91162",
    "id": "1076289420"
  },
  {
    "city": "São Félix do Xingu",
    "city_ascii": "Sao Felix do Xingu",
    "lat": "-6.6333",
    "lng": "-51.9833",
    "country": "Brazil",
    "iso2": "BR",
    "iso3": "BRA",
    "admin_name": "Pará",
    "capital": "",
    "population": "91340",
    "id": "1076909404"
  },
  {
    "city": "Avaré",
    "city_ascii": "Avare",
    "lat": "-23.0989",
    "lng": "-48.9258",
    "country": "Brazil",
    "iso2": "BR",
    "iso3": "BRA",
    "admin_name": "São Paulo",
    "capital": "",
    "population": "91232",
    "id": "1076118860"
  },
  {
    "city": "Cáceres",
    "city_ascii": "Caceres",
    "lat": "-16.0711",
    "lng": "-57.6789",
    "country": "Brazil",
    "iso2": "BR",
    "iso3": "BRA",
    "admin_name": "Mato Grosso",
    "capital": "",
    "population": "91271",
    "id": "1076422654"
  },
  {
    "city": "Itajubá",
    "city_ascii": "Itajuba",
    "lat": "-22.4258",
    "lng": "-45.4528",
    "country": "Brazil",
    "iso2": "BR",
    "iso3": "BRA",
    "admin_name": "Minas Gerais",
    "capital": "",
    "population": "90658",
    "id": "1076423300"
  },
  {
    "city": "São João del Rei",
    "city_ascii": "Sao Joao del Rei",
    "lat": "-21.1358",
    "lng": "-44.2619",
    "country": "Brazil",
    "iso2": "BR",
    "iso3": "BRA",
    "admin_name": "Minas Gerais",
    "capital": "",
    "population": "90497",
    "id": "1076559413"
  },
  {
    "city": "São Sebastião",
    "city_ascii": "Sao Sebastiao",
    "lat": "-23.8040",
    "lng": "-45.4051",
    "country": "Brazil",
    "iso2": "BR",
    "iso3": "BRA",
    "admin_name": "São Paulo",
    "capital": "",
    "population": "90328",
    "id": "1076889310"
  },
  {
    "city": "Candeias",
    "city_ascii": "Candeias",
    "lat": "-12.6678",
    "lng": "-38.5508",
    "country": "Brazil",
    "iso2": "BR",
    "iso3": "BRA",
    "admin_name": "Bahia",
    "capital": "",
    "population": "88806",
    "id": "1076438209"
  },
  {
    "city": "Ponta Porã",
    "city_ascii": "Ponta Pora",
    "lat": "-22.5358",
    "lng": "-55.7258",
    "country": "Brazil",
    "iso2": "BR",
    "iso3": "BRA",
    "admin_name": "Mato Grosso do Sul",
    "capital": "",
    "population": "88164",
    "id": "1076647935"
  },
  {
    "city": "São Pedro da Aldeia",
    "city_ascii": "Sao Pedro da Aldeia",
    "lat": "-22.8389",
    "lng": "-42.1028",
    "country": "Brazil",
    "iso2": "BR",
    "iso3": "BRA",
    "admin_name": "Rio de Janeiro",
    "capital": "",
    "population": "87875",
    "id": "1076616321"
  },
  {
    "city": "São Gonçalo do Amarante",
    "city_ascii": "Sao Goncalo do Amarante",
    "lat": "-5.7928",
    "lng": "-35.3289",
    "country": "Brazil",
    "iso2": "BR",
    "iso3": "BRA",
    "admin_name": "Rio Grande do Norte",
    "capital": "",
    "population": "87668",
    "id": "1076732684"
  },
  {
    "city": "Jataí",
    "city_ascii": "Jatai",
    "lat": "-17.8808",
    "lng": "-51.8306",
    "country": "Brazil",
    "iso2": "BR",
    "iso3": "BRA",
    "admin_name": "Goiás",
    "capital": "",
    "population": "88006",
    "id": "1076908960"
  },
  {
    "city": "Santa Cruz do Capibaribe",
    "city_ascii": "Santa Cruz do Capibaribe",
    "lat": "-7.9569",
    "lng": "-36.2050",
    "country": "Brazil",
    "iso2": "BR",
    "iso3": "BRA",
    "admin_name": "Pernambuco",
    "capital": "",
    "population": "87582",
    "id": "1076235057"
  },
  {
    "city": "Itabaiana",
    "city_ascii": "Itabaiana",
    "lat": "-10.6850",
    "lng": "-37.4250",
    "country": "Brazil",
    "iso2": "BR",
    "iso3": "BRA",
    "admin_name": "Sergipe",
    "capital": "",
    "population": "86967",
    "id": "1076643218"
  },
  {
    "city": "São Cristóvão",
    "city_ascii": "Sao Cristovao",
    "lat": "-11.0150",
    "lng": "-37.2058",
    "country": "Brazil",
    "iso2": "BR",
    "iso3": "BRA",
    "admin_name": "Sergipe",
    "capital": "",
    "population": "86979",
    "id": "1076642686"
  },
  {
    "city": "São Roque",
    "city_ascii": "Sao Roque",
    "lat": "-23.5289",
    "lng": "-47.1350",
    "country": "Brazil",
    "iso2": "BR",
    "iso3": "BRA",
    "admin_name": "São Paulo",
    "capital": "",
    "population": "86515",
    "id": "1076621665"
  },
  {
    "city": "Cacoal",
    "city_ascii": "Cacoal",
    "lat": "-11.4386",
    "lng": "-61.4472",
    "country": "Brazil",
    "iso2": "BR",
    "iso3": "BRA",
    "admin_name": "Rondônia",
    "capital": "",
    "population": "85893",
    "id": "1076046408"
  },
  {
    "city": "Coari",
    "city_ascii": "Coari",
    "lat": "-4.0850",
    "lng": "-63.1408",
    "country": "Brazil",
    "iso2": "BR",
    "iso3": "BRA",
    "admin_name": "Amazonas",
    "capital": "",
    "population": "85910",
    "id": "1076899406"
  },
  {
    "city": "Guanambi",
    "city_ascii": "Guanambi",
    "lat": "-14.2228",
    "lng": "-42.7808",
    "country": "Brazil",
    "iso2": "BR",
    "iso3": "BRA",
    "admin_name": "Bahia",
    "capital": "",
    "population": "85797",
    "id": "1076791780"
  },
  {
    "city": "Cachoeira do Sul",
    "city_ascii": "Cachoeira do Sul",
    "lat": "-30.0394",
    "lng": "-52.8953",
    "country": "Brazil",
    "iso2": "BR",
    "iso3": "BRA",
    "admin_name": "Rio Grande do Sul",
    "capital": "",
    "population": "85712",
    "id": "1076336795"
  },
  {
    "city": "Caratinga",
    "city_ascii": "Caratinga",
    "lat": "-19.7900",
    "lng": "-42.1389",
    "country": "Brazil",
    "iso2": "BR",
    "iso3": "BRA",
    "admin_name": "Minas Gerais",
    "capital": "",
    "population": "85239",
    "id": "1076504581"
  },
  {
    "city": "Jacobina",
    "city_ascii": "Jacobina",
    "lat": "-11.1808",
    "lng": "-40.5178",
    "country": "Brazil",
    "iso2": "BR",
    "iso3": "BRA",
    "admin_name": "Bahia",
    "capital": "",
    "population": "84811",
    "id": "1076049373"
  },
  {
    "city": "Arujá",
    "city_ascii": "Aruja",
    "lat": "-23.3967",
    "lng": "-46.3211",
    "country": "Brazil",
    "iso2": "BR",
    "iso3": "BRA",
    "admin_name": "São Paulo",
    "capital": "",
    "population": "83939",
    "id": "1076436872"
  },
  {
    "city": "Senador Canedo",
    "city_ascii": "Senador Canedo",
    "lat": "-16.7594",
    "lng": "-49.0864",
    "country": "Brazil",
    "iso2": "BR",
    "iso3": "BRA",
    "admin_name": "Goiás",
    "capital": "",
    "population": "84443",
    "id": "1076337498"
  },
  {
    "city": "Paracatu",
    "city_ascii": "Paracatu",
    "lat": "-17.2217",
    "lng": "-46.8750",
    "country": "Brazil",
    "iso2": "BR",
    "iso3": "BRA",
    "admin_name": "Minas Gerais",
    "capital": "",
    "population": "84718",
    "id": "1076347421"
  },
  {
    "city": "Serra Talhada",
    "city_ascii": "Serra Talhada",
    "lat": "-7.9858",
    "lng": "-38.2958",
    "country": "Brazil",
    "iso2": "BR",
    "iso3": "BRA",
    "admin_name": "Pernambuco",
    "capital": "",
    "population": "84352",
    "id": "1076913729"
  },
  {
    "city": "Pará de Minas",
    "city_ascii": "Para de Minas",
    "lat": "-19.8600",
    "lng": "-44.6078",
    "country": "Brazil",
    "iso2": "BR",
    "iso3": "BRA",
    "admin_name": "Minas Gerais",
    "capital": "",
    "population": "84215",
    "id": "1076626301"
  },
  {
    "city": "Ijuí",
    "city_ascii": "Ijui",
    "lat": "-28.3878",
    "lng": "-53.9150",
    "country": "Brazil",
    "iso2": "BR",
    "iso3": "BRA",
    "admin_name": "Rio Grande do Sul",
    "capital": "",
    "population": "83764",
    "id": "1076683915"
  },
  {
    "city": "Serrinha",
    "city_ascii": "Serrinha",
    "lat": "-11.6639",
    "lng": "-39.0078",
    "country": "Brazil",
    "iso2": "BR",
    "iso3": "BRA",
    "admin_name": "Bahia",
    "capital": "",
    "population": "83275",
    "id": "1076832200"
  },
  {
    "city": "Santana do Livramento",
    "city_ascii": "Santana do Livramento",
    "lat": "-30.8908",
    "lng": "-55.5328",
    "country": "Brazil",
    "iso2": "BR",
    "iso3": "BRA",
    "admin_name": "Rio Grande do Sul",
    "capital": "",
    "population": "83324",
    "id": "1076271841"
  },
  {
    "city": "Seropédica",
    "city_ascii": "Seropedica",
    "lat": "-22.7439",
    "lng": "-43.7078",
    "country": "Brazil",
    "iso2": "BR",
    "iso3": "BRA",
    "admin_name": "Rio de Janeiro",
    "capital": "",
    "population": "82892",
    "id": "1076073491"
  },
  {
    "city": "Barra do Corda",
    "city_ascii": "Barra do Corda",
    "lat": "-5.5058",
    "lng": "-45.2428",
    "country": "Brazil",
    "iso2": "BR",
    "iso3": "BRA",
    "admin_name": "Maranhão",
    "capital": "",
    "population": "82830",
    "id": "1076745135"
  },
  {
    "city": "Sorriso",
    "city_ascii": "Sorriso",
    "lat": "-12.5450",
    "lng": "-55.7108",
    "country": "Brazil",
    "iso2": "BR",
    "iso3": "BRA",
    "admin_name": "Mato Grosso",
    "capital": "",
    "population": "82792",
    "id": "1076873169"
  },
  {
    "city": "Cruzeiro do Sul",
    "city_ascii": "Cruzeiro do Sul",
    "lat": "-7.6308",
    "lng": "-72.6700",
    "country": "Brazil",
    "iso2": "BR",
    "iso3": "BRA",
    "admin_name": "Acre",
    "capital": "",
    "population": "82622",
    "id": "1076881427"
  },