[
  {
    "city": "Nairobi",
    "city_ascii": "Nairobi",
    "lat": "-1.2864",
    "lng": "36.8172",
    "country": "Kenya",
    "iso2": "KE",
    "iso3": "KEN",
    "admin_name": "Nairobi City",
    "capital": "primary",
    "population": "5545000",
    "id": "1404000661"
  },
  {
    "city": "Meru",
    "city_ascii": "Meru",
    "lat": "0.0500",
    "lng": "37.6500",
    "country": "Kenya",
    "iso2": "KE",
    "iso3": "KEN",
    "admin_name": "Meru",
    "capital": "admin",
    "population": "1833000",
    "id": "1404588252"
  },
  {
    "city": "Mombasa",
    "city_ascii": "Mombasa",
    "lat": "-4.0500",
    "lng": "39.6667",
    "country": "Kenya",
    "iso2": "KE",
    "iso3": "KEN",
    "admin_name": "Mombasa",
    "capital": "admin",
    "population": "1208333",
    "id": "1404512373"
  },
  {
    "city": "Kisumu",
    "city_ascii": "Kisumu",
    "lat": "-0.0833",
    "lng": "34.7667",
    "country": "Kenya",
    "iso2": "KE",
    "iso3": "KEN",
    "admin_name": "Kisumu",
    "capital": "admin",
    "population": "409928",
    "id": "1404511920"
  },
  {
    "city": "Nakuru",
    "city_ascii": "Nakuru",
    "lat": "-0.3000",
    "lng": "36.0667",
    "country": "Kenya",
    "iso2": "KE",
    "iso3": "KEN",
    "admin_name": "Nakuru",
    "capital": "admin",
    "population": "307990",
    "id": "1404140179"
  },
  {
    "city": "Kikuyu",
    "city_ascii": "Kikuyu",
    "lat": "-1.2500",
    "lng": "36.6667",
    "country": "Kenya",
    "iso2": "KE",
    "iso3": "KEN",
    "admin_name": "Kiambu",
    "capital": "",
    "population": "323881",
    "id": "1404116834"
  },
  {
    "city": "Eldoret",
    "city_ascii": "Eldoret",
    "lat": "0.5167",
    "lng": "35.2833",
    "country": "Kenya",
    "iso2": "KE",
    "iso3": "KEN",
    "admin_name": "Uasin Gishu",
    "capital": "admin",
    "population": "193830",
    "id": "1404676289"
  },
  {
    "city": "Ongata Rongai",
    "city_ascii": "Ongata Rongai",
    "lat": "-1.4000",
    "lng": "36.7700",
    "country": "Kenya",
    "iso2": "KE",
    "iso3": "KEN",
    "admin_name": "Kajiado",
    "capital": "",
    "population": "172570",
    "id": "1404422353"
  },
  {
    "city": "Habaswein",
    "city_ascii": "Habaswein",
    "lat": "1.0100",
    "lng": "39.4900",
    "country": "Kenya",
    "iso2": "KE",
    "iso3": "KEN",
    "admin_name": "Wajir",
    "capital": "",
    "population": "174134",
    "id": "1404012344"
  },
  {
    "city": "Molo",
    "city_ascii": "Molo",
    "lat": "-0.2500",
    "lng": "35.7333",
    "country": "Kenya",
    "iso2": "KE",
    "iso3": "KEN",
    "admin_name": "Nakuru",
    "capital": "",
    "population": "156732",
    "id": "1404340216"
  },
  {
    "city": "Kitenkela",
    "city_ascii": "Kitenkela",
    "lat": "-1.5167",
    "lng": "36.8500",
    "country": "Kenya",
    "iso2": "KE",
    "iso3": "KEN",
    "admin_name": "Kajiado",
    "capital": "",
    "population": "154436",
    "id": "1404000624"
  },
  {
    "city": "Kiambu",
    "city_ascii": "Kiambu",
    "lat": "-1.1667",
    "lng": "36.8167",
    "country": "Kenya",
    "iso2": "KE",
    "iso3": "KEN",
    "admin_name": "Kiambu",
    "capital": "admin",
    "population": "147870",
    "id": "1404390868"
  },
  {
    "city": "Ramu",
    "city_ascii": "Ramu",
    "lat": "3.9375",
    "lng": "41.2203",
    "country": "Kenya",
    "iso2": "KE",
    "iso3": "KEN",
    "admin_name": "Mandera",
    "capital": "",
    "population": "143850",
    "id": "1404221019"
  },
  {
    "city": "Malindi",
    "city_ascii": "Malindi",
    "lat": "-3.2236",
    "lng": "40.1300",
    "country": "Kenya",
    "iso2": "KE",
    "iso3": "KEN",
    "admin_name": "Kilifi",
    "capital": "",
    "population": "119859",
    "id": "1404380224"
  },
  {
    "city": "Kilifi",
    "city_ascii": "Kilifi",
    "lat": "-3.6333",
    "lng": "39.8500",
    "country": "Kenya",
    "iso2": "KE",
    "iso3": "KEN",
    "admin_name": "Kilifi",
    "capital": "",
    "population": "122899",
    "id": "1404002930"
  },
  {
    "city": "Vihiga",
    "city_ascii": "Vihiga",
    "lat": "0.0500",
    "lng": "34.7250",
    "country": "Kenya",
    "iso2": "KE",
    "iso3": "KEN",
    "admin_name": "Vihiga",
    "capital": "",
    "population": "118696",
    "id": "1404002123"
  },
  {
    "city": "Machakos",
    "city_ascii": "Machakos",
    "lat": "-1.5167",
    "lng": "37.2667",
    "country": "Kenya",
    "iso2": "KE",
    "iso3": "KEN",
    "admin_name": "Machakos",
    "capital": "admin",
    "population": "114109",
    "id": "1404746781"
  },
  {
    "city": "Ngong",
    "city_ascii": "Ngong",
    "lat": "-1.3667",
    "lng": "36.6333",
    "country": "Kenya",
    "iso2": "KE",
    "iso3": "KEN",
    "admin_name": "Kajiado",
    "capital": "",
    "population": "102323",
    "id": "1404947852"
  },
  {
    "city": "Thika",
    "city_ascii": "Thika",
    "lat": "-1.0396",
    "lng": "37.0900",
    "country": "Kenya",
    "iso2": "KE",
    "iso3": "KEN",
    "admin_name": "Kiambu",
    "capital": "",
    "population": "99322",
    "id": "1404482650"
  },
  {
    "city": "Nyeri",
    "city_ascii": "Nyeri",
    "lat": "-0.4167",
    "lng": "36.9500",
    "country": "Kenya",
    "iso2": "KE",
    "iso3": "KEN",
    "admin_name": "Nyeri",
    "capital": "admin",
    "population": "98908",
    "id": "1404924901"
  },
  {
    "city": "Mumias",
    "city_ascii": "Mumias",
    "lat": "0.3333",
    "lng": "34.4833",
    "country": "Kenya",
    "iso2": "KE",
    "iso3": "KEN",
    "admin_name": "Kakamega",
    "capital": "",
    "population": "99987",
    "id": "1404232773"
  },
  {
    "city": "Kakamega",
    "city_ascii": "Kakamega",
    "lat": "0.2822",
    "lng": "34.7540",
    "country": "Kenya",
    "iso2": "KE",
    "iso3": "KEN",
    "admin_name": "Kakamega",
    "capital": "admin",
    "population": "91778",
    "id": "1404614327"
  },
  {
    "city": "Wajir",
    "city_ascii": "Wajir",
    "lat": "1.7500",
    "lng": "40.0500",
    "country": "Kenya",
    "iso2": "KE",
    "iso3": "KEN",
    "admin_name": "Wajir",
    "capital": "admin",
    "population": "90116",
    "id": "1404067343"
  },
  {
    "city": "Garissa",
    "city_ascii": "Garissa",
    "lat": "-0.4569",
    "lng": "39.6583",
    "country": "Kenya",
    "iso2": "KE",
    "iso3": "KEN",
    "admin_name": "Garissa",
    "capital": "admin",
    "population": "65881",
    "id": "1404464692"
  },
  {
    "city": "Nandi Hills",
    "city_ascii": "Nandi Hills",
    "lat": "0.1003",
    "lng": "35.1764",
    "country": "Kenya",
    "iso2": "KE",
    "iso3": "KEN",
    "admin_name": "Nandi",
    "capital": "",
    "population": "73626",
    "id": "1404700660"
  },
  {
    "city": "Kitale",
    "city_ascii": "Kitale",
    "lat": "1.0167",
    "lng": "35.0000",
    "country": "Kenya",
    "iso2": "KE",
    "iso3": "KEN",
    "admin_name": "Trans Nzoia",
    "capital": "admin",
    "population": "63245",
    "id": "1404890081"
  },
  {
    "city": "Bungoma",
    "city_ascii": "Bungoma",
    "lat": "0.5667",
    "lng": "34.5667",
    "country": "Kenya",
    "iso2": "KE",
    "iso3": "KEN",
    "admin_name": "Bungoma",
    "capital": "admin",
    "population": "55857",
    "id": "1404689847"
  },
  {
    "city": "Wote",
    "city_ascii": "Wote",
    "lat": "-1.7833",
    "lng": "37.6333",
    "country": "Kenya",
    "iso2": "KE",
    "iso3": "KEN",
    "admin_name": "Makueni",
    "capital": "admin",
    "population": "56419",
    "id": "1404304549"
  },
  {
    "city": "Isiolo",
    "city_ascii": "Isiolo",
    "lat": "0.3500",
    "lng": "37.5833",
    "country": "Kenya",
    "iso2": "KE",
    "iso3": "KEN",
    "admin_name": "Isiolo",
    "capital": "admin",
    "population": "45989",
    "id": "1404771203"
  },
  {
    "city": "Iten",
    "city_ascii": "Iten",
    "lat": "0.6731",
    "lng": "35.5083",
    "country": "Kenya",
    "iso2": "KE",
    "iso3": "KEN",
    "admin_name": "Elgeyo/Marakwet",
    "capital": "admin",
    "population": "42312",
    "id": "1404000102"
  },
  {
    "city": "Embu",
    "city_ascii": "Embu",
    "lat": "-0.5389",
    "lng": "37.4583",
    "country": "Kenya",
    "iso2": "KE",
    "iso3": "KEN",
    "admin_name": "Embu",
    "capital": "admin",
    "population": "41092",
    "id": "1404376456"
  },
  {
    "city": "Kisii",
    "city_ascii": "Kisii",
    "lat": "-0.6833",
    "lng": "34.7667",
    "country": "Kenya",
    "iso2": "KE",
    "iso3": "KEN",
    "admin_name": "Kisii",
    "capital": "admin",
    "population": "37531",
    "id": "1404617601"
  },
  {
    "city": "Busia",
    "city_ascii": "Busia",
    "lat": "0.4633",
    "lng": "34.1053",
    "country": "Kenya",
    "iso2": "KE",
    "iso3": "KEN",
    "admin_name": "Busia",
    "capital": "admin",
    "population": "30777",
    "id": "1404250734"
  },
  {
    "city": "Homa Bay",
    "city_ascii": "Homa Bay",
    "lat": "-0.5167",
    "lng": "34.4500",
    "country": "Kenya",
    "iso2": "KE",
    "iso3": "KEN",
    "admin_name": "Homa Bay",
    "capital": "admin",
    "population": "32174",
    "id": "1404321159"
  },
  {
    "city": "Kericho",
    "city_ascii": "Kericho",
    "lat": "-0.3692",
    "lng": "35.2839",
    "country": "Kenya",
    "iso2": "KE",
    "iso3": "KEN",
    "admin_name": "Kericho",
    "capital": "admin",
    "population": "30023",
    "id": "1404338562"
  },
  {
    "city": "Mandera",
    "city_ascii": "Mandera",
    "lat": "3.9167",
    "lng": "41.8333",
    "country": "Kenya",
    "iso2": "KE",
    "iso3": "KEN",
    "admin_name": "Mandera",
    "capital": "admin",
    "population": "30433",
    "id": "1404192737"
  },
  {
    "city": "Kitui",
    "city_ascii": "Kitui",
    "lat": "-1.3667",
    "lng": "38.0167",
    "country": "Kenya",
    "iso2": "KE",
    "iso3": "KEN",
    "admin_name": "Kitui",
    "capital": "admin",
    "population": "29062",
    "id": "1404548296"
  },
  {
    "city": "Rumuruti",
    "city_ascii": "Rumuruti",
    "lat": "0.2600",
    "lng": "36.5363",
    "country": "Kenya",
    "iso2": "KE",
    "iso3": "KEN",
    "admin_name": "Laikipia",
    "capital": "admin",
    "population": "31649",
    "id": "1404005234"
  },
  {
    "city": "Moyale",
    "city_ascii": "Moyale",
    "lat": "3.5270",
    "lng": "39.0560",
    "country": "Kenya",
    "iso2": "KE",
    "iso3": "KEN",
    "admin_name": "Marsabit",
    "capital": "",
    "population": "25000",
    "id": "1404689643"
  },
  {
    "city": "Lamu",
    "city_ascii": "Lamu",
    "lat": "-2.2694",
    "lng": "40.9022",
    "country": "Kenya",
    "iso2": "KE",
    "iso3": "KEN",
    "admin_name": "Lamu",
    "capital": "admin",
    "population": "25385",
    "id": "1404163131"
  },
  {
    "city": "Kajiado",
    "city_ascii": "Kajiado",
    "lat": "-1.8500",
    "lng": "36.7833",
    "country": "Kenya",
    "iso2": "KE",
    "iso3": "KEN",
    "admin_name": "Kajiado",
    "capital": "admin",
    "population": "24678",
    "id": "1404265412"
  },
  {
    "city": "Maralal",
    "city_ascii": "Maralal",
    "lat": "1.1000",
    "lng": "36.7000",
    "country": "Kenya",
    "iso2": "KE",
    "iso3": "KEN",
    "admin_name": "Samburu",
    "capital": "admin",
    "population": "20841",
    "id": "1404895664"
  },
  {
    "city": "Eldama Ravine",
    "city_ascii": "Eldama Ravine",
    "lat": "0.0500",
    "lng": "35.7167",
    "country": "Kenya",
    "iso2": "KE",
    "iso3": "KEN",
    "admin_name": "Baringo",
    "capital": "",
    "population": "17581",
    "id": "1404468256"
  },
  {
    "city": "Kapsabet",
    "city_ascii": "Kapsabet",
    "lat": "0.3333",
    "lng": "35.1667",
    "country": "Kenya",
    "iso2": "KE",
    "iso3": "KEN",
    "admin_name": "Nandi",
    "capital": "admin",
    "population": "17918",
    "id": "1404814363"
  },
  {
    "city": "Marsabit",
    "city_ascii": "Marsabit",
    "lat": "2.3333",
    "lng": "37.9833",
    "country": "Kenya",
    "iso2": "KE",
    "iso3": "KEN",
    "admin_name": "Marsabit",
    "capital": "admin",
    "population": "17127",
    "id": "1404055253"
  },
  {
    "city": "Lodwar",
    "city_ascii": "Lodwar",
    "lat": "3.1167",
    "lng": "35.6000",
    "country": "Kenya",
    "iso2": "KE",
    "iso3": "KEN",
    "admin_name": "Turkana",
    "capital": "admin",
    "population": "16981",
    "id": "1404993573"
  },
  {
    "city": "Kerugoya",
    "city_ascii": "Kerugoya",
    "lat": "-0.5000",
    "lng": "37.2833",
    "country": "Kenya",
    "iso2": "KE",
    "iso3": "KEN",
    "admin_name": "Kirinyaga",
    "capital": "admin",
    "population": "14056",
    "id": "1404597807"
  },
  {
    "city": "Namanga",
    "city_ascii": "Namanga",
    "lat": "-2.5500",
    "lng": "36.7833",
    "country": "Kenya",
    "iso2": "KE",
    "iso3": "KEN",
    "admin_name": "Nyamira",
    "capital": "",
    "population": "13193",
    "id": "1404000001"
  },
  {
    "city": "Kwale",
    "city_ascii": "Kwale",
    "lat": "-4.1744",
    "lng": "39.4603",
    "country": "Kenya",
    "iso2": "KE",
    "iso3": "KEN",
    "admin_name": "Kwale",
    "capital": "admin",
    "population": "10063",
    "id": "1404769042"
  },
  {
    "city": "Hola",
    "city_ascii": "Hola",
    "lat": "-1.5000",
    "lng": "40.0333",
    "country": "Kenya",
    "iso2": "KE",
    "iso3": "KEN",
    "admin_name": "Tana River",
    "capital": "admin",
    "population": "6931",
    "id": "1404396632"
  },
  {
    "city": "Mwatate",
    "city_ascii": "Mwatate",
    "lat": "-3.5047",
    "lng": "38.3778",
    "country": "Kenya",
    "iso2": "KE",
    "iso3": "KEN",
    "admin_name": "Taita/Taveta",
    "capital": "admin",
    "population": "5551",
    "id": "1404648092"
  },
  {
    "city": "Kabarnet",
    "city_ascii": "Kabarnet",
    "lat": "0.4940",
    "lng": "35.7440",
    "country": "Kenya",
    "iso2": "KE",
    "iso3": "KEN",
    "admin_name": "Baringo",
    "capital": "admin",
    "population": "",
    "id": "1404620707"
  },
  {
    "city": "Migori",
    "city_ascii": "Migori",
    "lat": "-1.0634",
    "lng": "34.4731",
    "country": "Kenya",
    "iso2": "KE",
    "iso3": "KEN",
    "admin_name": "Migori",
    "capital": "admin",
    "population": "",
    "id": "1404478510"
  },
  {
    "city": "Nyamira",
    "city_ascii": "Nyamira",
    "lat": "-0.5633",
    "lng": "34.9358",
    "country": "Kenya",
    "iso2": "KE",
    "iso3": "KEN",
    "admin_name": "Nyamira",
    "capital": "admin",
    "population": "",
    "id": "1404000104"
  },
  {
    "city": "Sotik Post",
    "city_ascii": "Sotik Post",
    "lat": "-0.7813",
    "lng": "35.3416",
    "country": "Kenya",
    "iso2": "KE",
    "iso3": "KEN",
    "admin_name": "Bomet",
    "capital": "admin",
    "population": "",
    "id": "1404087664"
  },
  {
    "city": "Murang’a",
    "city_ascii": "Murang'a",
    "lat": "-0.7167",
    "lng": "37.1500",
    "country": "Kenya",
    "iso2": "KE",
    "iso3": "KEN",
    "admin_name": "Murang’a",
    "capital": "admin",
    "population": "",
    "id": "1404066738"
  },
  {
    "city": "Siaya",
    "city_ascii": "Siaya",
    "lat": "0.0667",
    "lng": "34.2833",
    "country": "Kenya",
    "iso2": "KE",
    "iso3": "KEN",
    "admin_name": "Siaya",
    "capital": "admin",
    "population": "",
    "id": "1404162576"
  },
  {
    "city": "Kapenguria",
    "city_ascii": "Kapenguria",
    "lat": "1.2333",
    "lng": "35.1167",
    "country": "Kenya",
    "iso2": "KE",
    "iso3": "KEN",
    "admin_name": "West Pokot",
    "capital": "admin",
    "population": "",
    "id": "1404228137"
  },
  {
    "city": "Narok",
    "city_ascii": "Narok",
    "lat": "-1.0833",
    "lng": "35.8667",
    "country": "Kenya",
    "iso2": "KE",
    "iso3": "KEN",
    "admin_name": "Narok",
    "capital": "admin",
    "population": "",
    "id": "1404459814"
  },
  {
    "city": "Ol Kalou",
    "city_ascii": "Ol Kalou",
    "lat": "-0.2730",
    "lng": "36.3780",
    "country": "Kenya",
    "iso2": "KE",
    "iso3": "KEN",
    "admin_name": "Nyandarua",
    "capital": "admin",
    "population": "",
    "id": "1404930645"
  },
  {
    "city": "Kimilili",
    "city_ascii": "Kimilili",
    "lat": "0.7833",
    "lng": "34.7167",
    "country": "Kenya",
    "iso2": "KE",
    "iso3": "KEN",
    "admin_name": "Bungoma",
    "capital": "",
    "population": "94927",
    "id": "1404489379"
  },
  {
    "city": "Kendu Bay",
    "city_ascii": "Kendu Bay",
    "lat": "-0.3596",
    "lng": "34.6400",
    "country": "Kenya",
    "iso2": "KE",
    "iso3": "KEN",
    "admin_name": "Homa Bay",
    "capital": "",
    "population": "91248",
    "id": "1404600696"
  },
  {
    "city": "Lafey",
    "city_ascii": "Lafey",
    "lat": "3.1508",
    "lng": "41.1864",
    "country": "Kenya",
    "iso2": "KE",
    "iso3": "KEN",
    "admin_name": "Mandera",
    "capital": "",
    "population": "83457",
    "id": "1404326023"
  },
  {
    "city": "Athi River",
    "city_ascii": "Athi River",
    "lat": "-1.4500",
    "lng": "36.9833",
    "country": "Kenya",
    "iso2": "KE",
    "iso3": "KEN",
    "admin_name": "Machakos",
    "capital": "",
    "population": "81302",
    "id": "1404232217"
  },
  {
    "city": "Sotik",
    "city_ascii": "Sotik",
    "lat": "-0.6800",
    "lng": "35.1200",
    "country": "Kenya",
    "iso2": "KE",
    "iso3": "KEN",
    "admin_name": "Bomet",
    "capital": "",
    "population": "71285",
    "id": "1404807525"
  },
  {
    "city": "Wundanyi",
    "city_ascii": "Wundanyi",
    "lat": "-3.3983",
    "lng": "38.3603",
    "country": "Kenya",
    "iso2": "KE",
    "iso3": "KEN",
    "admin_name": "Taita/Taveta",
    "capital": "",
    "population": "62340",
    "id": "1404917325"
  },
  {
    "city": "El Wak",
    "city_ascii": "El Wak",
    "lat": "2.8028",
    "lng": "40.9275",
    "country": "Kenya",
    "iso2": "KE",
    "iso3": "KEN",
    "admin_name": "Mandera",
    "capital": "",
    "population": "60732",
    "id": "1404102561"
  },
  {
    "city": "Kakuma",
    "city_ascii": "Kakuma",
    "lat": "3.7167",
    "lng": "34.8667",
    "country": "Kenya",
    "iso2": "KE",
    "iso3": "KEN",
    "admin_name": "Turkana",
    "capital": "",
    "population": "60000",
    "id": "1404320261"
  },
  {
    "city": "Banane",
    "city_ascii": "Banane",
    "lat": "0.5000",
    "lng": "38.6700",
    "country": "Kenya",
    "iso2": "KE",
    "iso3": "KEN",
    "admin_name": "Isiolo",
    "capital": "",
    "population": "60000",
    "id": "1404457234"
  },
  {
    "city": "Voi",
    "city_ascii": "Voi",
    "lat": "-3.3906",
    "lng": "38.5769",
    "country": "Kenya",
    "iso2": "KE",
    "iso3": "KEN",
    "admin_name": "Taita/Taveta",
    "capital": "",
    "population": "45483",
    "id": "1404504656"
  },
  {
    "city": "Nanyuki",
    "city_ascii": "Nanyuki",
    "lat": "0.0167",
    "lng": "37.0667",
    "country": "Kenya",
    "iso2": "KE",
    "iso3": "KEN",
    "admin_name": "Laikipia",
    "capital": "",
    "population": "31577",
    "id": "1404481993"
  },
  {
    "city": "Taveta",
    "city_ascii": "Taveta",
    "lat": "-3.3956",
    "lng": "37.6761",
    "country": "Kenya",
    "iso2": "KE",
    "iso3": "KEN",
    "admin_name": "Taita/Taveta",
    "capital": "",
    "population": "22018",
    "id": "1404624215"
  },
  {
    "city": "Takaba",
    "city_ascii": "Takaba",
    "lat": "3.3963",
    "lng": "40.2251",
    "country": "Kenya",
    "iso2": "KE",
    "iso3": "KEN",
    "admin_name": "Mandera",
    "capital": "",
    "population": "21474",
    "id": "1404710881"
  },
  {
    "city": "Baragoi",
    "city_ascii": "Baragoi",
    "lat": "1.7833",
    "lng": "36.7833",
    "country": "Kenya",
    "iso2": "KE",
    "iso3": "KEN",
    "admin_name": "Samburu",
    "capital": "",
    "population": "20000",
    "id": "1404601511"
  },
  {
    "city": "Mwingi",
    "city_ascii": "Mwingi",
    "lat": "-0.9333",
    "lng": "38.0500",
    "country": "Kenya",
    "iso2": "KE",
    "iso3": "KEN",
    "admin_name": "Kitui",
    "capital": "",
    "population": "15970",
    "id": "1404312666"
  },
  {
    "city": "Naivasha",
    "city_ascii": "Naivasha",
    "lat": "-0.7167",
    "lng": "36.4333",
    "country": "Kenya",
    "iso2": "KE",
    "iso3": "KEN",
    "admin_name": "Nakuru",
    "capital": "",
    "population": "14563",
    "id": "1404904927"
  },
  {
    "city": "Bartabwa",
    "city_ascii": "Bartabwa",
    "lat": "0.8300",
    "lng": "35.8000",
    "country": "Kenya",
    "iso2": "KE",
    "iso3": "KEN",
    "admin_name": "Baringo",
    "capital": "",
    "population": "14611",
    "id": "1404047345"
  },
  {
    "city": "Port Victoria",
    "city_ascii": "Port Victoria",
    "lat": "0.1000",
    "lng": "33.9833",
    "country": "Kenya",
    "iso2": "KE",
    "iso3": "KEN",
    "admin_name": "Busia",
    "capital": "",
    "population": "12194",
    "id": "1404757827"
  },
  {
    "city": "Makuyu",
    "city_ascii": "Makuyu",
    "lat": "-0.9000",
    "lng": "37.1833",
    "country": "Kenya",
    "iso2": "KE",
    "iso3": "KEN",
    "admin_name": "Murang’a",
    "capital": "",
    "population": "12541",
    "id": "1404000094"
  },
  {
    "city": "Karungu",
    "city_ascii": "Karungu",
    "lat": "-0.8496",
    "lng": "34.1500",
    "country": "Kenya",
    "iso2": "KE",
    "iso3": "KEN",
    "admin_name": "Migori",
    "capital": "",
    "population": "2376",
    "id": "1404796412"
  },
  {
    "city": "Witu",
    "city_ascii": "Witu",
    "lat": "-2.3889",
    "lng": "40.4378",
    "country": "Kenya",
    "iso2": "KE",
    "iso3": "KEN",
    "admin_name": "Lamu",
    "capital": "",
    "population": "5380",
    "id": "1404037095"
  },
  {
    "city": "Konza",
    "city_ascii": "Konza",
    "lat": "-1.7496",
    "lng": "37.1200",
    "country": "Kenya",
    "iso2": "KE",
    "iso3": "KEN",
    "admin_name": "Machakos",
    "capital": "",
    "population": "2004",
    "id": "1404143289"
  },
  {
    "city": "Tsavo",
    "city_ascii": "Tsavo",
    "lat": "-2.9828",
    "lng": "38.4666",
    "country": "Kenya",
    "iso2": "KE",
    "iso3": "KEN",
    "admin_name": "Taita/Taveta",
    "capital": "",
    "population": "414",
    "id": "1404321644"
  }
]