[
  {
    "city": "Honiara",
    "city_ascii": "Honiara",
    "lat": "-9.4319",
    "lng": "159.9556",
    "country": "Solomon Islands",
    "iso2": "SB",
    "iso3": "SLB",
    "admin_name": "Honiara",
    "capital": "primary",
    "population": "84520",
    "id": "1090737486"
  },
  {
    "city": "Auki",
    "city_ascii": "Auki",
    "lat": "-8.7667",
    "lng": "160.7000",
    "country": "Solomon Islands",
    "iso2": "SB",
    "iso3": "SLB",
    "admin_name": "Malaita",
    "capital": "admin",
    "population": "7882",
    "id": "1090993143"
  },
  {
    "city": "Gizo",
    "city_ascii": "Gizo",
    "lat": "-8.1056",
    "lng": "156.8389",
    "country": "Solomon Islands",
    "iso2": "SB",
    "iso3": "SLB",
    "admin_name": "Western",
    "capital": "admin",
    "population": "6154",
    "id": "1090427067"
  },
  {
    "city": "Kirakira",
    "city_ascii": "Kirakira",
    "lat": "-10.4500",
    "lng": "161.9167",
    "country": "Solomon Islands",
    "iso2": "SB",
    "iso3": "SLB",
    "admin_name": "Makira and Ulawa",
    "capital": "admin",
    "population": "3500",
    "id": "1090349580"
  },
  {
    "city": "Buala",
    "city_ascii": "Buala",
    "lat": "-8.1333",
    "lng": "159.5833",
    "country": "Solomon Islands",
    "iso2": "SB",
    "iso3": "SLB",
    "admin_name": "Isabel",
    "capital": "admin",
    "population": "2813",
    "id": "1090726690"
  },
  {
    "city": "Tulagi",
    "city_ascii": "Tulagi",
    "lat": "-9.1014",
    "lng": "160.1467",
    "country": "Solomon Islands",
    "iso2": "SB",
    "iso3": "SLB",
    "admin_name": "Central",
    "capital": "admin",
    "population": "1251",
    "id": "1090844311"
  },
  {
    "city": "Taro",
    "city_ascii": "Taro",
    "lat": "-6.7111",
    "lng": "156.3972",
    "country": "Solomon Islands",
    "iso2": "SB",
    "iso3": "SLB",
    "admin_name": "Choiseul",
    "capital": "admin",
    "population": "",
    "id": "1090931394"
  },
  {
    "city": "Lata",
    "city_ascii": "Lata",
    "lat": "-10.7167",
    "lng": "165.8333",
    "country": "Solomon Islands",
    "iso2": "SB",
    "iso3": "SLB",
    "admin_name": "Temotu",
    "capital": "admin",
    "population": "553",
    "id": "1090442496"
  },
  {
    "city": "Tigoa",
    "city_ascii": "Tigoa",
    "lat": "-11.5583",
    "lng": "160.0706",
    "country": "Solomon Islands",
    "iso2": "SB",
    "iso3": "SLB",
    "admin_name": "Rennell and Bellona",
    "capital": "admin",
    "population": "613",
    "id": "1090423471"
  }
]