[
  {
    "city": "Managua",
    "city_ascii": "Managua",
    "lat": "12.1544",
    "lng": "-86.2738",
    "country": "Nicaragua",
    "iso2": "NI",
    "iso3": "NIC",
    "admin_name": "Managua",
    "capital": "primary",
    "population": "1028808",
    "id": "1558296252"
  },
  {
    "city": "Boaco",
    "city_ascii": "Boaco",
    "lat": "12.4719",
    "lng": "-85.6594",
    "country": "Nicaragua",
    "iso2": "NI",
    "iso3": "NIC",
    "admin_name": "Boaco",
    "capital": "admin",
    "population": "317000",
    "id": "1558023610"
  },
  {
    "city": "León",
    "city_ascii": "Leon",
    "lat": "12.4344",
    "lng": "-86.8775",
    "country": "Nicaragua",
    "iso2": "NI",
    "iso3": "NIC",
    "admin_name": "León",
    "capital": "admin",
    "population": "174051",
    "id": "1558654236"
  },
  {
    "city": "Masaya",
    "city_ascii": "Masaya",
    "lat": "11.9764",
    "lng": "-86.0875",
    "country": "Nicaragua",
    "iso2": "NI",
    "iso3": "NIC",
    "admin_name": "Masaya",
    "capital": "admin",
    "population": "139582",
    "id": "1558765329"
  },
  {
    "city": "Matagalpa",
    "city_ascii": "Matagalpa",
    "lat": "12.9286",
    "lng": "-85.9178",
    "country": "Nicaragua",
    "iso2": "NI",
    "iso3": "NIC",
    "admin_name": "Matagalpa",
    "capital": "admin",
    "population": "133416",
    "id": "1558728443"
  },
  {
    "city": "Chinandega",
    "city_ascii": "Chinandega",
    "lat": "12.6297",
    "lng": "-87.1283",
    "country": "Nicaragua",
    "iso2": "NI",
    "iso3": "NIC",
    "admin_name": "Chinandega",
    "capital": "admin",
    "population": "121793",
    "id": "1558172276"
  },
  {
    "city": "Estelí",
    "city_ascii": "Esteli",
    "lat": "13.0933",
    "lng": "-86.3547",
    "country": "Nicaragua",
    "iso2": "NI",
    "iso3": "NIC",
    "admin_name": "Estelí",
    "capital": "admin",
    "population": "112084",
    "id": "1558801854"
  },
  {
    "city": "Tipitapa",
    "city_ascii": "Tipitapa",
    "lat": "12.1964",
    "lng": "-86.0969",
    "country": "Nicaragua",
    "iso2": "NI",
    "iso3": "NIC",
    "admin_name": "Managua",
    "capital": "minor",
    "population": "108457",
    "id": "1558753915"
  },
  {
    "city": "Granada",
    "city_ascii": "Granada",
    "lat": "11.9347",
    "lng": "-85.9589",
    "country": "Nicaragua",
    "iso2": "NI",
    "iso3": "NIC",
    "admin_name": "Granada",
    "capital": "admin",
    "population": "105171",
    "id": "1558101678"
  },
  {
    "city": "Jinotega",
    "city_ascii": "Jinotega",
    "lat": "13.0908",
    "lng": "-86.0006",
    "country": "Nicaragua",
    "iso2": "NI",
    "iso3": "NIC",
    "admin_name": "Jinotega",
    "capital": "admin",
    "population": "99382",
    "id": "1558697688"
  },
  {
    "city": "Bilwi",
    "city_ascii": "Bilwi",
    "lat": "14.0297",
    "lng": "-83.3833",
    "country": "Nicaragua",
    "iso2": "NI",
    "iso3": "NIC",
    "admin_name": "Costa Caribe Norte",
    "capital": "admin",
    "population": "66169",
    "id": "1558656214"
  },
  {
    "city": "Juigalpa",
    "city_ascii": "Juigalpa",
    "lat": "12.1083",
    "lng": "-85.3694",
    "country": "Nicaragua",
    "iso2": "NI",
    "iso3": "NIC",
    "admin_name": "Chontales",
    "capital": "admin",
    "population": "60583",
    "id": "1558986603"
  },
  {
    "city": "Jinotepe",
    "city_ascii": "Jinotepe",
    "lat": "11.8472",
    "lng": "-86.1997",
    "country": "Nicaragua",
    "iso2": "NI",
    "iso3": "NIC",
    "admin_name": "Carazo",
    "capital": "admin",
    "population": "52175",
    "id": "1558246417"
  },
  {
    "city": "Bluefields",
    "city_ascii": "Bluefields",
    "lat": "12.0139",
    "lng": "-83.7644",
    "country": "Nicaragua",
    "iso2": "NI",
    "iso3": "NIC",
    "admin_name": "Costa Caribe Sur",
    "capital": "admin",
    "population": "45547",
    "id": "1558301368"
  },
  {
    "city": "Rivas",
    "city_ascii": "Rivas",
    "lat": "11.4386",
    "lng": "-85.8286",
    "country": "Nicaragua",
    "iso2": "NI",
    "iso3": "NIC",
    "admin_name": "Rivas",
    "capital": "admin",
    "population": "41080",
    "id": "1558146594"
  },
  {
    "city": "San Carlos",
    "city_ascii": "San Carlos",
    "lat": "11.1236",
    "lng": "-84.7780",
    "country": "Nicaragua",
    "iso2": "NI",
    "iso3": "NIC",
    "admin_name": "Río San Juan",
    "capital": "admin",
    "population": "37461",
    "id": "1558170572"
  },
  {
    "city": "Ocotal",
    "city_ascii": "Ocotal",
    "lat": "13.6336",
    "lng": "-86.4753",
    "country": "Nicaragua",
    "iso2": "NI",
    "iso3": "NIC",
    "admin_name": "Nueva Segovia",
    "capital": "admin",
    "population": "34580",
    "id": "1558006000"
  },
  {
    "city": "Somoto",
    "city_ascii": "Somoto",
    "lat": "13.4842",
    "lng": "-86.5817",
    "country": "Nicaragua",
    "iso2": "NI",
    "iso3": "NIC",
    "admin_name": "Madriz",
    "capital": "admin",
    "population": "33788",
    "id": "1558605178"
  },
  {
    "city": "El Viejo",
    "city_ascii": "El Viejo",
    "lat": "12.6631",
    "lng": "-87.1694",
    "country": "Nicaragua",
    "iso2": "NI",
    "iso3": "NIC",
    "admin_name": "Chinandega",
    "capital": "minor",
    "population": "76775",
    "id": "1558770292"
  },
  {
    "city": "Ciudad Sandino",
    "city_ascii": "Ciudad Sandino",
    "lat": "12.1667",
    "lng": "-86.3553",
    "country": "Nicaragua",
    "iso2": "NI",
    "iso3": "NIC",
    "admin_name": "Managua",
    "capital": "minor",
    "population": "75083",
    "id": "1558641363"
  },
  {
    "city": "Siuna",
    "city_ascii": "Siuna",
    "lat": "13.7347",
    "lng": "-84.7783",
    "country": "Nicaragua",
    "iso2": "NI",
    "iso3": "NIC",
    "admin_name": "Costa Caribe Norte",
    "capital": "minor",
    "population": "73730",
    "id": "1558482501"
  },
  {
    "city": "Nueva Guinea",
    "city_ascii": "Nueva Guinea",
    "lat": "11.6867",
    "lng": "-84.4561",
    "country": "Nicaragua",
    "iso2": "NI",
    "iso3": "NIC",
    "admin_name": "Costa Caribe Sur",
    "capital": "minor",
    "population": "66936",
    "id": "1558868719"
  },
  {
    "city": "Diriamba",
    "city_ascii": "Diriamba",
    "lat": "11.8564",
    "lng": "-86.2403",
    "country": "Nicaragua",
    "iso2": "NI",
    "iso3": "NIC",
    "admin_name": "Carazo",
    "capital": "minor",
    "population": "57542",
    "id": "1558411169"
  },
  {
    "city": "Wiwilí",
    "city_ascii": "Wiwili",
    "lat": "13.6197",
    "lng": "-85.8183",
    "country": "Nicaragua",
    "iso2": "NI",
    "iso3": "NIC",
    "admin_name": "Nueva Segovia",
    "capital": "minor",
    "population": "57485",
    "id": "1558766877"
  },
  {
    "city": "Jalapa",
    "city_ascii": "Jalapa",
    "lat": "13.9222",
    "lng": "-86.1253",
    "country": "Nicaragua",
    "iso2": "NI",
    "iso3": "NIC",
    "admin_name": "Nueva Segovia",
    "capital": "minor",
    "population": "54491",
    "id": "1558183579"
  },
  {
    "city": "El Rama",
    "city_ascii": "El Rama",
    "lat": "12.1617",
    "lng": "-84.2194",
    "country": "Nicaragua",
    "iso2": "NI",
    "iso3": "NIC",
    "admin_name": "Costa Caribe Sur",
    "capital": "minor",
    "population": "54337",
    "id": "1558512996"
  },
  {
    "city": "Mulukukú",
    "city_ascii": "Mulukuku",
    "lat": "13.1764",
    "lng": "-84.9564",
    "country": "Nicaragua",
    "iso2": "NI",
    "iso3": "NIC",
    "admin_name": "Costa Caribe Norte",
    "capital": "minor",
    "population": "49339",
    "id": "1558000015"
  },
  {
    "city": "Waspán",
    "city_ascii": "Waspan",
    "lat": "14.7408",
    "lng": "-83.9728",
    "country": "Nicaragua",
    "iso2": "NI",
    "iso3": "NIC",
    "admin_name": "Costa Caribe Norte",
    "capital": "minor",
    "population": "47231",
    "id": "1558840115"
  },
  {
    "city": "Chichigalpa",
    "city_ascii": "Chichigalpa",
    "lat": "12.5722",
    "lng": "-87.0267",
    "country": "Nicaragua",
    "iso2": "NI",
    "iso3": "NIC",
    "admin_name": "Chinandega",
    "capital": "minor",
    "population": "46185",
    "id": "1558921284"
  },
  {
    "city": "Waslala",
    "city_ascii": "Waslala",
    "lat": "13.3367",
    "lng": "-85.3708",
    "country": "Nicaragua",
    "iso2": "NI",
    "iso3": "NIC",
    "admin_name": "Costa Caribe Norte",
    "capital": "",
    "population": "43676",
    "id": "1558730387"
  },
  {
    "city": "El Cuá",
    "city_ascii": "El Cua",
    "lat": "13.3678",
    "lng": "-85.6725",
    "country": "Nicaragua",
    "iso2": "NI",
    "iso3": "NIC",
    "admin_name": "Jinotega",
    "capital": "minor",
    "population": "43305",
    "id": "1558463653"
  },
  {
    "city": "San Rafael del Sur",
    "city_ascii": "San Rafael del Sur",
    "lat": "11.8458",
    "lng": "-86.4389",
    "country": "Nicaragua",
    "iso2": "NI",
    "iso3": "NIC",
    "admin_name": "Managua",
    "capital": "minor",
    "population": "42417",
    "id": "1558570848"
  },
  {
    "city": "San José de Bocay",
    "city_ascii": "San Jose de Bocay",
    "lat": "13.5428",
    "lng": "-85.5397",
    "country": "Nicaragua",
    "iso2": "NI",
    "iso3": "NIC",
    "admin_name": "Jinotega",
    "capital": "minor",
    "population": "42029",
    "id": "1558566609"
  },
  {
    "city": "Matiguás",
    "city_ascii": "Matiguas",
    "lat": "12.8372",
    "lng": "-85.4619",
    "country": "Nicaragua",
    "iso2": "NI",
    "iso3": "NIC",
    "admin_name": "Matagalpa",
    "capital": "minor",
    "population": "41127",
    "id": "1558837403"
  },
  {
    "city": "Ciudad Darío",
    "city_ascii": "Ciudad Dario",
    "lat": "12.7322",
    "lng": "-86.1233",
    "country": "Nicaragua",
    "iso2": "NI",
    "iso3": "NIC",
    "admin_name": "Matagalpa",
    "capital": "minor",
    "population": "41014",
    "id": "1558651455"
  },
  {
    "city": "Nindirí",
    "city_ascii": "Nindiri",
    "lat": "12.0031",
    "lng": "-86.1178",
    "country": "Nicaragua",
    "iso2": "NI",
    "iso3": "NIC",
    "admin_name": "Masaya",
    "capital": "minor",
    "population": "38355",
    "id": "1558216045"
  },
  {
    "city": "Nandaime",
    "city_ascii": "Nandaime",
    "lat": "11.7569",
    "lng": "-86.0528",
    "country": "Nicaragua",
    "iso2": "NI",
    "iso3": "NIC",
    "admin_name": "Granada",
    "capital": "minor",
    "population": "37413",
    "id": "1558998589"
  },
  {
    "city": "Camoapa",
    "city_ascii": "Camoapa",
    "lat": "12.3842",
    "lng": "-85.5119",
    "country": "Nicaragua",
    "iso2": "NI",
    "iso3": "NIC",
    "admin_name": "Boaco",
    "capital": "minor",
    "population": "34962",
    "id": "1558644621"
  },
  {
    "city": "La Trinidad",
    "city_ascii": "La Trinidad",
    "lat": "12.9678",
    "lng": "-86.2339",
    "country": "Nicaragua",
    "iso2": "NI",
    "iso3": "NIC",
    "admin_name": "Managua",
    "capital": "",
    "population": "33840",
    "id": "1558209065"
  },
  {
    "city": "La Concepción",
    "city_ascii": "La Concepcion",
    "lat": "11.9369",
    "lng": "-86.1889",
    "country": "Nicaragua",
    "iso2": "NI",
    "iso3": "NIC",
    "admin_name": "Masaya",
    "capital": "minor",
    "population": "31950",
    "id": "1558215738"
  },
  {
    "city": "Nagarote",
    "city_ascii": "Nagarote",
    "lat": "12.2650",
    "lng": "-86.5639",
    "country": "Nicaragua",
    "iso2": "NI",
    "iso3": "NIC",
    "admin_name": "León",
    "capital": "minor",
    "population": "32303",
    "id": "1558005234"
  },
  {
    "city": "Sébaco",
    "city_ascii": "Sebaco",
    "lat": "12.8553",
    "lng": "-86.0983",
    "country": "Nicaragua",
    "iso2": "NI",
    "iso3": "NIC",
    "admin_name": "Matagalpa",
    "capital": "minor",
    "population": "32221",
    "id": "1558662201"
  },
  {
    "city": "Masatepe",
    "city_ascii": "Masatepe",
    "lat": "11.9147",
    "lng": "-86.1442",
    "country": "Nicaragua",
    "iso2": "NI",
    "iso3": "NIC",
    "admin_name": "Masaya",
    "capital": "minor",
    "population": "31583",
    "id": "1558293076"
  },
  {
    "city": "Bocana de Paiwas",
    "city_ascii": "Bocana de Paiwas",
    "lat": "12.7878",
    "lng": "-85.1228",
    "country": "Nicaragua",
    "iso2": "NI",
    "iso3": "NIC",
    "admin_name": "Costa Caribe Sur",
    "capital": "minor",
    "population": "31762",
    "id": "1558901000"
  },
  {
    "city": "Río Blanco",
    "city_ascii": "Rio Blanco",
    "lat": "12.9325",
    "lng": "-85.2244",
    "country": "Nicaragua",
    "iso2": "NI",
    "iso3": "NIC",
    "admin_name": "Matagalpa",
    "capital": "minor",
    "population": "30785",
    "id": "1558593583"
  },
  {
    "city": "San Ramón",
    "city_ascii": "San Ramon",
    "lat": "12.9236",
    "lng": "-85.8389",
    "country": "Nicaragua",
    "iso2": "NI",
    "iso3": "NIC",
    "admin_name": "Matagalpa",
    "capital": "minor",
    "population": "30682",
    "id": "1558617224"
  },
  {
    "city": "Condega",
    "city_ascii": "Condega",
    "lat": "13.3617",
    "lng": "-86.3972",
    "country": "Nicaragua",
    "iso2": "NI",
    "iso3": "NIC",
    "admin_name": "Estelí",
    "capital": "minor",
    "population": "30000",
    "id": "1558543389"
  },
  {
    "city": "San Marcos",
    "city_ascii": "San Marcos",
    "lat": "11.9081",
    "lng": "-86.2025",
    "country": "Nicaragua",
    "iso2": "NI",
    "iso3": "NIC",
    "admin_name": "Carazo",
    "capital": "minor",
    "population": "29019",
    "id": "1558544498"
  },
  {
    "city": "Somotillo",
    "city_ascii": "Somotillo",
    "lat": "13.0447",
    "lng": "-86.9044",
    "country": "Nicaragua",
    "iso2": "NI",
    "iso3": "NIC",
    "admin_name": "Chinandega",
    "capital": "minor",
    "population": "29030",
    "id": "1558936840"
  },
  {
    "city": "Mateare",
    "city_ascii": "Mateare",
    "lat": "12.2356",
    "lng": "-86.4289",
    "country": "Nicaragua",
    "iso2": "NI",
    "iso3": "NIC",
    "admin_name": "Managua",
    "capital": "minor",
    "population": "28775",
    "id": "1558569665"
  },
  {
    "city": "La Paz Centro",
    "city_ascii": "La Paz Centro",
    "lat": "12.3397",
    "lng": "-86.6758",
    "country": "Nicaragua",
    "iso2": "NI",
    "iso3": "NIC",
    "admin_name": "León",
    "capital": "minor",
    "population": "28118",
    "id": "1558538095"
  },
  {
    "city": "El Sauce",
    "city_ascii": "El Sauce",
    "lat": "12.8861",
    "lng": "-86.5389",
    "country": "Nicaragua",
    "iso2": "NI",
    "iso3": "NIC",
    "admin_name": "León",
    "capital": "minor",
    "population": "27900",
    "id": "1558542535"
  },
  {
    "city": "Larreynaga",
    "city_ascii": "Larreynaga",
    "lat": "12.5939",
    "lng": "-86.6797",
    "country": "Nicaragua",
    "iso2": "NI",
    "iso3": "NIC",
    "admin_name": "León",
    "capital": "",
    "population": "27898",
    "id": "1558602365"
  },
  {
    "city": "Villa El Carmen",
    "city_ascii": "Villa El Carmen",
    "lat": "11.9794",
    "lng": "-86.5103",
    "country": "Nicaragua",
    "iso2": "NI",
    "iso3": "NIC",
    "admin_name": "Managua",
    "capital": "minor",
    "population": "27449",
    "id": "1558217117"
  },
  {
    "city": "Ticuantepe",
    "city_ascii": "Ticuantepe",
    "lat": "12.0231",
    "lng": "-86.2064",
    "country": "Nicaragua",
    "iso2": "NI",
    "iso3": "NIC",
    "admin_name": "Managua",
    "capital": "minor",
    "population": "27008",
    "id": "1558748108"
  },
  {
    "city": "San Sebastián de Yalí",
    "city_ascii": "San Sebastian de Yali",
    "lat": "13.3061",
    "lng": "-86.1867",
    "country": "Nicaragua",
    "iso2": "NI",
    "iso3": "NIC",
    "admin_name": "Jinotega",
    "capital": "minor",
    "population": "26979",
    "id": "1558797659"
  },
  {
    "city": "Quilalí",
    "city_ascii": "Quilali",
    "lat": "13.5683",
    "lng": "-86.0267",
    "country": "Nicaragua",
    "iso2": "NI",
    "iso3": "NIC",
    "admin_name": "Nueva Segovia",
    "capital": "minor",
    "population": "26461",
    "id": "1558890150"
  },
  {
    "city": "Teustepe",
    "city_ascii": "Teustepe",
    "lat": "12.4206",
    "lng": "-85.7997",
    "country": "Nicaragua",
    "iso2": "NI",
    "iso3": "NIC",
    "admin_name": "Boaco",
    "capital": "minor",
    "population": "26265",
    "id": "1558471999"
  },
  {
    "city": "Rancho Grande",
    "city_ascii": "Rancho Grande",
    "lat": "13.2353",
    "lng": "-85.5589",
    "country": "Nicaragua",
    "iso2": "NI",
    "iso3": "NIC",
    "admin_name": "Matagalpa",
    "capital": "minor",
    "population": "26223",
    "id": "1558000014"
  },
  {
    "city": "El Jícaro",
    "city_ascii": "El Jicaro",
    "lat": "13.7225",
    "lng": "-86.1347",
    "country": "Nicaragua",
    "iso2": "NI",
    "iso3": "NIC",
    "admin_name": "Nueva Segovia",
    "capital": "minor",
    "population": "25901",
    "id": "1558370447"
  },
  {
    "city": "Villanueva",
    "city_ascii": "Villanueva",
    "lat": "12.9647",
    "lng": "-86.8150",
    "country": "Nicaragua",
    "iso2": "NI",
    "iso3": "NIC",
    "admin_name": "Chinandega",
    "capital": "minor",
    "population": "25660",
    "id": "1558614186"
  },
  {
    "city": "San Lorenzo",
    "city_ascii": "San Lorenzo",
    "lat": "12.3783",
    "lng": "-85.6661",
    "country": "Nicaragua",
    "iso2": "NI",
    "iso3": "NIC",
    "admin_name": "Boaco",
    "capital": "minor",
    "population": "23666",
    "id": "1558007382"
  },
  {
    "city": "Telica",
    "city_ascii": "Telica",
    "lat": "12.5228",
    "lng": "-86.8597",
    "country": "Nicaragua",
    "iso2": "NI",
    "iso3": "NIC",
    "admin_name": "León",
    "capital": "minor",
    "population": "23266",
    "id": "1558515596"
  },
  {
    "city": "La Cruz de Río Grande",
    "city_ascii": "La Cruz de Rio Grande",
    "lat": "13.1122",
    "lng": "-84.1869",
    "country": "Nicaragua",
    "iso2": "NI",
    "iso3": "NIC",
    "admin_name": "Costa Caribe Sur",
    "capital": "minor",
    "population": "23284",
    "id": "1558703104"
  },
  {
    "city": "Diriomo",
    "city_ascii": "Diriomo",
    "lat": "11.8753",
    "lng": "-86.0519",
    "country": "Nicaragua",
    "iso2": "NI",
    "iso3": "NIC",
    "admin_name": "Granada",
    "capital": "minor",
    "population": "22352",
    "id": "1558287966"
  },
  {
    "city": "Rosita",
    "city_ascii": "Rosita",
    "lat": "13.9239",
    "lng": "-84.3989",
    "country": "Nicaragua",
    "iso2": "NI",
    "iso3": "NIC",
    "admin_name": "Costa Caribe Norte",
    "capital": "minor",
    "population": "22723",
    "id": "1558197649"
  },
  {
    "city": "El Tortuguero",
    "city_ascii": "El Tortuguero",
    "lat": "12.8183",
    "lng": "-84.2006",
    "country": "Nicaragua",
    "iso2": "NI",
    "iso3": "NIC",
    "admin_name": "Costa Caribe Sur",
    "capital": "minor",
    "population": "22324",
    "id": "1558390224"
  },
  {
    "city": "Corinto",
    "city_ascii": "Corinto",
    "lat": "12.4819",
    "lng": "-87.1742",
    "country": "Nicaragua",
    "iso2": "NI",
    "iso3": "NIC",
    "admin_name": "Chinandega",
    "capital": "minor",
    "population": "22000",
    "id": "1558830378"
  },
  {
    "city": "Muelle de los Bueyes",
    "city_ascii": "Muelle de los Bueyes",
    "lat": "12.0664",
    "lng": "-84.5428",
    "country": "Nicaragua",
    "iso2": "NI",
    "iso3": "NIC",
    "admin_name": "Costa Caribe Sur",
    "capital": "minor",
    "population": "22082",
    "id": "1558837878"
  },
  {
    "city": "Tola",
    "city_ascii": "Tola",
    "lat": "11.4392",
    "lng": "-85.9389",
    "country": "Nicaragua",
    "iso2": "NI",
    "iso3": "NIC",
    "admin_name": "Rivas",
    "capital": "minor",
    "population": "22012",
    "id": "1558491249"
  },
  {
    "city": "San Juan de Río Coco",
    "city_ascii": "San Juan de Rio Coco",
    "lat": "13.5444",
    "lng": "-86.1644",
    "country": "Nicaragua",
    "iso2": "NI",
    "iso3": "NIC",
    "admin_name": "Madriz",
    "capital": "minor",
    "population": "21114",
    "id": "1558017262"
  },
  {
    "city": "Pueblo Nuevo",
    "city_ascii": "Pueblo Nuevo",
    "lat": "13.3797",
    "lng": "-86.4808",
    "country": "Nicaragua",
    "iso2": "NI",
    "iso3": "NIC",
    "admin_name": "Estelí",
    "capital": "minor",
    "population": "20620",
    "id": "1558373095"
  },
  {
    "city": "Altagracia",
    "city_ascii": "Altagracia",
    "lat": "11.5672",
    "lng": "-85.5783",
    "country": "Nicaragua",
    "iso2": "NI",
    "iso3": "NIC",
    "admin_name": "Rivas",
    "capital": "minor",
    "population": "19955",
    "id": "1558219497"
  },
  {
    "city": "El Castillo de La Concepción",
    "city_ascii": "El Castillo de La Concepcion",
    "lat": "11.0444",
    "lng": "-84.4719",
    "country": "Nicaragua",
    "iso2": "NI",
    "iso3": "NIC",
    "admin_name": "Río San Juan",
    "capital": "",
    "population": "19864",
    "id": "1558240788"
  },
  {
    "city": "Telpaneca",
    "city_ascii": "Telpaneca",
    "lat": "13.5319",
    "lng": "-86.2872",
    "country": "Nicaragua",
    "iso2": "NI",
    "iso3": "NIC",
    "admin_name": "Madriz",
    "capital": "minor",
    "population": "19025",
    "id": "1558890724"
  },
  {
    "city": "Bonanza",
    "city_ascii": "Bonanza",
    "lat": "14.0275",
    "lng": "-84.6211",
    "country": "Nicaragua",
    "iso2": "NI",
    "iso3": "NIC",
    "admin_name": "Costa Caribe Norte",
    "capital": "minor",
    "population": "18633",
    "id": "1558074379"
  },
  {
    "city": "San Rafael del Norte",
    "city_ascii": "San Rafael del Norte",
    "lat": "13.2128",
    "lng": "-86.1108",
    "country": "Nicaragua",
    "iso2": "NI",
    "iso3": "NIC",
    "admin_name": "Jinotega",
    "capital": "minor",
    "population": "17789",
    "id": "1558286153"
  },
  {
    "city": "San Isidro",
    "city_ascii": "San Isidro",
    "lat": "12.9283",
    "lng": "-86.1922",
    "country": "Nicaragua",
    "iso2": "NI",
    "iso3": "NIC",
    "admin_name": "Matagalpa",
    "capital": "minor",
    "population": "17412",
    "id": "1558059313"
  },
  {
    "city": "San Juan del Sur",
    "city_ascii": "San Juan del Sur",
    "lat": "11.2533",
    "lng": "-85.8708",
    "country": "Nicaragua",
    "iso2": "NI",
    "iso3": "NIC",
    "admin_name": "Rivas",
    "capital": "minor",
    "population": "17104",
    "id": "1558967577"
  },
  {
    "city": "San Miguelito",
    "city_ascii": "San Miguelito",
    "lat": "11.4025",
    "lng": "-84.9003",
    "country": "Nicaragua",
    "iso2": "NI",
    "iso3": "NIC",
    "admin_name": "Río San Juan",
    "capital": "minor",
    "population": "17031",
    "id": "1558918781"
  },
  {
    "city": "Santa Teresa",
    "city_ascii": "Santa Teresa",
    "lat": "11.8039",
    "lng": "-86.1639",
    "country": "Nicaragua",
    "iso2": "NI",
    "iso3": "NIC",
    "admin_name": "Carazo",
    "capital": "",
    "population": "16891",
    "id": "1558632681"
  },
  {
    "city": "Acoyapa",
    "city_ascii": "Acoyapa",
    "lat": "11.9708",
    "lng": "-85.1719",
    "country": "Nicaragua",
    "iso2": "NI",
    "iso3": "NIC",
    "admin_name": "Chontales",
    "capital": "minor",
    "population": "16946",
    "id": "1558571997"
  },
  {
    "city": "Posoltega",
    "city_ascii": "Posoltega",
    "lat": "12.5447",
    "lng": "-86.9792",
    "country": "Nicaragua",
    "iso2": "NI",
    "iso3": "NIC",
    "admin_name": "Chinandega",
    "capital": "minor",
    "population": "16771",
    "id": "1558561951"
  },
  {
    "city": "Belén",
    "city_ascii": "Belen",
    "lat": "11.5028",
    "lng": "-85.8889",
    "country": "Nicaragua",
    "iso2": "NI",
    "iso3": "NIC",
    "admin_name": "Rivas",
    "capital": "minor",
    "population": "16428",
    "id": "1558470755"
  },
  {
    "city": "San Dionisio",
    "city_ascii": "San Dionisio",
    "lat": "12.7625",
    "lng": "-85.8503",
    "country": "Nicaragua",
    "iso2": "NI",
    "iso3": "NIC",
    "admin_name": "Matagalpa",
    "capital": "minor",
    "population": "16273",
    "id": "1558895835"
  },
  {
    "city": "Prinzapolka",
    "city_ascii": "Prinzapolka",
    "lat": "13.5008",
    "lng": "-84.2244",
    "country": "Nicaragua",
    "iso2": "NI",
    "iso3": "NIC",
    "admin_name": "Costa Caribe Norte",
    "capital": "minor",
    "population": "16105",
    "id": "1558643619"
  },
  {
    "city": "Esquipulas",
    "city_ascii": "Esquipulas",
    "lat": "12.6639",
    "lng": "-85.7881",
    "country": "Nicaragua",
    "iso2": "NI",
    "iso3": "NIC",
    "admin_name": "Matagalpa",
    "capital": "minor",
    "population": "15877",
    "id": "1558602400"
  },
  {
    "city": "Niquinohomo",
    "city_ascii": "Niquinohomo",
    "lat": "11.9047",
    "lng": "-86.0956",
    "country": "Nicaragua",
    "iso2": "NI",
    "iso3": "NIC",
    "admin_name": "Masaya",
    "capital": "minor",
    "population": "14847",
    "id": "1558281722"
  },
  {
    "city": "Muy Muy",
    "city_ascii": "Muy Muy",
    "lat": "12.7625",
    "lng": "-85.6289",
    "country": "Nicaragua",
    "iso2": "NI",
    "iso3": "NIC",
    "admin_name": "Matagalpa",
    "capital": "minor",
    "population": "14721",
    "id": "1558387669"
  },
  {
    "city": "Murra",
    "city_ascii": "Murra",
    "lat": "13.7592",
    "lng": "-86.0172",
    "country": "Nicaragua",
    "iso2": "NI",
    "iso3": "NIC",
    "admin_name": "Nueva Segovia",
    "capital": "minor",
    "population": "14487",
    "id": "1558838779"
  },
  {
    "city": "Achuapa",
    "city_ascii": "Achuapa",
    "lat": "13.0536",
    "lng": "-86.5900",
    "country": "Nicaragua",
    "iso2": "NI",
    "iso3": "NIC",
    "admin_name": "León",
    "capital": "minor",
    "population": "13797",
    "id": "1558765003"
  },
  {
    "city": "El Crucero",
    "city_ascii": "El Crucero",
    "lat": "11.9894",
    "lng": "-86.3103",
    "country": "Nicaragua",
    "iso2": "NI",
    "iso3": "NIC",
    "admin_name": "Managua",
    "capital": "minor",
    "population": "13656",
    "id": "1558750409"
  },
  {
    "city": "San Juan de Limay",
    "city_ascii": "San Juan de Limay",
    "lat": "13.1739",
    "lng": "-86.6128",
    "country": "Nicaragua",
    "iso2": "NI",
    "iso3": "NIC",
    "admin_name": "Estelí",
    "capital": "minor",
    "population": "13455",
    "id": "1558155206"
  },
  {
    "city": "El Almendro",
    "city_ascii": "El Almendro",
    "lat": "11.6781",
    "lng": "-84.7014",
    "country": "Nicaragua",
    "iso2": "NI",
    "iso3": "NIC",
    "admin_name": "Río San Juan",
    "capital": "minor",
    "population": "13363",
    "id": "1558104640"
  },
  {
    "city": "Puerto Morazán",
    "city_ascii": "Puerto Morazan",
    "lat": "12.7669",
    "lng": "-87.1317",
    "country": "Nicaragua",
    "iso2": "NI",
    "iso3": "NIC",
    "admin_name": "Chinandega",
    "capital": "",
    "population": "13328",
    "id": "1558742913"
  },
  {
    "city": "Villa Sandino",
    "city_ascii": "Villa Sandino",
    "lat": "12.0500",
    "lng": "-84.9928",
    "country": "Nicaragua",
    "iso2": "NI",
    "iso3": "NIC",
    "admin_name": "Chontales",
    "capital": "minor",
    "population": "13152",
    "id": "1558762382"
  },
  {
    "city": "San Lucas",
    "city_ascii": "San Lucas",
    "lat": "13.4144",
    "lng": "-86.6114",
    "country": "Nicaragua",
    "iso2": "NI",
    "iso3": "NIC",
    "admin_name": "Madriz",
    "capital": "minor",
    "population": "12975",
    "id": "1558795437"
  },
  {
    "city": "Palacagüina",
    "city_ascii": "Palacaguina",
    "lat": "13.4550",
    "lng": "-86.4050",
    "country": "Nicaragua",
    "iso2": "NI",
    "iso3": "NIC",
    "admin_name": "Madriz",
    "capital": "minor",
    "population": "12825",
    "id": "1558692932"
  },
  {
    "city": "Terrabona",
    "city_ascii": "Terrabona",
    "lat": "12.7311",
    "lng": "-85.9650",
    "country": "Nicaragua",
    "iso2": "NI",
    "iso3": "NIC",
    "admin_name": "Matagalpa",
    "capital": "minor",
    "population": "12740",
    "id": "1558844965"
  },
  {
    "city": "El Ayote",
    "city_ascii": "El Ayote",
    "lat": "12.4972",
    "lng": "-84.8181",
    "country": "Nicaragua",
    "iso2": "NI",
    "iso3": "NIC",
    "admin_name": "Chontales",
    "capital": "",
    "population": "12417",
    "id": "1558565622"
  },
  {
    "city": "Santo Domingo",
    "city_ascii": "Santo Domingo",
    "lat": "12.2631",
    "lng": "-85.0822",
    "country": "Nicaragua",
    "iso2": "NI",
    "iso3": "NIC",
    "admin_name": "Chontales",
    "capital": "minor",
    "population": "12182",
    "id": "1558352804"
  },
  {
    "city": "Totogalpa",
    "city_ascii": "Totogalpa",
    "lat": "13.5631",
    "lng": "-86.4917",
    "country": "Nicaragua",
    "iso2": "NI",
    "iso3": "NIC",
    "admin_name": "Madriz",
    "capital": "minor",
    "population": "11927",
    "id": "1558378832"
  },
  {
    "city": "Comalapa",
    "city_ascii": "Comalapa",
    "lat": "12.2842",
    "lng": "-85.5106",
    "country": "Nicaragua",
    "iso2": "NI",
    "iso3": "NIC",
    "admin_name": "Chontales",
    "capital": "minor",
    "population": "11785",
    "id": "1558074780"
  },
  {
    "city": "La Libertad",
    "city_ascii": "La Libertad",
    "lat": "12.2156",
    "lng": "-85.1647",
    "country": "Nicaragua",
    "iso2": "NI",
    "iso3": "NIC",
    "admin_name": "Chontales",
    "capital": "minor",
    "population": "11429",
    "id": "1558065930"
  },
  {
    "city": "Nandasmo",
    "city_ascii": "Nandasmo",
    "lat": "11.9247",
    "lng": "-86.1197",
    "country": "Nicaragua",
    "iso2": "NI",
    "iso3": "NIC",
    "admin_name": "Masaya",
    "capital": "minor",
    "population": "10732",
    "id": "1558448256"
  },
  {
    "city": "Potosí",
    "city_ascii": "Potosi",
    "lat": "11.4942",
    "lng": "-85.8556",
    "country": "Nicaragua",
    "iso2": "NI",
    "iso3": "NIC",
    "admin_name": "Rivas",
    "capital": "minor",
    "population": "11094",
    "id": "1558256706"
  },
  {
    "city": "Tisma",
    "city_ascii": "Tisma",
    "lat": "12.0831",
    "lng": "-86.0167",
    "country": "Nicaragua",
    "iso2": "NI",
    "iso3": "NIC",
    "admin_name": "Masaya",
    "capital": "minor",
    "population": "10681",
    "id": "1558010790"
  },
  {
    "city": "El Realejo",
    "city_ascii": "El Realejo",
    "lat": "12.5428",
    "lng": "-87.1650",
    "country": "Nicaragua",
    "iso2": "NI",
    "iso3": "NIC",
    "admin_name": "Chinandega",
    "capital": "minor",
    "population": "10300",
    "id": "1558231692"
  },
  {
    "city": "El Jicaral",
    "city_ascii": "El Jicaral",
    "lat": "12.7286",
    "lng": "-86.3803",
    "country": "Nicaragua",
    "iso2": "NI",
    "iso3": "NIC",
    "admin_name": "León",
    "capital": "minor",
    "population": "10326",
    "id": "1558715100"
  },
  {
    "city": "Moyogalpa",
    "city_ascii": "Moyogalpa",
    "lat": "11.5403",
    "lng": "-85.6969",
    "country": "Nicaragua",
    "iso2": "NI",
    "iso3": "NIC",
    "admin_name": "Rivas",
    "capital": "minor",
    "population": "9729",
    "id": "1558198586"
  },
  {
    "city": "Yalagüina",
    "city_ascii": "Yalaguina",
    "lat": "13.4858",
    "lng": "-86.4917",
    "country": "Nicaragua",
    "iso2": "NI",
    "iso3": "NIC",
    "admin_name": "Madriz",
    "capital": "minor",
    "population": "9597",
    "id": "1558031609"
  },
  {
    "city": "Santa Rosa del Peñón",
    "city_ascii": "Santa Rosa del Penon",
    "lat": "12.8003",
    "lng": "-86.3689",
    "country": "Nicaragua",
    "iso2": "NI",
    "iso3": "NIC",
    "admin_name": "León",
    "capital": "minor",
    "population": "9529",
    "id": "1558392157"
  },
  {
    "city": "San Francisco Libre",
    "city_ascii": "San Francisco Libre",
    "lat": "12.5061",
    "lng": "-86.2997",
    "country": "Nicaragua",
    "iso2": "NI",
    "iso3": "NIC",
    "admin_name": "Managua",
    "capital": "minor",
    "population": "9416",
    "id": "1558719164"
  },
  {
    "city": "Kukrahill",
    "city_ascii": "Kukrahill",
    "lat": "12.2428",
    "lng": "-83.7486",
    "country": "Nicaragua",
    "iso2": "NI",
    "iso3": "NIC",
    "admin_name": "Costa Caribe Sur",
    "capital": "minor",
    "population": "8790",
    "id": "1558733102"
  },
  {
    "city": "Quezalguaque",
    "city_ascii": "Quezalguaque",
    "lat": "12.5078",
    "lng": "-86.9033",
    "country": "Nicaragua",
    "iso2": "NI",
    "iso3": "NIC",
    "admin_name": "León",
    "capital": "minor",
    "population": "8591",
    "id": "1558204970"
  },
  {
    "city": "San Fernando",
    "city_ascii": "San Fernando",
    "lat": "13.6767",
    "lng": "-86.3144",
    "country": "Nicaragua",
    "iso2": "NI",
    "iso3": "NIC",
    "admin_name": "Nueva Segovia",
    "capital": "minor",
    "population": "8549",
    "id": "1558217254"
  },
  {
    "city": "Greytown",
    "city_ascii": "Greytown",
    "lat": "10.9467",
    "lng": "-83.7358",
    "country": "Nicaragua",
    "iso2": "NI",
    "iso3": "NIC",
    "admin_name": "Río San Juan",
    "capital": "minor",
    "population": "1307",
    "id": "1558125707"
  }
]