[
  {
    "city": "Monrovia",
    "city_ascii": "Monrovia",
    "lat": "6.3133",
    "lng": "-10.8014",
    "country": "Liberia",
    "iso2": "LR",
    "iso3": "LBR",
    "admin_name": "Montserrado",
    "capital": "primary",
    "population": "1021762",
    "id": "1430477826"
  },
  {
    "city": "New Kru Town",
    "city_ascii": "New Kru Town",
    "lat": "6.3733",
    "lng": "-10.7928",
    "country": "Liberia",
    "iso2": "LR",
    "iso3": "LBR",
    "admin_name": "Montserrado",
    "capital": "",
    "population": "84399",
    "id": "1430152542"
  },
  {
    "city": "Gbarnga",
    "city_ascii": "Gbarnga",
    "lat": "6.9980",
    "lng": "-9.4730",
    "country": "Liberia",
    "iso2": "LR",
    "iso3": "LBR",
    "admin_name": "Bong",
    "capital": "admin",
    "population": "45835",
    "id": "1430269323"
  },
  {
    "city": "Buchanan",
    "city_ascii": "Buchanan",
    "lat": "5.8808",
    "lng": "-10.0467",
    "country": "Liberia",
    "iso2": "LR",
    "iso3": "LBR",
    "admin_name": "Grand Bassa",
    "capital": "admin",
    "population": "34270",
    "id": "1430478203"
  },
  {
    "city": "Kakata",
    "city_ascii": "Kakata",
    "lat": "6.5300",
    "lng": "-10.3517",
    "country": "Liberia",
    "iso2": "LR",
    "iso3": "LBR",
    "admin_name": "Margibi",
    "capital": "admin",
    "population": "33945",
    "id": "1430656307"
  },
  {
    "city": "Harper",
    "city_ascii": "Harper",
    "lat": "4.3667",
    "lng": "-7.7167",
    "country": "Liberia",
    "iso2": "LR",
    "iso3": "LBR",
    "admin_name": "Maryland",
    "capital": "admin",
    "population": "32661",
    "id": "1430540258"
  },
  {
    "city": "Voinjama",
    "city_ascii": "Voinjama",
    "lat": "8.4167",
    "lng": "-9.7500",
    "country": "Liberia",
    "iso2": "LR",
    "iso3": "LBR",
    "admin_name": "Lofa",
    "capital": "admin",
    "population": "26594",
    "id": "1430858471"
  },
  {
    "city": "Zwedru",
    "city_ascii": "Zwedru",
    "lat": "6.0667",
    "lng": "-8.1333",
    "country": "Liberia",
    "iso2": "LR",
    "iso3": "LBR",
    "admin_name": "Grand Gedeh",
    "capital": "admin",
    "population": "25678",
    "id": "1430130578"
  },
  {
    "city": "Greenville",
    "city_ascii": "Greenville",
    "lat": "5.0167",
    "lng": "-9.0333",
    "country": "Liberia",
    "iso2": "LR",
    "iso3": "LBR",
    "admin_name": "Sinoe",
    "capital": "admin",
    "population": "16434",
    "id": "1430362799"
  },
  {
    "city": "Tubmanburg",
    "city_ascii": "Tubmanburg",
    "lat": "6.8667",
    "lng": "-10.8167",
    "country": "Liberia",
    "iso2": "LR",
    "iso3": "LBR",
    "admin_name": "Bomi",
    "capital": "admin",
    "population": "13114",
    "id": "1430503114"
  },
  {
    "city": "Robertsport",
    "city_ascii": "Robertsport",
    "lat": "6.7500",
    "lng": "-11.3667",
    "country": "Liberia",
    "iso2": "LR",
    "iso3": "LBR",
    "admin_name": "Grand Cape Mount",
    "capital": "admin",
    "population": "11969",
    "id": "1430885010"
  },
  {
    "city": "Sanniquellie",
    "city_ascii": "Sanniquellie",
    "lat": "7.3622",
    "lng": "-8.7061",
    "country": "Liberia",
    "iso2": "LR",
    "iso3": "LBR",
    "admin_name": "Nimba",
    "capital": "admin",
    "population": "11415",
    "id": "1430949102"
  },
  {
    "city": "Bensonville",
    "city_ascii": "Bensonville",
    "lat": "6.4456",
    "lng": "-10.6097",
    "country": "Liberia",
    "iso2": "LR",
    "iso3": "LBR",
    "admin_name": "Montserrado",
    "capital": "admin",
    "population": "4089",
    "id": "1430964557"
  },
  {
    "city": "Fish Town",
    "city_ascii": "Fish Town",
    "lat": "5.1964",
    "lng": "-7.8756",
    "country": "Liberia",
    "iso2": "LR",
    "iso3": "LBR",
    "admin_name": "River Gee",
    "capital": "admin",
    "population": "3328",
    "id": "1430204172"
  },
  {
    "city": "Bopolu",
    "city_ascii": "Bopolu",
    "lat": "7.0667",
    "lng": "-10.4875",
    "country": "Liberia",
    "iso2": "LR",
    "iso3": "LBR",
    "admin_name": "Gbarpolu",
    "capital": "admin",
    "population": "2908",
    "id": "1430414456"
  },
  {
    "city": "Barclayville",
    "city_ascii": "Barclayville",
    "lat": "4.6797",
    "lng": "-8.2339",
    "country": "Liberia",
    "iso2": "LR",
    "iso3": "LBR",
    "admin_name": "Grand Kru",
    "capital": "admin",
    "population": "2733",
    "id": "1430129873"
  },
  {
    "city": "Cestos City",
    "city_ascii": "Cestos City",
    "lat": "5.4667",
    "lng": "-9.5833",
    "country": "Liberia",
    "iso2": "LR",
    "iso3": "LBR",
    "admin_name": "River Cess",
    "capital": "admin",
    "population": "2578",
    "id": "1430708587"
  },
  {
    "city": "Upper Buchanan",
    "city_ascii": "Upper Buchanan",
    "lat": "5.9161",
    "lng": "-10.0525",
    "country": "Liberia",
    "iso2": "LR",
    "iso3": "LBR",
    "admin_name": "Grand Bassa",
    "capital": "",
    "population": "48315",
    "id": "1430177860"
  },
  {
    "city": "Ganta",
    "city_ascii": "Ganta",
    "lat": "7.2375",
    "lng": "-8.9814",
    "country": "Liberia",
    "iso2": "LR",
    "iso3": "LBR",
    "admin_name": "Nimba",
    "capital": "",
    "population": "41106",
    "id": "1430766691"
  },
  {
    "city": "Harbel",
    "city_ascii": "Harbel",
    "lat": "6.2833",
    "lng": "-10.3500",
    "country": "Liberia",
    "iso2": "LR",
    "iso3": "LBR",
    "admin_name": "Margibi",
    "capital": "",
    "population": "25309",
    "id": "1430289576"
  },
  {
    "city": "Foya Tangia",
    "city_ascii": "Foya Tangia",
    "lat": "8.2713",
    "lng": "-10.2283",
    "country": "Liberia",
    "iso2": "LR",
    "iso3": "LBR",
    "admin_name": "Lofa",
    "capital": "",
    "population": "20569",
    "id": "1430908591"
  },
  {
    "city": "Saclepea",
    "city_ascii": "Saclepea",
    "lat": "7.1167",
    "lng": "-8.8333",
    "country": "Liberia",
    "iso2": "LR",
    "iso3": "LBR",
    "admin_name": "Nimba",
    "capital": "",
    "population": "12117",
    "id": "1430824666"
  }
]