[
  {
    "city": "Lisbon",
    "city_ascii": "Lisbon",
    "lat": "38.7253",
    "lng": "-9.1500",
    "country": "Portugal",
    "iso2": "PT",
    "iso3": "PRT",
    "admin_name": "Lisboa",
    "capital": "primary",
    "population": "2719000",
    "id": "1620619017"
  },
  {
    "city": "Porto",
    "city_ascii": "Porto",
    "lat": "41.1621",
    "lng": "-8.6220",
    "country": "Portugal",
    "iso2": "PT",
    "iso3": "PRT",
    "admin_name": "Porto",
    "capital": "admin",
    "population": "1278210",
    "id": "1620356810"
  },
  {
    "city": "Aves",
    "city_ascii": "Aves",
    "lat": "41.4400",
    "lng": "-8.3000",
    "country": "Portugal",
    "iso2": "PT",
    "iso3": "PRT",
    "admin_name": "Porto",
    "capital": "",
    "population": "425411",
    "id": "1620507201"
  },
  {
    "city": "Sintra",
    "city_ascii": "Sintra",
    "lat": "38.7992",
    "lng": "-9.3883",
    "country": "Portugal",
    "iso2": "PT",
    "iso3": "PRT",
    "admin_name": "Lisboa",
    "capital": "minor",
    "population": "377835",
    "id": "1620848791"
  },
  {
    "city": "Vila Nova de Gaia",
    "city_ascii": "Vila Nova de Gaia",
    "lat": "41.1333",
    "lng": "-8.6167",
    "country": "Portugal",
    "iso2": "PT",
    "iso3": "PRT",
    "admin_name": "Porto",
    "capital": "minor",
    "population": "302295",
    "id": "1620040225"
  },
  {
    "city": "Cascais",
    "city_ascii": "Cascais",
    "lat": "38.7000",
    "lng": "-9.4167",
    "country": "Portugal",
    "iso2": "PT",
    "iso3": "PRT",
    "admin_name": "Lisboa",
    "capital": "minor",
    "population": "206479",
    "id": "1620824685"
  },
  {
    "city": "Loures",
    "city_ascii": "Loures",
    "lat": "38.8333",
    "lng": "-9.1667",
    "country": "Portugal",
    "iso2": "PT",
    "iso3": "PRT",
    "admin_name": "Lisboa",
    "capital": "minor",
    "population": "205054",
    "id": "1620042113"
  },
  {
    "city": "Braga",
    "city_ascii": "Braga",
    "lat": "41.5503",
    "lng": "-8.4200",
    "country": "Portugal",
    "iso2": "PT",
    "iso3": "PRT",
    "admin_name": "Braga",
    "capital": "admin",
    "population": "181494",
    "id": "1620949401"
  },
  {
    "city": "Amadora",
    "city_ascii": "Amadora",
    "lat": "38.7333",
    "lng": "-9.2333",
    "country": "Portugal",
    "iso2": "PT",
    "iso3": "PRT",
    "admin_name": "Lisboa",
    "capital": "minor",
    "population": "175136",
    "id": "1620896557"
  },
  {
    "city": "Almada",
    "city_ascii": "Almada",
    "lat": "38.6803",
    "lng": "-9.1583",
    "country": "Portugal",
    "iso2": "PT",
    "iso3": "PRT",
    "admin_name": "Setúbal",
    "capital": "minor",
    "population": "177268",
    "id": "1620388276"
  },
  {
    "city": "Matosinhos",
    "city_ascii": "Matosinhos",
    "lat": "41.1833",
    "lng": "-8.7000",
    "country": "Portugal",
    "iso2": "PT",
    "iso3": "PRT",
    "admin_name": "Porto",
    "capital": "minor",
    "population": "175478",
    "id": "1620049442"
  },
  {
    "city": "Oeiras",
    "city_ascii": "Oeiras",
    "lat": "38.6833",
    "lng": "-9.3167",
    "country": "Portugal",
    "iso2": "PT",
    "iso3": "PRT",
    "admin_name": "Lisboa",
    "capital": "minor",
    "population": "172120",
    "id": "1620375757"
  },
  {
    "city": "Gondomar",
    "city_ascii": "Gondomar",
    "lat": "41.1500",
    "lng": "-8.5333",
    "country": "Portugal",
    "iso2": "PT",
    "iso3": "PRT",
    "admin_name": "Porto",
    "capital": "minor",
    "population": "168027",
    "id": "1620506259"
  },
  {
    "city": "Seixal",
    "city_ascii": "Seixal",
    "lat": "38.6500",
    "lng": "-9.1000",
    "country": "Portugal",
    "iso2": "PT",
    "iso3": "PRT",
    "admin_name": "Setúbal",
    "capital": "minor",
    "population": "158269",
    "id": "1620870397"
  },
  {
    "city": "Guimarães",
    "city_ascii": "Guimaraes",
    "lat": "41.4500",
    "lng": "-8.3000",
    "country": "Portugal",
    "iso2": "PT",
    "iso3": "PRT",
    "admin_name": "Braga",
    "capital": "minor",
    "population": "158124",
    "id": "1620771539"
  },
  {
    "city": "Odivelas",
    "city_ascii": "Odivelas",
    "lat": "38.7903",
    "lng": "-9.1797",
    "country": "Portugal",
    "iso2": "PT",
    "iso3": "PRT",
    "admin_name": "Lisboa",
    "capital": "minor",
    "population": "144549",
    "id": "1620010482"
  },
  {
    "city": "Coimbra",
    "city_ascii": "Coimbra",
    "lat": "40.2111",
    "lng": "-8.4292",
    "country": "Portugal",
    "iso2": "PT",
    "iso3": "PRT",
    "admin_name": "Coimbra",
    "capital": "admin",
    "population": "143396",
    "id": "1620166724"
  },
  {
    "city": "Vila Franca de Xira",
    "city_ascii": "Vila Franca de Xira",
    "lat": "38.9500",
    "lng": "-8.9833",
    "country": "Portugal",
    "iso2": "PT",
    "iso3": "PRT",
    "admin_name": "Lisboa",
    "capital": "minor",
    "population": "136886",
    "id": "1620859041"
  },
  {
    "city": "Maia",
    "city_ascii": "Maia",
    "lat": "41.2333",
    "lng": "-8.6167",
    "country": "Portugal",
    "iso2": "PT",
    "iso3": "PRT",
    "admin_name": "Porto",
    "capital": "minor",
    "population": "135306",
    "id": "1620000072"
  },
  {
    "city": "Famalicão",
    "city_ascii": "Famalicao",
    "lat": "41.4167",
    "lng": "-8.5167",
    "country": "Portugal",
    "iso2": "PT",
    "iso3": "PRT",
    "admin_name": "Braga",
    "capital": "minor",
    "population": "133832",
    "id": "1620202480"
  },
  {
    "city": "Leiria",
    "city_ascii": "Leiria",
    "lat": "39.7500",
    "lng": "-8.8000",
    "country": "Portugal",
    "iso2": "PT",
    "iso3": "PRT",
    "admin_name": "Leiria",
    "capital": "admin",
    "population": "126897",
    "id": "1620304777"
  },
  {
    "city": "Setúbal",
    "city_ascii": "Setubal",
    "lat": "38.5243",
    "lng": "-8.8926",
    "country": "Portugal",
    "iso2": "PT",
    "iso3": "PRT",
    "admin_name": "Setúbal",
    "capital": "admin",
    "population": "123684",
    "id": "1620174557"
  },
  {
    "city": "Barcelos",
    "city_ascii": "Barcelos",
    "lat": "41.5167",
    "lng": "-8.6167",
    "country": "Portugal",
    "iso2": "PT",
    "iso3": "PRT",
    "admin_name": "Braga",
    "capital": "minor",
    "population": "120391",
    "id": "1620850431"
  },
  {
    "city": "Funchal",
    "city_ascii": "Funchal",
    "lat": "32.6500",
    "lng": "-16.9167",
    "country": "Portugal",
    "iso2": "PT",
    "iso3": "PRT",
    "admin_name": "Madeira",
    "capital": "admin",
    "population": "111892",
    "id": "1620995356"
  },
  {
    "city": "Viseu",
    "city_ascii": "Viseu",
    "lat": "40.6667",
    "lng": "-7.9167",
    "country": "Portugal",
    "iso2": "PT",
    "iso3": "PRT",
    "admin_name": "Viseu",
    "capital": "admin",
    "population": "99274",
    "id": "1620291266"
  },
  {
    "city": "Queluz",
    "city_ascii": "Queluz",
    "lat": "38.7514",
    "lng": "-9.2664",
    "country": "Portugal",
    "iso2": "PT",
    "iso3": "PRT",
    "admin_name": "Lisboa",
    "capital": "",
    "population": "78273",
    "id": "1620896457"
  },
  {
    "city": "Viana do Castelo",
    "city_ascii": "Viana do Castelo",
    "lat": "41.7000",
    "lng": "-8.8333",
    "country": "Portugal",
    "iso2": "PT",
    "iso3": "PRT",
    "admin_name": "Viana do Castelo",
    "capital": "admin",
    "population": "88725",
    "id": "1620680440"
  },
  {
    "city": "Barreiro",
    "city_ascii": "Barreiro",
    "lat": "38.6667",
    "lng": "-9.0667",
    "country": "Portugal",
    "iso2": "PT",
    "iso3": "PRT",
    "admin_name": "Setúbal",
    "capital": "minor",
    "population": "78764",
    "id": "1620760195"
  },
  {
    "city": "Aveiro",
    "city_ascii": "Aveiro",
    "lat": "40.6333",
    "lng": "-8.6500",
    "country": "Portugal",
    "iso2": "PT",
    "iso3": "PRT",
    "admin_name": "Aveiro",
    "capital": "admin",
    "population": "78450",
    "id": "1620555869"
  },
  {
    "city": "Ponta Delgada",
    "city_ascii": "Ponta Delgada",
    "lat": "37.7400",
    "lng": "-25.6700",
    "country": "Portugal",
    "iso2": "PT",
    "iso3": "PRT",
    "admin_name": "Azores",
    "capital": "admin",
    "population": "68809",
    "id": "1620456537"
  },
  {
    "city": "Faro",
    "city_ascii": "Faro",
    "lat": "37.0161",
    "lng": "-7.9350",
    "country": "Portugal",
    "iso2": "PT",
    "iso3": "PRT",
    "admin_name": "Faro",
    "capital": "admin",
    "population": "64560",
    "id": "1620330407"
  },
  {
    "city": "Santarém",
    "city_ascii": "Santarem",
    "lat": "39.2339",
    "lng": "-8.6861",
    "country": "Portugal",
    "iso2": "PT",
    "iso3": "PRT",
    "admin_name": "Santarém",
    "capital": "admin",
    "population": "62200",
    "id": "1620315932"
  },
  {
    "city": "Évora",
    "city_ascii": "Evora",
    "lat": "38.5667",
    "lng": "-7.9000",
    "country": "Portugal",
    "iso2": "PT",
    "iso3": "PRT",
    "admin_name": "Évora",
    "capital": "admin",
    "population": "56596",
    "id": "1620456226"
  },
  {
    "city": "Castelo Branco",
    "city_ascii": "Castelo Branco",
    "lat": "39.8167",
    "lng": "-7.5000",
    "country": "Portugal",
    "iso2": "PT",
    "iso3": "PRT",
    "admin_name": "Castelo Branco",
    "capital": "admin",
    "population": "56109",
    "id": "1620277400"
  },
  {
    "city": "Rio Tinto",
    "city_ascii": "Rio Tinto",
    "lat": "41.1780",
    "lng": "-8.5600",
    "country": "Portugal",
    "iso2": "PT",
    "iso3": "PRT",
    "admin_name": "Porto",
    "capital": "",
    "population": "50713",
    "id": "1620258719"
  },
  {
    "city": "Vila Real",
    "city_ascii": "Vila Real",
    "lat": "41.2958",
    "lng": "-7.7461",
    "country": "Portugal",
    "iso2": "PT",
    "iso3": "PRT",
    "admin_name": "Vila Real",
    "capital": "admin",
    "population": "51850",
    "id": "1620292123"
  },
  {
    "city": "Corroios",
    "city_ascii": "Corroios",
    "lat": "38.6147",
    "lng": "-9.1508",
    "country": "Portugal",
    "iso2": "PT",
    "iso3": "PRT",
    "admin_name": "Setúbal",
    "capital": "",
    "population": "46475",
    "id": "1620361953"
  },
  {
    "city": "Mafamude",
    "city_ascii": "Mafamude",
    "lat": "41.1152",
    "lng": "-8.6036",
    "country": "Portugal",
    "iso2": "PT",
    "iso3": "PRT",
    "admin_name": "Porto",
    "capital": "",
    "population": "38940",
    "id": "1620550022"
  },
  {
    "city": "Ermezinde",
    "city_ascii": "Ermezinde",
    "lat": "41.2170",
    "lng": "-8.5500",
    "country": "Portugal",
    "iso2": "PT",
    "iso3": "PRT",
    "admin_name": "Porto",
    "capital": "",
    "population": "38798",
    "id": "1620357803"
  },
  {
    "city": "Cacém",
    "city_ascii": "Cacem",
    "lat": "38.7704",
    "lng": "-9.3081",
    "country": "Portugal",
    "iso2": "PT",
    "iso3": "PRT",
    "admin_name": "Lisboa",
    "capital": "",
    "population": "21289",
    "id": "1620147105"
  },
  {
    "city": "Guarda",
    "city_ascii": "Guarda",
    "lat": "40.5333",
    "lng": "-7.3333",
    "country": "Portugal",
    "iso2": "PT",
    "iso3": "PRT",
    "admin_name": "Guarda",
    "capital": "admin",
    "population": "42541",
    "id": "1620174984"
  },
  {
    "city": "Agualva",
    "city_ascii": "Agualva",
    "lat": "38.7700",
    "lng": "-9.2988",
    "country": "Portugal",
    "iso2": "PT",
    "iso3": "PRT",
    "admin_name": "Lisboa",
    "capital": "",
    "population": "35824",
    "id": "1620936507"
  },
  {
    "city": "Massamá",
    "city_ascii": "Massama",
    "lat": "38.7568",
    "lng": "-9.2748",
    "country": "Portugal",
    "iso2": "PT",
    "iso3": "PRT",
    "admin_name": "Lisboa",
    "capital": "",
    "population": "28112",
    "id": "1620579552"
  },
  {
    "city": "Senhora da Hora",
    "city_ascii": "Senhora da Hora",
    "lat": "41.1860",
    "lng": "-8.6510",
    "country": "Portugal",
    "iso2": "PT",
    "iso3": "PRT",
    "admin_name": "Porto",
    "capital": "",
    "population": "29000",
    "id": "1620553414"
  },
  {
    "city": "Póvoa de Santa Iria",
    "city_ascii": "Povoa de Santa Iria",
    "lat": "38.8620",
    "lng": "-9.0690",
    "country": "Portugal",
    "iso2": "PT",
    "iso3": "PRT",
    "admin_name": "Lisboa",
    "capital": "",
    "population": "29348",
    "id": "1620229335"
  },
  {
    "city": "Beja",
    "city_ascii": "Beja",
    "lat": "38.0333",
    "lng": "-7.8833",
    "country": "Portugal",
    "iso2": "PT",
    "iso3": "PRT",
    "admin_name": "Beja",
    "capital": "admin",
    "population": "35854",
    "id": "1620050458"
  },
  {
    "city": "Bragança",
    "city_ascii": "Braganca",
    "lat": "41.8067",
    "lng": "-6.7589",
    "country": "Portugal",
    "iso2": "PT",
    "iso3": "PRT",
    "admin_name": "Bragança",
    "capital": "admin",
    "population": "35341",
    "id": "1620281131"
  },
  {
    "city": "Pinhal Novo",
    "city_ascii": "Pinhal Novo",
    "lat": "38.6310",
    "lng": "-8.9140",
    "country": "Portugal",
    "iso2": "PT",
    "iso3": "PRT",
    "admin_name": "Setúbal",
    "capital": "",
    "population": "25000",
    "id": "1620447545"
  },
  {
    "city": "Estoril",
    "city_ascii": "Estoril",
    "lat": "38.7042",
    "lng": "-9.3983",
    "country": "Portugal",
    "iso2": "PT",
    "iso3": "PRT",
    "admin_name": "Lisboa",
    "capital": "",
    "population": "26399",
    "id": "1620528384"
  },
  {
    "city": "Bougado",
    "city_ascii": "Bougado",
    "lat": "41.3370",
    "lng": "-8.5590",
    "country": "Portugal",
    "iso2": "PT",
    "iso3": "PRT",
    "admin_name": "Porto",
    "capital": "",
    "population": "21585",
    "id": "1620755688"
  },
  {
    "city": "Santa Iria da Azóia",
    "city_ascii": "Santa Iria da Azoia",
    "lat": "38.8464",
    "lng": "-9.0881",
    "country": "Portugal",
    "iso2": "PT",
    "iso3": "PRT",
    "admin_name": "Lisboa",
    "capital": "",
    "population": "18240",
    "id": "1620729043"
  },
  {
    "city": "Fânzeres",
    "city_ascii": "Fanzeres",
    "lat": "41.1667",
    "lng": "-8.5333",
    "country": "Portugal",
    "iso2": "PT",
    "iso3": "PRT",
    "admin_name": "Porto",
    "capital": "",
    "population": "23108",
    "id": "1620702776"
  },
  {
    "city": "Portalegre",
    "city_ascii": "Portalegre",
    "lat": "39.3167",
    "lng": "-7.4167",
    "country": "Portugal",
    "iso2": "PT",
    "iso3": "PRT",
    "admin_name": "Portalegre",
    "capital": "admin",
    "population": "24930",
    "id": "1620475518"
  },
  {
    "city": "Falagueira",
    "city_ascii": "Falagueira",
    "lat": "38.7589",
    "lng": "-9.2261",
    "country": "Portugal",
    "iso2": "PT",
    "iso3": "PRT",
    "admin_name": "Lisboa",
    "capital": "",
    "population": "14530",
    "id": "1620164302"
  },
  {
    "city": "São João da Madeira",
    "city_ascii": "Sao Joao da Madeira",
    "lat": "40.8972",
    "lng": "-8.4889",
    "country": "Portugal",
    "iso2": "PT",
    "iso3": "PRT",
    "admin_name": "Aveiro",
    "capital": "minor",
    "population": "21713",
    "id": "1620177884"
  },
  {
    "city": "Sacavém",
    "city_ascii": "Sacavem",
    "lat": "38.7944",
    "lng": "-9.1053",
    "country": "Portugal",
    "iso2": "PT",
    "iso3": "PRT",
    "admin_name": "Lisboa",
    "capital": "",
    "population": "18469",
    "id": "1620849212"
  },
  {
    "city": "Valbom",
    "city_ascii": "Valbom",
    "lat": "41.1333",
    "lng": "-8.5667",
    "country": "Portugal",
    "iso2": "PT",
    "iso3": "PRT",
    "admin_name": "Porto",
    "capital": "",
    "population": "14407",
    "id": "1620089620"
  },
  {
    "city": "Anta",
    "city_ascii": "Anta",
    "lat": "41.0073",
    "lng": "-8.6250",
    "country": "Portugal",
    "iso2": "PT",
    "iso3": "PRT",
    "admin_name": "Aveiro",
    "capital": "",
    "population": "14800",
    "id": "1620706972"
  },
  {
    "city": "Ericeira",
    "city_ascii": "Ericeira",
    "lat": "38.9620",
    "lng": "-9.4180",
    "country": "Portugal",
    "iso2": "PT",
    "iso3": "PRT",
    "admin_name": "Lisboa",
    "capital": "",
    "population": "10260",
    "id": "1620634917"
  },
  {
    "city": "Valadares",
    "city_ascii": "Valadares",
    "lat": "41.0937",
    "lng": "-8.6392",
    "country": "Portugal",
    "iso2": "PT",
    "iso3": "PRT",
    "admin_name": "Porto",
    "capital": "",
    "population": "10678",
    "id": "1620413494"
  },
  {
    "city": "Valongo",
    "city_ascii": "Valongo",
    "lat": "41.1833",
    "lng": "-8.5000",
    "country": "Portugal",
    "iso2": "PT",
    "iso3": "PRT",
    "admin_name": "Porto",
    "capital": "minor",
    "population": "93858",
    "id": "1620725806"
  },
  {
    "city": "Paredes",
    "city_ascii": "Paredes",
    "lat": "41.2000",
    "lng": "-8.3333",
    "country": "Portugal",
    "iso2": "PT",
    "iso3": "PRT",
    "admin_name": "Porto",
    "capital": "minor",
    "population": "86854",
    "id": "1620650523"
  },
  {
    "city": "Vila do Conde",
    "city_ascii": "Vila do Conde",
    "lat": "41.3528",
    "lng": "-8.7444",
    "country": "Portugal",
    "iso2": "PT",
    "iso3": "PRT",
    "admin_name": "Porto",
    "capital": "minor",
    "population": "79533",
    "id": "1620584469"
  },
  {
    "city": "Torres Vedras",
    "city_ascii": "Torres Vedras",
    "lat": "39.0833",
    "lng": "-9.2667",
    "country": "Portugal",
    "iso2": "PT",
    "iso3": "PRT",
    "admin_name": "Lisboa",
    "capital": "minor",
    "population": "79465",
    "id": "1620003589"
  },
  {
    "city": "Mafra",
    "city_ascii": "Mafra",
    "lat": "38.9411",
    "lng": "-9.3319",
    "country": "Portugal",
    "iso2": "PT",
    "iso3": "PRT",
    "admin_name": "Lisboa",
    "capital": "minor",
    "population": "76685",
    "id": "1620095714"
  },
  {
    "city": "Penafiel",
    "city_ascii": "Penafiel",
    "lat": "41.2060",
    "lng": "-8.2840",
    "country": "Portugal",
    "iso2": "PT",
    "iso3": "PRT",
    "admin_name": "Porto",
    "capital": "minor",
    "population": "72265",
    "id": "1620996272"
  },
  {
    "city": "Santo Tirso",
    "city_ascii": "Santo Tirso",
    "lat": "41.3333",
    "lng": "-8.4667",
    "country": "Portugal",
    "iso2": "PT",
    "iso3": "PRT",
    "admin_name": "Porto",
    "capital": "minor",
    "population": "71530",
    "id": "1620557735"
  },
  {
    "city": "Loulé",
    "city_ascii": "Loule",
    "lat": "37.1500",
    "lng": "-8.0000",
    "country": "Portugal",
    "iso2": "PT",
    "iso3": "PRT",
    "admin_name": "Faro",
    "capital": "minor",
    "population": "70622",
    "id": "1620028270"
  },
  {
    "city": "Oliveira de Azemeis",
    "city_ascii": "Oliveira de Azemeis",
    "lat": "40.8400",
    "lng": "-8.4750",
    "country": "Portugal",
    "iso2": "PT",
    "iso3": "PRT",
    "admin_name": "Aveiro",
    "capital": "minor",
    "population": "68611",
    "id": "1620421310"
  },
  {
    "city": "Moita",
    "city_ascii": "Moita",
    "lat": "38.6500",
    "lng": "-8.9833",
    "country": "Portugal",
    "iso2": "PT",
    "iso3": "PRT",
    "admin_name": "Setúbal",
    "capital": "minor",
    "population": "66029",
    "id": "1620000010"
  },
  {
    "city": "Póvoa de Varzim",
    "city_ascii": "Povoa de Varzim",
    "lat": "41.3800",
    "lng": "-8.7608",
    "country": "Portugal",
    "iso2": "PT",
    "iso3": "PRT",
    "admin_name": "Porto",
    "capital": "minor",
    "population": "63408",
    "id": "1620617429"
  },
  {
    "city": "Palmela",
    "city_ascii": "Palmela",
    "lat": "38.5667",
    "lng": "-8.9000",
    "country": "Portugal",
    "iso2": "PT",
    "iso3": "PRT",
    "admin_name": "Setúbal",
    "capital": "minor",
    "population": "62831",
    "id": "1620934052"
  },
  {
    "city": "Figueira da Foz",
    "city_ascii": "Figueira da Foz",
    "lat": "40.1500",
    "lng": "-8.8500",
    "country": "Portugal",
    "iso2": "PT",
    "iso3": "PRT",
    "admin_name": "Coimbra",
    "capital": "minor",
    "population": "62125",
    "id": "1620826473"
  },
  {
    "city": "Felgueiras",
    "city_ascii": "Felgueiras",
    "lat": "41.3667",
    "lng": "-8.2000",
    "country": "Portugal",
    "iso2": "PT",
    "iso3": "PRT",
    "admin_name": "Porto",
    "capital": "minor",
    "population": "58065",
    "id": "1620928002"
  },
  {
    "city": "Paços de Ferreira",
    "city_ascii": "Pacos de Ferreira",
    "lat": "41.2667",
    "lng": "-8.4000",
    "country": "Portugal",
    "iso2": "PT",
    "iso3": "PRT",
    "admin_name": "Porto",
    "capital": "minor",
    "population": "56340",
    "id": "1620222597"
  },
  {
    "city": "Alcobaça",
    "city_ascii": "Alcobaca",
    "lat": "39.5528",
    "lng": "-8.9778",
    "country": "Portugal",
    "iso2": "PT",
    "iso3": "PRT",
    "admin_name": "Leiria",
    "capital": "minor",
    "population": "56693",
    "id": "1620702700"
  },
  {
    "city": "Amarante",
    "city_ascii": "Amarante",
    "lat": "41.2667",
    "lng": "-8.0667",
    "country": "Portugal",
    "iso2": "PT",
    "iso3": "PRT",
    "admin_name": "Porto",
    "capital": "minor",
    "population": "56264",
    "id": "1620688725"
  },
  {
    "city": "Portimão",
    "city_ascii": "Portimao",
    "lat": "37.1369",
    "lng": "-8.5383",
    "country": "Portugal",
    "iso2": "PT",
    "iso3": "PRT",
    "admin_name": "Faro",
    "capital": "minor",
    "population": "55614",
    "id": "1620859274"
  },
  {
    "city": "Ovar",
    "city_ascii": "Ovar",
    "lat": "40.8667",
    "lng": "-8.6333",
    "country": "Portugal",
    "iso2": "PT",
    "iso3": "PRT",
    "admin_name": "Aveiro",
    "capital": "minor",
    "population": "55398",
    "id": "1620832613"
  },
  {
    "city": "Pombal",
    "city_ascii": "Pombal",
    "lat": "39.9161",
    "lng": "-8.6281",
    "country": "Portugal",
    "iso2": "PT",
    "iso3": "PRT",
    "admin_name": "Leiria",
    "capital": "minor",
    "population": "55217",
    "id": "1620430100"
  },
  {
    "city": "Marco de Canavezes",
    "city_ascii": "Marco de Canavezes",
    "lat": "41.1833",
    "lng": "-8.1500",
    "country": "Portugal",
    "iso2": "PT",
    "iso3": "PRT",
    "admin_name": "Porto",
    "capital": "minor",
    "population": "53450",
    "id": "1620534118"
  },
  {
    "city": "Caldas da Rainha",
    "city_ascii": "Caldas da Rainha",
    "lat": "39.4072",
    "lng": "-9.1358",
    "country": "Portugal",
    "iso2": "PT",
    "iso3": "PRT",
    "admin_name": "Leiria",
    "capital": "minor",
    "population": "51729",
    "id": "1620164622"
  },
  {
    "city": "Covilhã",
    "city_ascii": "Covilha",
    "lat": "40.2833",
    "lng": "-7.5000",
    "country": "Portugal",
    "iso2": "PT",
    "iso3": "PRT",
    "admin_name": "Castelo Branco",
    "capital": "minor",
    "population": "51797",
    "id": "1620284248"
  },
  {
    "city": "Montijo",
    "city_ascii": "Montijo",
    "lat": "38.6833",
    "lng": "-8.9000",
    "country": "Portugal",
    "iso2": "PT",
    "iso3": "PRT",
    "admin_name": "Setúbal",
    "capital": "minor",
    "population": "51222",
    "id": "1620226078"
  },
  {
    "city": "Fafe",
    "city_ascii": "Fafe",
    "lat": "41.4500",
    "lng": "-8.1667",
    "country": "Portugal",
    "iso2": "PT",
    "iso3": "PRT",
    "admin_name": "Braga",
    "capital": "minor",
    "population": "50633",
    "id": "1620607091"
  },
  {
    "city": "Amora",
    "city_ascii": "Amora",
    "lat": "38.6265",
    "lng": "-9.1189",
    "country": "Portugal",
    "iso2": "PT",
    "iso3": "PRT",
    "admin_name": "Setúbal",
    "capital": "",
    "population": "48629",
    "id": "1620947611"
  },
  {
    "city": "Sesimbra",
    "city_ascii": "Sesimbra",
    "lat": "38.4437",
    "lng": "-9.0996",
    "country": "Portugal",
    "iso2": "PT",
    "iso3": "PRT",
    "admin_name": "Setúbal",
    "capital": "minor",
    "population": "49500",
    "id": "1620008532"
  },
  {
    "city": "Vila Verde",
    "city_ascii": "Vila Verde",
    "lat": "41.6500",
    "lng": "-8.4333",
    "country": "Portugal",
    "iso2": "PT",
    "iso3": "PRT",
    "admin_name": "Braga",
    "capital": "minor",
    "population": "47888",
    "id": "1620759791"
  },
  {
    "city": "Rio de Mouro",
    "city_ascii": "Rio de Mouro",
    "lat": "38.7689",
    "lng": "-9.3327",
    "country": "Portugal",
    "iso2": "PT",
    "iso3": "PRT",
    "admin_name": "Lisboa",
    "capital": "",
    "population": "47311",
    "id": "1620970003"
  },
  {
    "city": "Lousada",
    "city_ascii": "Lousada",
    "lat": "41.3000",
    "lng": "-8.2400",
    "country": "Portugal",
    "iso2": "PT",
    "iso3": "PRT",
    "admin_name": "Porto",
    "capital": "minor",
    "population": "47387",
    "id": "1620988419"
  },
  {
    "city": "Águeda",
    "city_ascii": "Agueda",
    "lat": "40.5744",
    "lng": "-8.4481",
    "country": "Portugal",
    "iso2": "PT",
    "iso3": "PRT",
    "admin_name": "Aveiro",
    "capital": "minor",
    "population": "47729",
    "id": "1620290042"
  },
  {
    "city": "Ourém",
    "city_ascii": "Ourem",
    "lat": "39.6500",
    "lng": "-8.5667",
    "country": "Portugal",
    "iso2": "PT",
    "iso3": "PRT",
    "admin_name": "Santarém",
    "capital": "minor",
    "population": "45932",
    "id": "1620510353"
  },
  {
    "city": "Olhão",
    "city_ascii": "Olhao",
    "lat": "37.0260",
    "lng": "-7.8410",
    "country": "Portugal",
    "iso2": "PT",
    "iso3": "PRT",
    "admin_name": "Faro",
    "capital": "minor",
    "population": "45396",
    "id": "1620090779"
  },
  {
    "city": "Albufeira",
    "city_ascii": "Albufeira",
    "lat": "37.0897",
    "lng": "-8.2458",
    "country": "Portugal",
    "iso2": "PT",
    "iso3": "PRT",
    "admin_name": "Faro",
    "capital": "minor",
    "population": "44168",
    "id": "1620078404"
  },
  {
    "city": "Ponte de Lima",
    "city_ascii": "Ponte de Lima",
    "lat": "41.7667",
    "lng": "-8.5667",
    "country": "Portugal",
    "iso2": "PT",
    "iso3": "PRT",
    "admin_name": "Viana do Castelo",
    "capital": "minor",
    "population": "43498",
    "id": "1620557012"
  },
  {
    "city": "Santa Cruz",
    "city_ascii": "Santa Cruz",
    "lat": "32.6833",
    "lng": "-16.8000",
    "country": "Portugal",
    "iso2": "PT",
    "iso3": "PRT",
    "admin_name": "Madeira",
    "capital": "",
    "population": "43005",
    "id": "1620409939"
  },
  {
    "city": "Alenquer",
    "city_ascii": "Alenquer",
    "lat": "39.0500",
    "lng": "-9.0167",
    "country": "Portugal",
    "iso2": "PT",
    "iso3": "PRT",
    "admin_name": "Lisboa",
    "capital": "minor",
    "population": "43267",
    "id": "1620149244"
  },
  {
    "city": "Chaves",
    "city_ascii": "Chaves",
    "lat": "41.7406",
    "lng": "-7.4714",
    "country": "Portugal",
    "iso2": "PT",
    "iso3": "PRT",
    "admin_name": "Vila Real",
    "capital": "minor",
    "population": "41243",
    "id": "1620516049"
  },
  {
    "city": "Tomar",
    "city_ascii": "Tomar",
    "lat": "39.6000",
    "lng": "-8.4167",
    "country": "Portugal",
    "iso2": "PT",
    "iso3": "PRT",
    "admin_name": "Santarém",
    "capital": "minor",
    "population": "40677",
    "id": "1620168091"
  },
  {
    "city": "Trofa",
    "city_ascii": "Trofa",
    "lat": "41.3374",
    "lng": "-8.5596",
    "country": "Portugal",
    "iso2": "PT",
    "iso3": "PRT",
    "admin_name": "Porto",
    "capital": "minor",
    "population": "38999",
    "id": "1620889916"
  },
  {
    "city": "Abrantes",
    "city_ascii": "Abrantes",
    "lat": "39.4633",
    "lng": "-8.1975",
    "country": "Portugal",
    "iso2": "PT",
    "iso3": "PRT",
    "admin_name": "Santarém",
    "capital": "minor",
    "population": "39325",
    "id": "1620417746"
  },
  {
    "city": "Ílhavo",
    "city_ascii": "Ilhavo",
    "lat": "40.6000",
    "lng": "-8.6667",
    "country": "Portugal",
    "iso2": "PT",
    "iso3": "PRT",
    "admin_name": "Aveiro",
    "capital": "minor",
    "population": "38598",
    "id": "1620545975"
  },
  {
    "city": "Marinha Grande",
    "city_ascii": "Marinha Grande",
    "lat": "39.7500",
    "lng": "-8.9333",
    "country": "Portugal",
    "iso2": "PT",
    "iso3": "PRT",
    "admin_name": "Leiria",
    "capital": "minor",
    "population": "38681",
    "id": "1620186271"
  },
  {
    "city": "Silves",
    "city_ascii": "Silves",
    "lat": "37.1869",
    "lng": "-8.4389",
    "country": "Portugal",
    "iso2": "PT",
    "iso3": "PRT",
    "admin_name": "Faro",
    "capital": "minor",
    "population": "37126",
    "id": "1620801770"
  },
  {
    "city": "Torres Novas",
    "city_ascii": "Torres Novas",
    "lat": "39.4667",
    "lng": "-8.5333",
    "country": "Portugal",
    "iso2": "PT",
    "iso3": "PRT",
    "admin_name": "Santarém",
    "capital": "minor",
    "population": "36717",
    "id": "1620693421"
  },
  {
    "city": "Cantanhede",
    "city_ascii": "Cantanhede",
    "lat": "40.3462",
    "lng": "-8.5941",
    "country": "Portugal",
    "iso2": "PT",
    "iso3": "PRT",
    "admin_name": "Coimbra",
    "capital": "minor",
    "population": "36595",
    "id": "1620294454"
  },
  {
    "city": "Câmara de Lobos",
    "city_ascii": "Camara de Lobos",
    "lat": "32.6953",
    "lng": "-16.9781",
    "country": "Portugal",
    "iso2": "PT",
    "iso3": "PRT",
    "admin_name": "Madeira",
    "capital": "",
    "population": "35666",
    "id": "1620560549"
  },
  {
    "city": "Angra do Heroísmo",
    "city_ascii": "Angra do Heroismo",
    "lat": "38.6558",
    "lng": "-27.2153",
    "country": "Portugal",
    "iso2": "PT",
    "iso3": "PRT",
    "admin_name": "Azores",
    "capital": "",
    "population": "35402",
    "id": "1620152939"
  },
  {
    "city": "Esposende",
    "city_ascii": "Esposende",
    "lat": "41.5333",
    "lng": "-8.7833",
    "country": "Portugal",
    "iso2": "PT",
    "iso3": "PRT",
    "admin_name": "Braga",
    "capital": "minor",
    "population": "34254",
    "id": "1620944667"
  },
  {
    "city": "Espinho",
    "city_ascii": "Espinho",
    "lat": "41.0100",
    "lng": "-8.6400",
    "country": "Portugal",
    "iso2": "PT",
    "iso3": "PRT",
    "admin_name": "Aveiro",
    "capital": "minor",
    "population": "31027",
    "id": "1620002917"
  },
  {
    "city": "Ribeira Grande",
    "city_ascii": "Ribeira Grande",
    "lat": "37.8167",
    "lng": "-25.5167",
    "country": "Portugal",
    "iso2": "PT",
    "iso3": "PRT",
    "admin_name": "Azores",
    "capital": "",
    "population": "32112",
    "id": "1620024564"
  },
  {
    "city": "Lagos",
    "city_ascii": "Lagos",
    "lat": "37.1028",
    "lng": "-8.6728",
    "country": "Portugal",
    "iso2": "PT",
    "iso3": "PRT",
    "admin_name": "Faro",
    "capital": "minor",
    "population": "31049",
    "id": "1620635530"
  },
  {
    "city": "Santiago do Cacém",
    "city_ascii": "Santiago do Cacem",
    "lat": "38.0167",
    "lng": "-8.7000",
    "country": "Portugal",
    "iso2": "PT",
    "iso3": "PRT",
    "admin_name": "Setúbal",
    "capital": "minor",
    "population": "29749",
    "id": "1620952831"
  },
  {
    "city": "Anadia",
    "city_ascii": "Anadia",
    "lat": "40.4333",
    "lng": "-8.4333",
    "country": "Portugal",
    "iso2": "PT",
    "iso3": "PRT",
    "admin_name": "Aveiro",
    "capital": "minor",
    "population": "29150",
    "id": "1620362655"
  },
  {
    "city": "Fundão",
    "city_ascii": "Fundao",
    "lat": "40.1333",
    "lng": "-7.5000",
    "country": "Portugal",
    "iso2": "PT",
    "iso3": "PRT",
    "admin_name": "Castelo Branco",
    "capital": "minor",
    "population": "29213",
    "id": "1620544097"
  },
  {
    "city": "Benavente",
    "city_ascii": "Benavente",
    "lat": "38.9667",
    "lng": "-8.8000",
    "country": "Portugal",
    "iso2": "PT",
    "iso3": "PRT",
    "admin_name": "Santarém",
    "capital": "minor",
    "population": "29019",
    "id": "1620484545"
  },
  {
    "city": "Tondela",
    "city_ascii": "Tondela",
    "lat": "40.5167",
    "lng": "-8.0833",
    "country": "Portugal",
    "iso2": "PT",
    "iso3": "PRT",
    "admin_name": "Viseu",
    "capital": "minor",
    "population": "28946",
    "id": "1620042884"
  },
  {
    "city": "Águas Santas",
    "city_ascii": "Aguas Santas",
    "lat": "41.2090",
    "lng": "-8.5890",
    "country": "Portugal",
    "iso2": "PT",
    "iso3": "PRT",
    "admin_name": "Porto",
    "capital": "",
    "population": "27470",
    "id": "1620762299"
  },
  {
    "city": "Peniche",
    "city_ascii": "Peniche",
    "lat": "39.3500",
    "lng": "-9.3667",
    "country": "Portugal",
    "iso2": "PT",
    "iso3": "PRT",
    "admin_name": "Leiria",
    "capital": "minor",
    "population": "27753",
    "id": "1620744996"
  },
  {
    "city": "Estarreja",
    "city_ascii": "Estarreja",
    "lat": "40.7500",
    "lng": "-8.5667",
    "country": "Portugal",
    "iso2": "PT",
    "iso3": "PRT",
    "admin_name": "Aveiro",
    "capital": "minor",
    "population": "26997",
    "id": "1620391989"
  },
  {
    "city": "Lamego",
    "city_ascii": "Lamego",
    "lat": "41.1008",
    "lng": "-7.8100",
    "country": "Portugal",
    "iso2": "PT",
    "iso3": "PRT",
    "admin_name": "Viseu",
    "capital": "minor",
    "population": "26691",
    "id": "1620221228"
  },
  {
    "city": "Montemor-o-Velho",
    "city_ascii": "Montemor-o-Velho",
    "lat": "40.1667",
    "lng": "-8.6833",
    "country": "Portugal",
    "iso2": "PT",
    "iso3": "PRT",
    "admin_name": "Coimbra",
    "capital": "minor",
    "population": "26171",
    "id": "1620287392"
  },
  {
    "city": "Tavira",
    "city_ascii": "Tavira",
    "lat": "37.1167",
    "lng": "-7.6500",
    "country": "Portugal",
    "iso2": "PT",
    "iso3": "PRT",
    "admin_name": "Faro",
    "capital": "minor",
    "population": "26167",
    "id": "1620756467"
  },
  {
    "city": "Odemira",
    "city_ascii": "Odemira",
    "lat": "37.5833",
    "lng": "-8.6333",
    "country": "Portugal",
    "iso2": "PT",
    "iso3": "PRT",
    "admin_name": "Beja",
    "capital": "minor",
    "population": "26066",
    "id": "1620717332"
  },
  {
    "city": "Lourinhã",
    "city_ascii": "Lourinha",
    "lat": "39.2333",
    "lng": "-9.3000",
    "country": "Portugal",
    "iso2": "PT",
    "iso3": "PRT",
    "admin_name": "Lisboa",
    "capital": "minor",
    "population": "25735",
    "id": "1620671850"
  },
  {
    "city": "Albergaria-a-Velha",
    "city_ascii": "Albergaria-a-Velha",
    "lat": "40.6936",
    "lng": "-8.4806",
    "country": "Portugal",
    "iso2": "PT",
    "iso3": "PRT",
    "admin_name": "Aveiro",
    "capital": "minor",
    "population": "25252",
    "id": "1620890833"
  },
  {
    "city": "São Mamede de Infesta",
    "city_ascii": "Sao Mamede de Infesta",
    "lat": "41.2000",
    "lng": "-8.6000",
    "country": "Portugal",
    "iso2": "PT",
    "iso3": "PRT",
    "admin_name": "Porto",
    "capital": "",
    "population": "23122",
    "id": "1620906554"
  },
  {
    "city": "Seia",
    "city_ascii": "Seia",
    "lat": "40.4220",
    "lng": "-7.7024",
    "country": "Portugal",
    "iso2": "PT",
    "iso3": "PRT",
    "admin_name": "Guarda",
    "capital": "minor",
    "population": "24702",
    "id": "1620376674"
  },
  {
    "city": "Vizela",
    "city_ascii": "Vizela",
    "lat": "41.3667",
    "lng": "-8.2667",
    "country": "Portugal",
    "iso2": "PT",
    "iso3": "PRT",
    "admin_name": "Porto",
    "capital": "",
    "population": "23736",
    "id": "1620166206"
  },
  {
    "city": "Cartaxo",
    "city_ascii": "Cartaxo",
    "lat": "39.1500",
    "lng": "-8.7833",
    "country": "Portugal",
    "iso2": "PT",
    "iso3": "PRT",
    "admin_name": "Santarém",
    "capital": "minor",
    "population": "24462",
    "id": "1620745841"
  },
  {
    "city": "Porto de Mós",
    "city_ascii": "Porto de Mos",
    "lat": "39.6017",
    "lng": "-8.8175",
    "country": "Portugal",
    "iso2": "PT",
    "iso3": "PRT",
    "admin_name": "Leiria",
    "capital": "minor",
    "population": "24342",
    "id": "1620575221"
  },
  {
    "city": "Mirandela",
    "city_ascii": "Mirandela",
    "lat": "41.4853",
    "lng": "-7.1817",
    "country": "Portugal",
    "iso2": "PT",
    "iso3": "PRT",
    "admin_name": "Bragança",
    "capital": "minor",
    "population": "23850",
    "id": "1620845288"
  },
  {
    "city": "Almeirim",
    "city_ascii": "Almeirim",
    "lat": "39.2000",
    "lng": "-8.6167",
    "country": "Portugal",
    "iso2": "PT",
    "iso3": "PRT",
    "admin_name": "Santarém",
    "capital": "minor",
    "population": "23376",
    "id": "1620738863"
  },
  {
    "city": "Caniço",
    "city_ascii": "Canico",
    "lat": "32.6412",
    "lng": "-16.8504",
    "country": "Portugal",
    "iso2": "PT",
    "iso3": "PRT",
    "admin_name": "Madeira",
    "capital": "",
    "population": "23361",
    "id": "1620433583"
  },
  {
    "city": "Oliveira do Bairro",
    "city_ascii": "Oliveira do Bairro",
    "lat": "40.5167",
    "lng": "-8.5000",
    "country": "Portugal",
    "iso2": "PT",
    "iso3": "PRT",
    "admin_name": "Aveiro",
    "capital": "minor",
    "population": "23028",
    "id": "1620488479"
  },
  {
    "city": "Lagoa",
    "city_ascii": "Lagoa",
    "lat": "37.1333",
    "lng": "-8.4500",
    "country": "Portugal",
    "iso2": "PT",
    "iso3": "PRT",
    "admin_name": "Faro",
    "capital": "minor",
    "population": "22975",
    "id": "1620217287"
  },
  {
    "city": "Vale de Cambra",
    "city_ascii": "Vale de Cambra",
    "lat": "40.8500",
    "lng": "-8.4000",
    "country": "Portugal",
    "iso2": "PT",
    "iso3": "PRT",
    "admin_name": "Aveiro",
    "capital": "minor",
    "population": "22864",
    "id": "1620033828"
  },
  {
    "city": "Vagos",
    "city_ascii": "Vagos",
    "lat": "40.5500",
    "lng": "-8.6833",
    "country": "Portugal",
    "iso2": "PT",
    "iso3": "PRT",
    "admin_name": "Aveiro",
    "capital": "minor",
    "population": "22851",
    "id": "1620705657"
  },
  {
    "city": "Arcos de Valdevez",
    "city_ascii": "Arcos de Valdevez",
    "lat": "41.8472",
    "lng": "-8.4186",
    "country": "Portugal",
    "iso2": "PT",
    "iso3": "PRT",
    "admin_name": "Viana do Castelo",
    "capital": "minor",
    "population": "22847",
    "id": "1620183489"
  },
  {
    "city": "Arouca",
    "city_ascii": "Arouca",
    "lat": "40.9338",
    "lng": "-8.2449",
    "country": "Portugal",
    "iso2": "PT",
    "iso3": "PRT",
    "admin_name": "Aveiro",
    "capital": "minor",
    "population": "22359",
    "id": "1620642425"
  },
  {
    "city": "Salvaterra de Magos",
    "city_ascii": "Salvaterra de Magos",
    "lat": "39.0167",
    "lng": "-8.7833",
    "country": "Portugal",
    "iso2": "PT",
    "iso3": "PRT",
    "admin_name": "Santarém",
    "capital": "minor",
    "population": "22159",
    "id": "1620916588"
  },
  {
    "city": "Machico",
    "city_ascii": "Machico",
    "lat": "32.7000",
    "lng": "-16.7667",
    "country": "Portugal",
    "iso2": "PT",
    "iso3": "PRT",
    "admin_name": "Madeira",
    "capital": "",
    "population": "21828",
    "id": "1620563649"
  },
  {
    "city": "Belas",
    "city_ascii": "Belas",
    "lat": "38.7754",
    "lng": "-9.2716",
    "country": "Portugal",
    "iso2": "PT",
    "iso3": "PRT",
    "admin_name": "Lisboa",
    "capital": "",
    "population": "21172",
    "id": "1620052831"
  },
  {
    "city": "Póvoa de Lanhoso",
    "city_ascii": "Povoa de Lanhoso",
    "lat": "41.5667",
    "lng": "-8.2667",
    "country": "Portugal",
    "iso2": "PT",
    "iso3": "PRT",
    "admin_name": "Braga",
    "capital": "minor",
    "population": "21886",
    "id": "1620452875"
  },
  {
    "city": "Azambuja",
    "city_ascii": "Azambuja",
    "lat": "39.0667",
    "lng": "-8.8667",
    "country": "Portugal",
    "iso2": "PT",
    "iso3": "PRT",
    "admin_name": "Lisboa",
    "capital": "minor",
    "population": "21814",
    "id": "1620393026"
  },
  {
    "city": "Entroncamento",
    "city_ascii": "Entroncamento",
    "lat": "39.4653",
    "lng": "-8.4681",
    "country": "Portugal",
    "iso2": "PT",
    "iso3": "PRT",
    "admin_name": "Santarém",
    "capital": "minor",
    "population": "20206",
    "id": "1620318542"
  },
  {
    "city": "Alfena",
    "city_ascii": "Alfena",
    "lat": "41.2381",
    "lng": "-8.5253",
    "country": "Portugal",
    "iso2": "PT",
    "iso3": "PRT",
    "admin_name": "Porto",
    "capital": "",
    "population": "20000",
    "id": "1620416709"
  },
  {
    "city": "Rio Maior",
    "city_ascii": "Rio Maior",
    "lat": "39.3333",
    "lng": "-8.9333",
    "country": "Portugal",
    "iso2": "PT",
    "iso3": "PRT",
    "admin_name": "Santarém",
    "capital": "minor",
    "population": "21192",
    "id": "1620036651"
  },
  {
    "city": "Praia da Vitória",
    "city_ascii": "Praia da Vitoria",
    "lat": "38.7333",
    "lng": "-27.0667",
    "country": "Portugal",
    "iso2": "PT",
    "iso3": "PRT",
    "admin_name": "Azores",
    "capital": "",
    "population": "21035",
    "id": "1620566017"
  },
  {
    "city": "Oliveira do Hospital",
    "city_ascii": "Oliveira do Hospital",
    "lat": "40.3589",
    "lng": "-7.8625",
    "country": "Portugal",
    "iso2": "PT",
    "iso3": "PRT",
    "admin_name": "Coimbra",
    "capital": "minor",
    "population": "20855",
    "id": "1620792410"
  },
  {
    "city": "Elvas",
    "city_ascii": "Elvas",
    "lat": "38.8667",
    "lng": "-7.1500",
    "country": "Portugal",
    "iso2": "PT",
    "iso3": "PRT",
    "admin_name": "Portalegre",
    "capital": "minor",
    "population": "20706",
    "id": "1620193707"
  },
  {
    "city": "Baião",
    "city_ascii": "Baiao",
    "lat": "41.1667",
    "lng": "-8.0333",
    "country": "Portugal",
    "iso2": "PT",
    "iso3": "PRT",
    "admin_name": "Porto",
    "capital": "minor",
    "population": "20522",
    "id": "1620277576"
  },
  {
    "city": "Mealhada",
    "city_ascii": "Mealhada",
    "lat": "40.3833",
    "lng": "-8.4500",
    "country": "Portugal",
    "iso2": "PT",
    "iso3": "PRT",
    "admin_name": "Aveiro",
    "capital": "minor",
    "population": "20428",
    "id": "1620589603"
  },
  {
    "city": "Cinfães",
    "city_ascii": "Cinfaes",
    "lat": "41.1000",
    "lng": "-8.1333",
    "country": "Portugal",
    "iso2": "PT",
    "iso3": "PRT",
    "admin_name": "Viseu",
    "capital": "minor",
    "population": "20427",
    "id": "1620729048"
  },
  {
    "city": "Celorico de Basto",
    "city_ascii": "Celorico de Basto",
    "lat": "41.3833",
    "lng": "-8.0000",
    "country": "Portugal",
    "iso2": "PT",
    "iso3": "PRT",
    "admin_name": "Braga",
    "capital": "minor",
    "population": "20098",
    "id": "1620638780"
  },
  {
    "city": "Mangualde",
    "city_ascii": "Mangualde",
    "lat": "40.6042",
    "lng": "-7.7611",
    "country": "Portugal",
    "iso2": "PT",
    "iso3": "PRT",
    "admin_name": "Viseu",
    "capital": "minor",
    "population": "19880",
    "id": "1620643689"
  },
  {
    "city": "Coruche",
    "city_ascii": "Coruche",
    "lat": "38.9569",
    "lng": "-8.5269",
    "country": "Portugal",
    "iso2": "PT",
    "iso3": "PRT",
    "admin_name": "Santarém",
    "capital": "minor",
    "population": "19944",
    "id": "1620431702"
  },
  {
    "city": "Vila Real de Santo António",
    "city_ascii": "Vila Real de Santo Antonio",
    "lat": "37.1939",
    "lng": "-7.4158",
    "country": "Portugal",
    "iso2": "PT",
    "iso3": "PRT",
    "admin_name": "Faro",
    "capital": "minor",
    "population": "19156",
    "id": "1620662816"
  },
  {
    "city": "Monção",
    "city_ascii": "Moncao",
    "lat": "42.0733",
    "lng": "-8.4800",
    "country": "Portugal",
    "iso2": "PT",
    "iso3": "PRT",
    "admin_name": "Viana do Castelo",
    "capital": "minor",
    "population": "19230",
    "id": "1620375502"
  },
  {
    "city": "Soure",
    "city_ascii": "Soure",
    "lat": "40.0500",
    "lng": "-8.6333",
    "country": "Portugal",
    "iso2": "PT",
    "iso3": "PRT",
    "admin_name": "Coimbra",
    "capital": "minor",
    "population": "19245",
    "id": "1620536643"
  },
  {
    "city": "Amares",
    "city_ascii": "Amares",
    "lat": "41.6167",
    "lng": "-8.3333",
    "country": "Portugal",
    "iso2": "PT",
    "iso3": "PRT",
    "admin_name": "Braga",
    "capital": "minor",
    "population": "18889",
    "id": "1620212427"
  },
  {
    "city": "Lousã",
    "city_ascii": "Lousa",
    "lat": "40.1125",
    "lng": "-8.2469",
    "country": "Portugal",
    "iso2": "PT",
    "iso3": "PRT",
    "admin_name": "Coimbra",
    "capital": "minor",
    "population": "17604",
    "id": "1620586922"
  },
  {
    "city": "Alcochete",
    "city_ascii": "Alcochete",
    "lat": "38.7500",
    "lng": "-8.9667",
    "country": "Portugal",
    "iso2": "PT",
    "iso3": "PRT",
    "admin_name": "Setúbal",
    "capital": "minor",
    "population": "17569",
    "id": "1620781537"
  },
  {
    "city": "Montemor-o-Novo",
    "city_ascii": "Montemor-o-Novo",
    "lat": "38.6500",
    "lng": "-8.2167",
    "country": "Portugal",
    "iso2": "PT",
    "iso3": "PRT",
    "admin_name": "Évora",
    "capital": "minor",
    "population": "17437",
    "id": "1620010573"
  },
  {
    "city": "Peso da Régua",
    "city_ascii": "Peso da Regua",
    "lat": "41.1653",
    "lng": "-7.7764",
    "country": "Portugal",
    "iso2": "PT",
    "iso3": "PRT",
    "admin_name": "Vila Real",
    "capital": "minor",
    "population": "17131",
    "id": "1620264911"
  },
  {
    "city": "Condeixa-a-Nova",
    "city_ascii": "Condeixa-a-Nova",
    "lat": "40.1167",
    "lng": "-8.5000",
    "country": "Portugal",
    "iso2": "PT",
    "iso3": "PRT",
    "admin_name": "Coimbra",
    "capital": "minor",
    "population": "17078",
    "id": "1620361727"
  },
  {
    "city": "São Pedro do Sul",
    "city_ascii": "Sao Pedro do Sul",
    "lat": "40.7500",
    "lng": "-8.0667",
    "country": "Portugal",
    "iso2": "PT",
    "iso3": "PRT",
    "admin_name": "Viseu",
    "capital": "minor",
    "population": "16851",
    "id": "1620666925"
  },
  {
    "city": "Sobrado de Paiva",
    "city_ascii": "Sobrado de Paiva",
    "lat": "41.0333",
    "lng": "-8.2667",
    "country": "Portugal",
    "iso2": "PT",
    "iso3": "PRT",
    "admin_name": "Aveiro",
    "capital": "",
    "population": "16733",
    "id": "1620213325"
  },
  {
    "city": "Cabeceiras de Basto",
    "city_ascii": "Cabeceiras de Basto",
    "lat": "41.5333",
    "lng": "-8.0167",
    "country": "Portugal",
    "iso2": "PT",
    "iso3": "PRT",
    "admin_name": "Braga",
    "capital": "minor",
    "population": "16710",
    "id": "1620118213"
  },
  {
    "city": "Ponte de Sôr",
    "city_ascii": "Ponte de Sor",
    "lat": "39.2500",
    "lng": "-8.0167",
    "country": "Portugal",
    "iso2": "PT",
    "iso3": "PRT",
    "admin_name": "Portalegre",
    "capital": "minor",
    "population": "16722",
    "id": "1620028457"
  },
  {
    "city": "Quarteira",
    "city_ascii": "Quarteira",
    "lat": "37.0690",
    "lng": "-8.1030",
    "country": "Portugal",
    "iso2": "PT",
    "iso3": "PRT",
    "admin_name": "Faro",
    "capital": "",
    "population": "16131",
    "id": "1620157848"
  },
  {
    "city": "Batalha",
    "city_ascii": "Batalha",
    "lat": "39.6500",
    "lng": "-8.8000",
    "country": "Portugal",
    "iso2": "PT",
    "iso3": "PRT",
    "admin_name": "Leiria",
    "capital": "minor",
    "population": "15805",
    "id": "1620446432"
  },
  {
    "city": "Sertã",
    "city_ascii": "Serta",
    "lat": "39.8000",
    "lng": "-8.1000",
    "country": "Portugal",
    "iso2": "PT",
    "iso3": "PRT",
    "admin_name": "Castelo Branco",
    "capital": "minor",
    "population": "15880",
    "id": "1620976292"
  },
  {
    "city": "Macedo de Cavaleiros",
    "city_ascii": "Macedo de Cavaleiros",
    "lat": "41.5389",
    "lng": "-6.9608",
    "country": "Portugal",
    "iso2": "PT",
    "iso3": "PRT",
    "admin_name": "Bragança",
    "capital": "minor",
    "population": "15776",
    "id": "1620590215"
  },
  {
    "city": "Serpa",
    "city_ascii": "Serpa",
    "lat": "37.9447",
    "lng": "-7.5989",
    "country": "Portugal",
    "iso2": "PT",
    "iso3": "PRT",
    "admin_name": "Beja",
    "capital": "minor",
    "population": "15623",
    "id": "1620464160"
  },
  {
    "city": "Castro Daire",
    "city_ascii": "Castro Daire",
    "lat": "40.9000",
    "lng": "-7.9333",
    "country": "Portugal",
    "iso2": "PT",
    "iso3": "PRT",
    "admin_name": "Viseu",
    "capital": "minor",
    "population": "15339",
    "id": "1620316265"
  },
  {
    "city": "Nazaré",
    "city_ascii": "Nazare",
    "lat": "39.6000",
    "lng": "-9.0667",
    "country": "Portugal",
    "iso2": "PT",
    "iso3": "PRT",
    "admin_name": "Leiria",
    "capital": "minor",
    "population": "15158",
    "id": "1620000054"
  },
  {
    "city": "Penacova",
    "city_ascii": "Penacova",
    "lat": "40.2706",
    "lng": "-8.2833",
    "country": "Portugal",
    "iso2": "PT",
    "iso3": "PRT",
    "admin_name": "Coimbra",
    "capital": "minor",
    "population": "15251",
    "id": "1620105584"
  },
  {
    "city": "Moura",
    "city_ascii": "Moura",
    "lat": "38.1333",
    "lng": "-7.4500",
    "country": "Portugal",
    "iso2": "PT",
    "iso3": "PRT",
    "admin_name": "Beja",
    "capital": "minor",
    "population": "15167",
    "id": "1620196948"
  },
  {
    "city": "Horta",
    "city_ascii": "Horta",
    "lat": "38.5333",
    "lng": "-28.6333",
    "country": "Portugal",
    "iso2": "PT",
    "iso3": "PRT",
    "admin_name": "Azores",
    "capital": "",
    "population": "14994",
    "id": "1620589121"
  },
  {
    "city": "Gafanha da Nazaré",
    "city_ascii": "Gafanha da Nazare",
    "lat": "40.6350",
    "lng": "-8.7140",
    "country": "Portugal",
    "iso2": "PT",
    "iso3": "PRT",
    "admin_name": "Aveiro",
    "capital": "",
    "population": "14021",
    "id": "1620364496"
  },
  {
    "city": "Grândola",
    "city_ascii": "Grandola",
    "lat": "38.1700",
    "lng": "-8.5600",
    "country": "Portugal",
    "iso2": "PT",
    "iso3": "PRT",
    "admin_name": "Setúbal",
    "capital": "minor",
    "population": "14826",
    "id": "1620454238"
  },
  {
    "city": "Cadaval",
    "city_ascii": "Cadaval",
    "lat": "39.2333",
    "lng": "-9.1000",
    "country": "Portugal",
    "iso2": "PT",
    "iso3": "PRT",
    "admin_name": "Lisboa",
    "capital": "minor",
    "population": "14525",
    "id": "1620009427"
  },
  {
    "city": "Lagoa",
    "city_ascii": "Lagoa",
    "lat": "37.7500",
    "lng": "-25.5833",
    "country": "Portugal",
    "iso2": "PT",
    "iso3": "PRT",
    "admin_name": "Azores",
    "capital": "",
    "population": "14442",
    "id": "1620677502"
  },
  {
    "city": "Estremoz",
    "city_ascii": "Estremoz",
    "lat": "38.8500",
    "lng": "-7.5833",
    "country": "Portugal",
    "iso2": "PT",
    "iso3": "PRT",
    "admin_name": "Évora",
    "capital": "minor",
    "population": "14318",
    "id": "1620467967"
  },
  {
    "city": "Sines",
    "city_ascii": "Sines",
    "lat": "37.9547",
    "lng": "-8.8644",
    "country": "Portugal",
    "iso2": "PT",
    "iso3": "PRT",
    "admin_name": "Setúbal",
    "capital": "minor",
    "population": "14238",
    "id": "1620898309"
  },
  {
    "city": "Valença",
    "city_ascii": "Valenca",
    "lat": "42.0167",
    "lng": "-8.6333",
    "country": "Portugal",
    "iso2": "PT",
    "iso3": "PRT",
    "admin_name": "Viana do Castelo",
    "capital": "minor",
    "population": "14127",
    "id": "1620333876"
  },
  {
    "city": "Nelas",
    "city_ascii": "Nelas",
    "lat": "40.5167",
    "lng": "-7.8500",
    "country": "Portugal",
    "iso2": "PT",
    "iso3": "PRT",
    "admin_name": "Viseu",
    "capital": "minor",
    "population": "14037",
    "id": "1620011198"
  },
  {
    "city": "Gouveia",
    "city_ascii": "Gouveia",
    "lat": "40.5000",
    "lng": "-7.6000",
    "country": "Portugal",
    "iso2": "PT",
    "iso3": "PRT",
    "admin_name": "Guarda",
    "capital": "minor",
    "population": "14046",
    "id": "1620922007"
  },
  {
    "city": "Alcanena",
    "city_ascii": "Alcanena",
    "lat": "39.4667",
    "lng": "-8.6667",
    "country": "Portugal",
    "iso2": "PT",
    "iso3": "PRT",
    "admin_name": "Santarém",
    "capital": "minor",
    "population": "13868",
    "id": "1620799086"
  },
  {
    "city": "Arcozelo",
    "city_ascii": "Arcozelo",
    "lat": "41.0555",
    "lng": "-8.6395",
    "country": "Portugal",
    "iso2": "PT",
    "iso3": "PRT",
    "admin_name": "Porto",
    "capital": "",
    "population": "12393",
    "id": "1620153472"
  },
  {
    "city": "Fátima",
    "city_ascii": "Fatima",
    "lat": "39.6255",
    "lng": "-8.6659",
    "country": "Portugal",
    "iso2": "PT",
    "iso3": "PRT",
    "admin_name": "Santarém",
    "capital": "",
    "population": "13212",
    "id": "1620677968"
  },
  {
    "city": "São Félix da Marinha",
    "city_ascii": "Sao Felix da Marinha",
    "lat": "41.0340",
    "lng": "-8.6230",
    "country": "Portugal",
    "iso2": "PT",
    "iso3": "PRT",
    "admin_name": "Porto",
    "capital": "",
    "population": "12706",
    "id": "1620414430"
  },
  {
    "city": "Arruda dos Vinhos",
    "city_ascii": "Arruda dos Vinhos",
    "lat": "38.9833",
    "lng": "-9.0667",
    "country": "Portugal",
    "iso2": "PT",
    "iso3": "PRT",
    "admin_name": "Lisboa",
    "capital": "minor",
    "population": "13391",
    "id": "1620150819"
  },
  {
    "city": "Eiras",
    "city_ascii": "Eiras",
    "lat": "40.2421",
    "lng": "-8.4240",
    "country": "Portugal",
    "iso2": "PT",
    "iso3": "PRT",
    "admin_name": "Coimbra",
    "capital": "",
    "population": "12053",
    "id": "1620679868"
  },
  {
    "city": "Ribeira Brava",
    "city_ascii": "Ribeira Brava",
    "lat": "32.6833",
    "lng": "-17.0500",
    "country": "Portugal",
    "iso2": "PT",
    "iso3": "PRT",
    "admin_name": "Madeira",
    "capital": "",
    "population": "13375",
    "id": "1620853683"
  },
  {
    "city": "Bombarral",
    "city_ascii": "Bombarral",
    "lat": "39.2681",
    "lng": "-9.1553",
    "country": "Portugal",
    "iso2": "PT",
    "iso3": "PRT",
    "admin_name": "Leiria",
    "capital": "minor",
    "population": "13193",
    "id": "1620112554"
  },
  {
    "city": "Vila Pouca de Aguiar",
    "city_ascii": "Vila Pouca de Aguiar",
    "lat": "41.5006",
    "lng": "-7.6422",
    "country": "Portugal",
    "iso2": "PT",
    "iso3": "PRT",
    "admin_name": "Vila Real",
    "capital": "minor",
    "population": "13187",
    "id": "1620331126"
  },
  {
    "city": "Ansião",
    "city_ascii": "Ansiao",
    "lat": "39.9167",
    "lng": "-8.4333",
    "country": "Portugal",
    "iso2": "PT",
    "iso3": "PRT",
    "admin_name": "Leiria",
    "capital": "minor",
    "population": "13128",
    "id": "1620604793"
  },
  {
    "city": "Miranda do Corvo",
    "city_ascii": "Miranda do Corvo",
    "lat": "40.1000",
    "lng": "-8.3333",
    "country": "Portugal",
    "iso2": "PT",
    "iso3": "PRT",
    "admin_name": "Coimbra",
    "capital": "minor",
    "population": "13098",
    "id": "1620469916"
  },
  {
    "city": "Vieira do Minho",
    "city_ascii": "Vieira do Minho",
    "lat": "41.6333",
    "lng": "-8.1333",
    "country": "Portugal",
    "iso2": "PT",
    "iso3": "PRT",
    "admin_name": "Braga",
    "capital": "minor",
    "population": "12997",
    "id": "1620164873"
  },
  {
    "city": "Alcácer do Sal",
    "city_ascii": "Alcacer do Sal",
    "lat": "38.3725",
    "lng": "-8.5136",
    "country": "Portugal",
    "iso2": "PT",
    "iso3": "PRT",
    "admin_name": "Setúbal",
    "capital": "minor",
    "population": "13046",
    "id": "1620351188"
  },
  {
    "city": "Esmoriz",
    "city_ascii": "Esmoriz",
    "lat": "40.9550",
    "lng": "-8.6270",
    "country": "Portugal",
    "iso2": "PT",
    "iso3": "PRT",
    "admin_name": "Aveiro",
    "capital": "",
    "population": "11448",
    "id": "1620854749"
  },
  {
    "city": "Costa de Caparica",
    "city_ascii": "Costa de Caparica",
    "lat": "38.6446",
    "lng": "-9.2356",
    "country": "Portugal",
    "iso2": "PT",
    "iso3": "PRT",
    "admin_name": "Setúbal",
    "capital": "",
    "population": "11707",
    "id": "1620140762"
  },
  {
    "city": "Mira",
    "city_ascii": "Mira",
    "lat": "40.4333",
    "lng": "-8.7333",
    "country": "Portugal",
    "iso2": "PT",
    "iso3": "PRT",
    "admin_name": "Coimbra",
    "capital": "minor",
    "population": "12465",
    "id": "1620156397"
  },
  {
    "city": "Sabugal",
    "city_ascii": "Sabugal",
    "lat": "40.3500",
    "lng": "-7.0833",
    "country": "Portugal",
    "iso2": "PT",
    "iso3": "PRT",
    "admin_name": "Guarda",
    "capital": "minor",
    "population": "12544",
    "id": "1620978952"
  },
  {
    "city": "Sátão",
    "city_ascii": "Satao",
    "lat": "40.7333",
    "lng": "-7.7333",
    "country": "Portugal",
    "iso2": "PT",
    "iso3": "PRT",
    "admin_name": "Viseu",
    "capital": "minor",
    "population": "12444",
    "id": "1620157053"
  },
  {
    "city": "Sever do Vouga",
    "city_ascii": "Sever do Vouga",
    "lat": "40.7333",
    "lng": "-8.3667",
    "country": "Portugal",
    "iso2": "PT",
    "iso3": "PRT",
    "admin_name": "Aveiro",
    "capital": "minor",
    "population": "12356",
    "id": "1620380173"
  },
  {
    "city": "Arganil",
    "city_ascii": "Arganil",
    "lat": "40.2180",
    "lng": "-8.0540",
    "country": "Portugal",
    "iso2": "PT",
    "iso3": "PRT",
    "admin_name": "Coimbra",
    "capital": "minor",
    "population": "12145",
    "id": "1620980524"
  },
  {
    "city": "Tábua",
    "city_ascii": "Tabua",
    "lat": "40.3603",
    "lng": "-8.0292",
    "country": "Portugal",
    "iso2": "PT",
    "iso3": "PRT",
    "admin_name": "Coimbra",
    "capital": "minor",
    "population": "12071",
    "id": "1620014800"
  },
  {
    "city": "Ponte da Barca",
    "city_ascii": "Ponte da Barca",
    "lat": "41.8000",
    "lng": "-8.4167",
    "country": "Portugal",
    "iso2": "PT",
    "iso3": "PRT",
    "admin_name": "Viana do Castelo",
    "capital": "minor",
    "population": "12061",
    "id": "1620519225"
  },
  {
    "city": "Alijó",
    "city_ascii": "Alijo",
    "lat": "41.2761",
    "lng": "-7.4750",
    "country": "Portugal",
    "iso2": "PT",
    "iso3": "PRT",
    "admin_name": "Vila Real",
    "capital": "minor",
    "population": "11942",
    "id": "1620658703"
  },
  {
    "city": "Vendas Novas",
    "city_ascii": "Vendas Novas",
    "lat": "38.6833",
    "lng": "-8.4500",
    "country": "Portugal",
    "iso2": "PT",
    "iso3": "PRT",
    "admin_name": "Évora",
    "capital": "minor",
    "population": "11846",
    "id": "1620891430"
  },
  {
    "city": "Óbidos",
    "city_ascii": "Obidos",
    "lat": "39.3581",
    "lng": "-9.1578",
    "country": "Portugal",
    "iso2": "PT",
    "iso3": "PRT",
    "admin_name": "Leiria",
    "capital": "minor",
    "population": "11689",
    "id": "1620276354"
  },
  {
    "city": "Santa Comba Dão",
    "city_ascii": "Santa Comba Dao",
    "lat": "40.4000",
    "lng": "-8.1167",
    "country": "Portugal",
    "iso2": "PT",
    "iso3": "PRT",
    "admin_name": "Viseu",
    "capital": "minor",
    "population": "11597",
    "id": "1620669474"
  },
  {
    "city": "Calheta",
    "city_ascii": "Calheta",
    "lat": "32.7258",
    "lng": "-17.1658",
    "country": "Portugal",
    "iso2": "PT",
    "iso3": "PRT",
    "admin_name": "Madeira",
    "capital": "",
    "population": "11521",
    "id": "1620158427"
  },
  {
    "city": "Resende",
    "city_ascii": "Resende",
    "lat": "41.1060",
    "lng": "-7.9640",
    "country": "Portugal",
    "iso2": "PT",
    "iso3": "PRT",
    "admin_name": "Viseu",
    "capital": "minor",
    "population": "11364",
    "id": "1620858385"
  },
  {
    "city": "Vila Franca do Campo",
    "city_ascii": "Vila Franca do Campo",
    "lat": "37.7167",
    "lng": "-25.4333",
    "country": "Portugal",
    "iso2": "PT",
    "iso3": "PRT",
    "admin_name": "Azores",
    "capital": "",
    "population": "11229",
    "id": "1620199147"
  },
  {
    "city": "Melres",
    "city_ascii": "Melres",
    "lat": "41.0667",
    "lng": "-8.4000",
    "country": "Portugal",
    "iso2": "PT",
    "iso3": "PRT",
    "admin_name": "Porto",
    "capital": "",
    "population": "10328",
    "id": "1620821477"
  },
  {
    "city": "São João de Ver",
    "city_ascii": "Sao Joao de Ver",
    "lat": "40.9540",
    "lng": "-8.5510",
    "country": "Portugal",
    "iso2": "PT",
    "iso3": "PRT",
    "admin_name": "Aveiro",
    "capital": "",
    "population": "10579",
    "id": "1620357395"
  },
  {
    "city": "Santo André",
    "city_ascii": "Santo Andre",
    "lat": "38.0500",
    "lng": "-8.7500",
    "country": "Portugal",
    "iso2": "PT",
    "iso3": "PRT",
    "admin_name": "Setúbal",
    "capital": "",
    "population": "10647",
    "id": "1620996598"
  },
  {
    "city": "Reguengos de Monsaraz",
    "city_ascii": "Reguengos de Monsaraz",
    "lat": "38.4167",
    "lng": "-7.5333",
    "country": "Portugal",
    "iso2": "PT",
    "iso3": "PRT",
    "admin_name": "Évora",
    "capital": "minor",
    "population": "10828",
    "id": "1620982468"
  },
  {
    "city": "São Brás de Alportel",
    "city_ascii": "Sao Bras de Alportel",
    "lat": "37.1500",
    "lng": "-7.8833",
    "country": "Portugal",
    "iso2": "PT",
    "iso3": "PRT",
    "admin_name": "Faro",
    "capital": "minor",
    "population": "10662",
    "id": "1620714794"
  },
  {
    "city": "Murtosa",
    "city_ascii": "Murtosa",
    "lat": "40.7333",
    "lng": "-8.6333",
    "country": "Portugal",
    "iso2": "PT",
    "iso3": "PRT",
    "admin_name": "Aveiro",
    "capital": "minor",
    "population": "10585",
    "id": "1620337032"
  },
  {
    "city": "Aver-o-Mar",
    "city_ascii": "Aver-o-Mar",
    "lat": "41.4039",
    "lng": "-8.7690",
    "country": "Portugal",
    "iso2": "PT",
    "iso3": "PRT",
    "admin_name": "Porto",
    "capital": "",
    "population": "8961",
    "id": "1620327215"
  },
  {
    "city": "Vouzela",
    "city_ascii": "Vouzela",
    "lat": "40.7167",
    "lng": "-8.0833",
    "country": "Portugal",
    "iso2": "PT",
    "iso3": "PRT",
    "admin_name": "Viseu",
    "capital": "minor",
    "population": "10564",
    "id": "1620776313"
  },
  {
    "city": "Montalegre",
    "city_ascii": "Montalegre",
    "lat": "41.8231",
    "lng": "-7.7917",
    "country": "Portugal",
    "iso2": "PT",
    "iso3": "PRT",
    "admin_name": "Vila Real",
    "capital": "minor",
    "population": "10537",
    "id": "1620504484"
  },
  {
    "city": "Praia do Carvoeiro",
    "city_ascii": "Praia do Carvoeiro",
    "lat": "37.1200",
    "lng": "-8.4600",
    "country": "Portugal",
    "iso2": "PT",
    "iso3": "PRT",
    "admin_name": "Faro",
    "capital": "",
    "population": "9987",
    "id": "1620666686"
  },
  {
    "city": "Sobral de Monte Agraço",
    "city_ascii": "Sobral de Monte Agraco",
    "lat": "39.0180",
    "lng": "-9.1520",
    "country": "Portugal",
    "iso2": "PT",
    "iso3": "PRT",
    "admin_name": "Lisboa",
    "capital": "minor",
    "population": "10156",
    "id": "1620360918"
  },
  {
    "city": "Oliveira de Frades",
    "city_ascii": "Oliveira de Frades",
    "lat": "40.7167",
    "lng": "-8.1833",
    "country": "Portugal",
    "iso2": "PT",
    "iso3": "PRT",
    "admin_name": "Viseu",
    "capital": "minor",
    "population": "10261",
    "id": "1620849637"
  },
  {
    "city": "Moimenta da Beira",
    "city_ascii": "Moimenta da Beira",
    "lat": "40.9797",
    "lng": "-7.6136",
    "country": "Portugal",
    "iso2": "PT",
    "iso3": "PRT",
    "admin_name": "Viseu",
    "capital": "minor",
    "population": "10212",
    "id": "1620112700"
  },
  {
    "city": "Chamusca",
    "city_ascii": "Chamusca",
    "lat": "39.3500",
    "lng": "-8.4833",
    "country": "Portugal",
    "iso2": "PT",
    "iso3": "PRT",
    "admin_name": "Santarém",
    "capital": "minor",
    "population": "10120",
    "id": "1620501575"
  },
  {
    "city": "Carregal do Sal",
    "city_ascii": "Carregal do Sal",
    "lat": "40.4333",
    "lng": "-8.0000",
    "country": "Portugal",
    "iso2": "PT",
    "iso3": "PRT",
    "admin_name": "Viseu",
    "capital": "",
    "population": "9835",
    "id": "1620089281"
  },
  {
    "city": "Trancoso",
    "city_ascii": "Trancoso",
    "lat": "40.7833",
    "lng": "-7.3500",
    "country": "Portugal",
    "iso2": "PT",
    "iso3": "PRT",
    "admin_name": "Guarda",
    "capital": "minor",
    "population": "9878",
    "id": "1620483334"
  },
  {
    "city": "Idanha-a-Nova",
    "city_ascii": "Idanha-a-Nova",
    "lat": "39.9167",
    "lng": "-7.2333",
    "country": "Portugal",
    "iso2": "PT",
    "iso3": "PRT",
    "admin_name": "Castelo Branco",
    "capital": "minor",
    "population": "9716",
    "id": "1620152186"
  },
  {
    "city": "Pinhel",
    "city_ascii": "Pinhel",
    "lat": "40.7833",
    "lng": "-7.0667",
    "country": "Portugal",
    "iso2": "PT",
    "iso3": "PRT",
    "admin_name": "Guarda",
    "capital": "minor",
    "population": "9627",
    "id": "1620892355"
  },
  {
    "city": "Mortágua",
    "city_ascii": "Mortagua",
    "lat": "40.4333",
    "lng": "-8.2333",
    "country": "Portugal",
    "iso2": "PT",
    "iso3": "PRT",
    "admin_name": "Viseu",
    "capital": "minor",
    "population": "9607",
    "id": "1620677707"
  },
  {
    "city": "Mogadouro",
    "city_ascii": "Mogadouro",
    "lat": "41.3333",
    "lng": "-6.7167",
    "country": "Portugal",
    "iso2": "PT",
    "iso3": "PRT",
    "admin_name": "Bragança",
    "capital": "minor",
    "population": "9542",
    "id": "1620447198"
  },
  {
    "city": "Vila Nova de Cerveira",
    "city_ascii": "Vila Nova de Cerveira",
    "lat": "41.9667",
    "lng": "-8.6833",
    "country": "Portugal",
    "iso2": "PT",
    "iso3": "PRT",
    "admin_name": "Viana do Castelo",
    "capital": "minor",
    "population": "9253",
    "id": "1620227274"
  },
  {
    "city": "Aljustrel",
    "city_ascii": "Aljustrel",
    "lat": "37.9167",
    "lng": "-8.1667",
    "country": "Portugal",
    "iso2": "PT",
    "iso3": "PRT",
    "admin_name": "Beja",
    "capital": "minor",
    "population": "9257",
    "id": "1620079386"
  },
  {
    "city": "Paredes de Coura",
    "city_ascii": "Paredes de Coura",
    "lat": "41.9127",
    "lng": "-8.5622",
    "country": "Portugal",
    "iso2": "PT",
    "iso3": "PRT",
    "admin_name": "Viana do Castelo",
    "capital": "minor",
    "population": "9198",
    "id": "1620660116"
  },
  {
    "city": "Melgaço",
    "city_ascii": "Melgaco",
    "lat": "42.1167",
    "lng": "-8.2667",
    "country": "Portugal",
    "iso2": "PT",
    "iso3": "PRT",
    "admin_name": "Viana do Castelo",
    "capital": "minor",
    "population": "9213",
    "id": "1620521790"
  },
  {
    "city": "Almargem",
    "city_ascii": "Almargem",
    "lat": "38.8475",
    "lng": "-9.2714",
    "country": "Portugal",
    "iso2": "PT",
    "iso3": "PRT",
    "admin_name": "Lisboa",
    "capital": "",
    "population": "8983",
    "id": "1620407856"
  },
  {
    "city": "Vinhais",
    "city_ascii": "Vinhais",
    "lat": "41.8167",
    "lng": "-7.0000",
    "country": "Portugal",
    "iso2": "PT",
    "iso3": "PRT",
    "admin_name": "Bragança",
    "capital": "minor",
    "population": "9066",
    "id": "1620473528"
  },
  {
    "city": "Ponta do Sol",
    "city_ascii": "Ponta do Sol",
    "lat": "32.6806",
    "lng": "-17.1042",
    "country": "Portugal",
    "iso2": "PT",
    "iso3": "PRT",
    "admin_name": "Madeira",
    "capital": "",
    "population": "8862",
    "id": "1620041092"
  },
  {
    "city": "Ferreira do Zêzere",
    "city_ascii": "Ferreira do Zezere",
    "lat": "39.6833",
    "lng": "-8.2833",
    "country": "Portugal",
    "iso2": "PT",
    "iso3": "PRT",
    "admin_name": "Santarém",
    "capital": "minor",
    "population": "8619",
    "id": "1620885794"
  },
  {
    "city": "Torre de Moncorvo",
    "city_ascii": "Torre de Moncorvo",
    "lat": "41.2000",
    "lng": "-7.1333",
    "country": "Portugal",
    "iso2": "PT",
    "iso3": "PRT",
    "admin_name": "Bragança",
    "capital": "minor",
    "population": "8572",
    "id": "1620001140"
  }
]