[
  {
    "city": "Prague",
    "city_ascii": "Prague",
    "lat": "50.0875",
    "lng": "14.4214",
    "country": "Czechia",
    "iso2": "CZ",
    "iso3": "CZE",
    "admin_name": "Praha",
    "capital": "primary",
    "population": "1335084",
    "id": "1203744823"
  },
  {
    "city": "Olomouc",
    "city_ascii": "Olomouc",
    "lat": "49.5939",
    "lng": "17.2508",
    "country": "Czechia",
    "iso2": "CZ",
    "iso3": "CZE",
    "admin_name": "Olomoucký Kraj",
    "capital": "admin",
    "population": "384000",
    "id": "1203328061"
  },
  {
    "city": "Brno",
    "city_ascii": "Brno",
    "lat": "49.1925",
    "lng": "16.6083",
    "country": "Czechia",
    "iso2": "CZ",
    "iso3": "CZE",
    "admin_name": "Jihomoravský Kraj",
    "capital": "admin",
    "population": "382405",
    "id": "1203676514"
  },
  {
    "city": "Ostrava",
    "city_ascii": "Ostrava",
    "lat": "49.8356",
    "lng": "18.2925",
    "country": "Czechia",
    "iso2": "CZ",
    "iso3": "CZE",
    "admin_name": "Moravskoslezský Kraj",
    "capital": "admin",
    "population": "284982",
    "id": "1203687206"
  },
  {
    "city": "Plzeň",
    "city_ascii": "Plzen",
    "lat": "49.7475",
    "lng": "13.3775",
    "country": "Czechia",
    "iso2": "CZ",
    "iso3": "CZE",
    "admin_name": "Plzeňský Kraj",
    "capital": "admin",
    "population": "175219",
    "id": "1203402469"
  },
  {
    "city": "Liberec",
    "city_ascii": "Liberec",
    "lat": "50.7667",
    "lng": "15.0667",
    "country": "Czechia",
    "iso2": "CZ",
    "iso3": "CZE",
    "admin_name": "Liberecký Kraj",
    "capital": "admin",
    "population": "104261",
    "id": "1203577727"
  },
  {
    "city": "České Budějovice",
    "city_ascii": "Ceske Budejovice",
    "lat": "48.9747",
    "lng": "14.4747",
    "country": "Czechia",
    "iso2": "CZ",
    "iso3": "CZE",
    "admin_name": "Jihočeský Kraj",
    "capital": "admin",
    "population": "94229",
    "id": "1203398046"
  },
  {
    "city": "Hradec Králové",
    "city_ascii": "Hradec Kralove",
    "lat": "50.2092",
    "lng": "15.8322",
    "country": "Czechia",
    "iso2": "CZ",
    "iso3": "CZE",
    "admin_name": "Královéhradecký Kraj",
    "capital": "admin",
    "population": "92683",
    "id": "1203430618"
  },
  {
    "city": "Ústí nad Labem",
    "city_ascii": "Usti nad Labem",
    "lat": "50.6583",
    "lng": "14.0417",
    "country": "Czechia",
    "iso2": "CZ",
    "iso3": "CZE",
    "admin_name": "Ústecký Kraj",
    "capital": "admin",
    "population": "91982",
    "id": "1203734193"
  },
  {
    "city": "Pardubice",
    "city_ascii": "Pardubice",
    "lat": "50.0386",
    "lng": "15.7792",
    "country": "Czechia",
    "iso2": "CZ",
    "iso3": "CZE",
    "admin_name": "Pardubický Kraj",
    "capital": "admin",
    "population": "91755",
    "id": "1203857442"
  },
  {
    "city": "Zlín",
    "city_ascii": "Zlin",
    "lat": "49.2331",
    "lng": "17.6669",
    "country": "Czechia",
    "iso2": "CZ",
    "iso3": "CZE",
    "admin_name": "Zlínský Kraj",
    "capital": "admin",
    "population": "74478",
    "id": "1203582141"
  },
  {
    "city": "Havířov",
    "city_ascii": "Havirov",
    "lat": "49.7831",
    "lng": "18.4228",
    "country": "Czechia",
    "iso2": "CZ",
    "iso3": "CZE",
    "admin_name": "Moravskoslezský Kraj",
    "capital": "",
    "population": "70165",
    "id": "1203173875"
  },
  {
    "city": "Teplice",
    "city_ascii": "Teplice",
    "lat": "50.6444",
    "lng": "13.8319",
    "country": "Czechia",
    "iso2": "CZ",
    "iso3": "CZE",
    "admin_name": "Ústecký Kraj",
    "capital": "",
    "population": "49705",
    "id": "1203801370"
  },
  {
    "city": "Jihlava",
    "city_ascii": "Jihlava",
    "lat": "49.4003",
    "lng": "15.5906",
    "country": "Czechia",
    "iso2": "CZ",
    "iso3": "CZE",
    "admin_name": "Vysočina",
    "capital": "admin",
    "population": "51125",
    "id": "1203810604"
  },
  {
    "city": "Karlovy Vary",
    "city_ascii": "Karlovy Vary",
    "lat": "50.2306",
    "lng": "12.8725",
    "country": "Czechia",
    "iso2": "CZ",
    "iso3": "CZE",
    "admin_name": "Karlovarský Kraj",
    "capital": "admin",
    "population": "48319",
    "id": "1203518899"
  },
  {
    "city": "Břevnov",
    "city_ascii": "Brevnov",
    "lat": "50.0833",
    "lng": "14.3579",
    "country": "Czechia",
    "iso2": "CZ",
    "iso3": "CZE",
    "admin_name": "Středočeský Kraj",
    "capital": "",
    "population": "26275",
    "id": "1203462593"
  },
  {
    "city": "Kladno",
    "city_ascii": "Kladno",
    "lat": "50.1500",
    "lng": "14.1000",
    "country": "Czechia",
    "iso2": "CZ",
    "iso3": "CZE",
    "admin_name": "Středočeský Kraj",
    "capital": "",
    "population": "68896",
    "id": "1203557079"
  },
  {
    "city": "Most",
    "city_ascii": "Most",
    "lat": "50.5031",
    "lng": "13.6367",
    "country": "Czechia",
    "iso2": "CZ",
    "iso3": "CZE",
    "admin_name": "Ústecký Kraj",
    "capital": "",
    "population": "65341",
    "id": "1203813984"
  },
  {
    "city": "Opava",
    "city_ascii": "Opava",
    "lat": "49.9381",
    "lng": "17.9044",
    "country": "Czechia",
    "iso2": "CZ",
    "iso3": "CZE",
    "admin_name": "Moravskoslezský Kraj",
    "capital": "",
    "population": "55996",
    "id": "1203142483"
  },
  {
    "city": "Frýdek-Místek",
    "city_ascii": "Frydek-Mistek",
    "lat": "49.6856",
    "lng": "18.3506",
    "country": "Czechia",
    "iso2": "CZ",
    "iso3": "CZE",
    "admin_name": "Moravskoslezský Kraj",
    "capital": "",
    "population": "55006",
    "id": "1203111584"
  },
  {
    "city": "Karviná",
    "city_ascii": "Karvina",
    "lat": "49.8542",
    "lng": "18.5428",
    "country": "Czechia",
    "iso2": "CZ",
    "iso3": "CZE",
    "admin_name": "Moravskoslezský Kraj",
    "capital": "",
    "population": "50902",
    "id": "1203738904"
  },
  {
    "city": "Chomutov",
    "city_ascii": "Chomutov",
    "lat": "50.4611",
    "lng": "13.4167",
    "country": "Czechia",
    "iso2": "CZ",
    "iso3": "CZE",
    "admin_name": "Ústecký Kraj",
    "capital": "",
    "population": "48349",
    "id": "1203523082"
  },
  {
    "city": "Děčín",
    "city_ascii": "Decin",
    "lat": "50.7736",
    "lng": "14.1961",
    "country": "Czechia",
    "iso2": "CZ",
    "iso3": "CZE",
    "admin_name": "Ústecký Kraj",
    "capital": "",
    "population": "47951",
    "id": "1203262893"
  },
  {
    "city": "Jablonec nad Nisou",
    "city_ascii": "Jablonec nad Nisou",
    "lat": "50.7244",
    "lng": "15.1681",
    "country": "Czechia",
    "iso2": "CZ",
    "iso3": "CZE",
    "admin_name": "Liberecký Kraj",
    "capital": "",
    "population": "45317",
    "id": "1203127047"
  },
  {
    "city": "Mladá Boleslav",
    "city_ascii": "Mlada Boleslav",
    "lat": "50.4125",
    "lng": "14.9044",
    "country": "Czechia",
    "iso2": "CZ",
    "iso3": "CZE",
    "admin_name": "Středočeský Kraj",
    "capital": "",
    "population": "44506",
    "id": "1203616853"
  },
  {
    "city": "Prostějov",
    "city_ascii": "Prostejov",
    "lat": "49.4722",
    "lng": "17.1106",
    "country": "Czechia",
    "iso2": "CZ",
    "iso3": "CZE",
    "admin_name": "Olomoucký Kraj",
    "capital": "",
    "population": "43381",
    "id": "1203172907"
  },
  {
    "city": "Přerov",
    "city_ascii": "Prerov",
    "lat": "49.4556",
    "lng": "17.4511",
    "country": "Czechia",
    "iso2": "CZ",
    "iso3": "CZE",
    "admin_name": "Olomoucký Kraj",
    "capital": "",
    "population": "42451",
    "id": "1203137734"
  },
  {
    "city": "Česká Lípa",
    "city_ascii": "Ceska Lipa",
    "lat": "50.6886",
    "lng": "14.5386",
    "country": "Czechia",
    "iso2": "CZ",
    "iso3": "CZE",
    "admin_name": "Liberecký Kraj",
    "capital": "",
    "population": "37361",
    "id": "1203109242"
  },
  {
    "city": "Třebíč",
    "city_ascii": "Trebic",
    "lat": "49.2150",
    "lng": "15.8817",
    "country": "Czechia",
    "iso2": "CZ",
    "iso3": "CZE",
    "admin_name": "Vysočina",
    "capital": "",
    "population": "35107",
    "id": "1203437113"
  },
  {
    "city": "Třinec",
    "city_ascii": "Trinec",
    "lat": "49.6778",
    "lng": "18.6728",
    "country": "Czechia",
    "iso2": "CZ",
    "iso3": "CZE",
    "admin_name": "Moravskoslezský Kraj",
    "capital": "",
    "population": "34778",
    "id": "1203430167"
  },
  {
    "city": "Tábor",
    "city_ascii": "Tabor",
    "lat": "49.4144",
    "lng": "14.6578",
    "country": "Czechia",
    "iso2": "CZ",
    "iso3": "CZE",
    "admin_name": "Jihočeský Kraj",
    "capital": "",
    "population": "34119",
    "id": "1203712399"
  },
  {
    "city": "Znojmo",
    "city_ascii": "Znojmo",
    "lat": "48.8556",
    "lng": "16.0489",
    "country": "Czechia",
    "iso2": "CZ",
    "iso3": "CZE",
    "admin_name": "Jihomoravský Kraj",
    "capital": "",
    "population": "33775",
    "id": "1203362507"
  },
  {
    "city": "Kolín",
    "city_ascii": "Kolin",
    "lat": "50.0281",
    "lng": "15.2006",
    "country": "Czechia",
    "iso2": "CZ",
    "iso3": "CZE",
    "admin_name": "Středočeský Kraj",
    "capital": "",
    "population": "32490",
    "id": "1203413479"
  },
  {
    "city": "Příbram",
    "city_ascii": "Pribram",
    "lat": "49.6883",
    "lng": "14.0092",
    "country": "Czechia",
    "iso2": "CZ",
    "iso3": "CZE",
    "admin_name": "Středočeský Kraj",
    "capital": "",
    "population": "32248",
    "id": "1203262749"
  },
  {
    "city": "Cheb",
    "city_ascii": "Cheb",
    "lat": "50.0794",
    "lng": "12.3706",
    "country": "Czechia",
    "iso2": "CZ",
    "iso3": "CZE",
    "admin_name": "Karlovarský Kraj",
    "capital": "",
    "population": "31920",
    "id": "1203676556"
  },
  {
    "city": "Písek",
    "city_ascii": "Pisek",
    "lat": "49.3089",
    "lng": "14.1475",
    "country": "Czechia",
    "iso2": "CZ",
    "iso3": "CZE",
    "admin_name": "Jihočeský Kraj",
    "capital": "",
    "population": "30379",
    "id": "1203813820"
  },
  {
    "city": "Trutnov",
    "city_ascii": "Trutnov",
    "lat": "50.5606",
    "lng": "15.9131",
    "country": "Czechia",
    "iso2": "CZ",
    "iso3": "CZE",
    "admin_name": "Královéhradecký Kraj",
    "capital": "",
    "population": "29958",
    "id": "1203787150"
  },
  {
    "city": "Orlová",
    "city_ascii": "Orlova",
    "lat": "49.8452",
    "lng": "18.4302",
    "country": "Czechia",
    "iso2": "CZ",
    "iso3": "CZE",
    "admin_name": "Moravskoslezský Kraj",
    "capital": "",
    "population": "28330",
    "id": "1203799110"
  },
  {
    "city": "Kroměříž",
    "city_ascii": "Kromeriz",
    "lat": "49.2989",
    "lng": "17.3931",
    "country": "Czechia",
    "iso2": "CZ",
    "iso3": "CZE",
    "admin_name": "Zlínský Kraj",
    "capital": "",
    "population": "28360",
    "id": "1203995171"
  },
  {
    "city": "Líšeň",
    "city_ascii": "Lisen",
    "lat": "49.2075",
    "lng": "16.6861",
    "country": "Czechia",
    "iso2": "CZ",
    "iso3": "CZE",
    "admin_name": "Jihomoravský Kraj",
    "capital": "",
    "population": "26781",
    "id": "1203926697"
  },
  {
    "city": "Šumperk",
    "city_ascii": "Sumperk",
    "lat": "49.9653",
    "lng": "16.9707",
    "country": "Czechia",
    "iso2": "CZ",
    "iso3": "CZE",
    "admin_name": "Olomoucký Kraj",
    "capital": "",
    "population": "25452",
    "id": "1203170809"
  },
  {
    "city": "Vsetín",
    "city_ascii": "Vsetin",
    "lat": "49.3387",
    "lng": "17.9962",
    "country": "Czechia",
    "iso2": "CZ",
    "iso3": "CZE",
    "admin_name": "Zlínský Kraj",
    "capital": "",
    "population": "25782",
    "id": "1203549413"
  },
  {
    "city": "Uherské Hradiště",
    "city_ascii": "Uherske Hradiste",
    "lat": "49.0697",
    "lng": "17.4597",
    "country": "Czechia",
    "iso2": "CZ",
    "iso3": "CZE",
    "admin_name": "Zlínský Kraj",
    "capital": "",
    "population": "25001",
    "id": "1203165664"
  },
  {
    "city": "Bystrc",
    "city_ascii": "Bystrc",
    "lat": "49.2247",
    "lng": "16.5239",
    "country": "Czechia",
    "iso2": "CZ",
    "iso3": "CZE",
    "admin_name": "Jihomoravský Kraj",
    "capital": "",
    "population": "24218",
    "id": "1203641060"
  },
  {
    "city": "Litoměřice",
    "city_ascii": "Litomerice",
    "lat": "50.5342",
    "lng": "14.1328",
    "country": "Czechia",
    "iso2": "CZ",
    "iso3": "CZE",
    "admin_name": "Ústecký Kraj",
    "capital": "",
    "population": "23623",
    "id": "1203149283"
  },
  {
    "city": "Břeclav",
    "city_ascii": "Breclav",
    "lat": "48.7589",
    "lng": "16.8819",
    "country": "Czechia",
    "iso2": "CZ",
    "iso3": "CZE",
    "admin_name": "Jihomoravský Kraj",
    "capital": "",
    "population": "24554",
    "id": "1203778686"
  },
  {
    "city": "Český Těšín",
    "city_ascii": "Cesky Tesin",
    "lat": "49.7461",
    "lng": "18.6261",
    "country": "Czechia",
    "iso2": "CZ",
    "iso3": "CZE",
    "admin_name": "Moravskoslezský Kraj",
    "capital": "",
    "population": "24069",
    "id": "1203518530"
  },
  {
    "city": "Hodonín",
    "city_ascii": "Hodonin",
    "lat": "48.8489",
    "lng": "17.1325",
    "country": "Czechia",
    "iso2": "CZ",
    "iso3": "CZE",
    "admin_name": "Jihomoravský Kraj",
    "capital": "",
    "population": "24385",
    "id": "1203626632"
  },
  {
    "city": "Litvínov",
    "city_ascii": "Litvinov",
    "lat": "50.6008",
    "lng": "13.6112",
    "country": "Czechia",
    "iso2": "CZ",
    "iso3": "CZE",
    "admin_name": "Ústecký Kraj",
    "capital": "",
    "population": "23489",
    "id": "1203716170"
  },
  {
    "city": "Sokolov",
    "city_ascii": "Sokolov",
    "lat": "50.1814",
    "lng": "12.6402",
    "country": "Czechia",
    "iso2": "CZ",
    "iso3": "CZE",
    "admin_name": "Karlovarský Kraj",
    "capital": "",
    "population": "22924",
    "id": "1203662180"
  },
  {
    "city": "Chrudim",
    "city_ascii": "Chrudim",
    "lat": "49.9511",
    "lng": "15.7956",
    "country": "Czechia",
    "iso2": "CZ",
    "iso3": "CZE",
    "admin_name": "Pardubický Kraj",
    "capital": "",
    "population": "23140",
    "id": "1203309920"
  },
  {
    "city": "Nový Jičín",
    "city_ascii": "Novy Jicin",
    "lat": "49.5944",
    "lng": "18.0103",
    "country": "Czechia",
    "iso2": "CZ",
    "iso3": "CZE",
    "admin_name": "Moravskoslezský Kraj",
    "capital": "",
    "population": "23151",
    "id": "1203475212"
  },
  {
    "city": "Krnov",
    "city_ascii": "Krnov",
    "lat": "50.0906",
    "lng": "17.6986",
    "country": "Czechia",
    "iso2": "CZ",
    "iso3": "CZE",
    "admin_name": "Moravskoslezský Kraj",
    "capital": "",
    "population": "23130",
    "id": "1203745289"
  },
  {
    "city": "Havlíčkŭv Brod",
    "city_ascii": "Havlickuv Brod",
    "lat": "49.6078",
    "lng": "15.5808",
    "country": "Czechia",
    "iso2": "CZ",
    "iso3": "CZE",
    "admin_name": "Vysočina",
    "capital": "",
    "population": "23255",
    "id": "1203272361"
  },
  {
    "city": "Strakonice",
    "city_ascii": "Strakonice",
    "lat": "49.2615",
    "lng": "13.9024",
    "country": "Czechia",
    "iso2": "CZ",
    "iso3": "CZE",
    "admin_name": "Jihočeský Kraj",
    "capital": "",
    "population": "22428",
    "id": "1203755418"
  },
  {
    "city": "Valašské Meziříčí",
    "city_ascii": "Valasske Mezirici",
    "lat": "49.4718",
    "lng": "17.9712",
    "country": "Czechia",
    "iso2": "CZ",
    "iso3": "CZE",
    "admin_name": "Zlínský Kraj",
    "capital": "",
    "population": "22149",
    "id": "1203786401"
  },
  {
    "city": "Kopřivnice",
    "city_ascii": "Koprivnice",
    "lat": "49.5995",
    "lng": "18.1448",
    "country": "Czechia",
    "iso2": "CZ",
    "iso3": "CZE",
    "admin_name": "Moravskoslezský Kraj",
    "capital": "",
    "population": "21657",
    "id": "1203847096"
  },
  {
    "city": "Klatovy",
    "city_ascii": "Klatovy",
    "lat": "49.3956",
    "lng": "13.2951",
    "country": "Czechia",
    "iso2": "CZ",
    "iso3": "CZE",
    "admin_name": "Plzeňský Kraj",
    "capital": "",
    "population": "22140",
    "id": "1203400126"
  },
  {
    "city": "Jindřichŭv Hradec",
    "city_ascii": "Jindrichuv Hradec",
    "lat": "49.1442",
    "lng": "15.0031",
    "country": "Czechia",
    "iso2": "CZ",
    "iso3": "CZE",
    "admin_name": "Jihočeský Kraj",
    "capital": "",
    "population": "21169",
    "id": "1203413811"
  },
  {
    "city": "Kutná Hora",
    "city_ascii": "Kutna Hora",
    "lat": "49.9483",
    "lng": "15.2683",
    "country": "Czechia",
    "iso2": "CZ",
    "iso3": "CZE",
    "admin_name": "Středočeský Kraj",
    "capital": "",
    "population": "20828",
    "id": "1203692740"
  },
  {
    "city": "Bohumín",
    "city_ascii": "Bohumin",
    "lat": "49.9042",
    "lng": "18.3575",
    "country": "Czechia",
    "iso2": "CZ",
    "iso3": "CZE",
    "admin_name": "Moravskoslezský Kraj",
    "capital": "",
    "population": "20450",
    "id": "1203275330"
  },
  {
    "city": "Vyškov",
    "city_ascii": "Vyskov",
    "lat": "49.2775",
    "lng": "16.9989",
    "country": "Czechia",
    "iso2": "CZ",
    "iso3": "CZE",
    "admin_name": "Jihomoravský Kraj",
    "capital": "",
    "population": "20676",
    "id": "1203012353"
  },
  {
    "city": "Žďár nad Sázavou",
    "city_ascii": "Zd'ar nad Sazavou",
    "lat": "49.5627",
    "lng": "15.9393",
    "country": "Czechia",
    "iso2": "CZ",
    "iso3": "CZE",
    "admin_name": "Vysočina",
    "capital": "",
    "population": "20485",
    "id": "1203204559"
  },
  {
    "city": "Blansko",
    "city_ascii": "Blansko",
    "lat": "49.3631",
    "lng": "16.6431",
    "country": "Czechia",
    "iso2": "CZ",
    "iso3": "CZE",
    "admin_name": "Jihomoravský Kraj",
    "capital": "",
    "population": "20306",
    "id": "1203195651"
  },
  {
    "city": "Beroun",
    "city_ascii": "Beroun",
    "lat": "49.9642",
    "lng": "14.0739",
    "country": "Czechia",
    "iso2": "CZ",
    "iso3": "CZE",
    "admin_name": "Středočeský Kraj",
    "capital": "",
    "population": "19988",
    "id": "1203585066"
  },
  {
    "city": "Mělník",
    "city_ascii": "Melnik",
    "lat": "50.3506",
    "lng": "14.4742",
    "country": "Czechia",
    "iso2": "CZ",
    "iso3": "CZE",
    "admin_name": "Středočeský Kraj",
    "capital": "",
    "population": "19579",
    "id": "1203735988"
  },
  {
    "city": "Jirkov",
    "city_ascii": "Jirkov",
    "lat": "50.4999",
    "lng": "13.4478",
    "country": "Czechia",
    "iso2": "CZ",
    "iso3": "CZE",
    "admin_name": "Ústecký Kraj",
    "capital": "",
    "population": "19200",
    "id": "1203484786"
  },
  {
    "city": "Náchod",
    "city_ascii": "Nachod",
    "lat": "50.4167",
    "lng": "16.1630",
    "country": "Czechia",
    "iso2": "CZ",
    "iso3": "CZE",
    "admin_name": "Královéhradecký Kraj",
    "capital": "",
    "population": "19688",
    "id": "1203181897"
  },
  {
    "city": "Brandýs nad Labem-Stará Boleslav",
    "city_ascii": "Brandys nad Labem-Stara Boleslav",
    "lat": "50.1894",
    "lng": "14.6672",
    "country": "Czechia",
    "iso2": "CZ",
    "iso3": "CZE",
    "admin_name": "Středočeský Kraj",
    "capital": "",
    "population": "19420",
    "id": "1203785584"
  },
  {
    "city": "Kralupy nad Vltavou",
    "city_ascii": "Kralupy nad Vltavou",
    "lat": "50.2411",
    "lng": "14.3116",
    "country": "Czechia",
    "iso2": "CZ",
    "iso3": "CZE",
    "admin_name": "Středočeský Kraj",
    "capital": "",
    "population": "18485",
    "id": "1203317115"
  },
  {
    "city": "Žatec",
    "city_ascii": "Zatec",
    "lat": "50.3273",
    "lng": "13.5459",
    "country": "Czechia",
    "iso2": "CZ",
    "iso3": "CZE",
    "admin_name": "Ústecký Kraj",
    "capital": "",
    "population": "18823",
    "id": "1203368176"
  },
  {
    "city": "Louny",
    "city_ascii": "Louny",
    "lat": "50.3571",
    "lng": "13.7968",
    "country": "Czechia",
    "iso2": "CZ",
    "iso3": "CZE",
    "admin_name": "Ústecký Kraj",
    "capital": "",
    "population": "18156",
    "id": "1203988380"
  },
  {
    "city": "Otrokovice",
    "city_ascii": "Otrokovice",
    "lat": "49.2099",
    "lng": "17.5308",
    "country": "Czechia",
    "iso2": "CZ",
    "iso3": "CZE",
    "admin_name": "Zlínský Kraj",
    "capital": "",
    "population": "17592",
    "id": "1203087231"
  },
  {
    "city": "Kadaň",
    "city_ascii": "Kadan",
    "lat": "50.3761",
    "lng": "13.2714",
    "country": "Czechia",
    "iso2": "CZ",
    "iso3": "CZE",
    "admin_name": "Ústecký Kraj",
    "capital": "",
    "population": "18133",
    "id": "1203388944"
  },
  {
    "city": "Hranice",
    "city_ascii": "Hranice",
    "lat": "49.5525",
    "lng": "17.7683",
    "country": "Czechia",
    "iso2": "CZ",
    "iso3": "CZE",
    "admin_name": "Olomoucký Kraj",
    "capital": "",
    "population": "17818",
    "id": "1203110445"
  },
  {
    "city": "Bílina",
    "city_ascii": "Bilina",
    "lat": "50.5481",
    "lng": "13.7761",
    "country": "Czechia",
    "iso2": "CZ",
    "iso3": "CZE",
    "admin_name": "Ústecký Kraj",
    "capital": "",
    "population": "17103",
    "id": "1203669701"
  },
  {
    "city": "Jičín",
    "city_ascii": "Jicin",
    "lat": "50.4367",
    "lng": "15.3517",
    "country": "Czechia",
    "iso2": "CZ",
    "iso3": "CZE",
    "admin_name": "Královéhradecký Kraj",
    "capital": "",
    "population": "16551",
    "id": "1203562586"
  },
  {
    "city": "Benešov",
    "city_ascii": "Benesov",
    "lat": "49.7828",
    "lng": "14.6886",
    "country": "Czechia",
    "iso2": "CZ",
    "iso3": "CZE",
    "admin_name": "Středočeský Kraj",
    "capital": "",
    "population": "16804",
    "id": "1203042729"
  },
  {
    "city": "Svitavy",
    "city_ascii": "Svitavy",
    "lat": "49.7560",
    "lng": "16.4683",
    "country": "Czechia",
    "iso2": "CZ",
    "iso3": "CZE",
    "admin_name": "Pardubický Kraj",
    "capital": "",
    "population": "16601",
    "id": "1203802204"
  },
  {
    "city": "Neratovice",
    "city_ascii": "Neratovice",
    "lat": "50.2593",
    "lng": "14.5177",
    "country": "Czechia",
    "iso2": "CZ",
    "iso3": "CZE",
    "admin_name": "Středočeský Kraj",
    "capital": "",
    "population": "16138",
    "id": "1203620692"
  },
  {
    "city": "Říčany",
    "city_ascii": "Ricany",
    "lat": "49.9917",
    "lng": "14.6543",
    "country": "Czechia",
    "iso2": "CZ",
    "iso3": "CZE",
    "admin_name": "Středočeský Kraj",
    "capital": "",
    "population": "16182",
    "id": "1203639839"
  },
  {
    "city": "Ostrov",
    "city_ascii": "Ostrov",
    "lat": "50.3060",
    "lng": "12.9392",
    "country": "Czechia",
    "iso2": "CZ",
    "iso3": "CZE",
    "admin_name": "Karlovarský Kraj",
    "capital": "",
    "population": "16491",
    "id": "1203022506"
  },
  {
    "city": "Uherský Brod",
    "city_ascii": "Uhersky Brod",
    "lat": "49.0251",
    "lng": "17.6472",
    "country": "Czechia",
    "iso2": "CZ",
    "iso3": "CZE",
    "admin_name": "Zlínský Kraj",
    "capital": "",
    "population": "16409",
    "id": "1203839661"
  },
  {
    "city": "Rožnov pod Radhoštěm",
    "city_ascii": "Roznov pod Radhostem",
    "lat": "49.4585",
    "lng": "18.1430",
    "country": "Czechia",
    "iso2": "CZ",
    "iso3": "CZE",
    "admin_name": "Zlínský Kraj",
    "capital": "",
    "population": "16280",
    "id": "1203287923"
  },
  {
    "city": "Rakovník",
    "city_ascii": "Rakovnik",
    "lat": "50.1038",
    "lng": "13.7335",
    "country": "Czechia",
    "iso2": "CZ",
    "iso3": "CZE",
    "admin_name": "Středočeský Kraj",
    "capital": "",
    "population": "15652",
    "id": "1203062806"
  },
  {
    "city": "Slaný",
    "city_ascii": "Slany",
    "lat": "50.2305",
    "lng": "14.0870",
    "country": "Czechia",
    "iso2": "CZ",
    "iso3": "CZE",
    "admin_name": "Středočeský Kraj",
    "capital": "",
    "population": "16010",
    "id": "1203367412"
  },
  {
    "city": "Bruntál",
    "city_ascii": "Bruntal",
    "lat": "49.9883",
    "lng": "17.4647",
    "country": "Czechia",
    "iso2": "CZ",
    "iso3": "CZE",
    "admin_name": "Moravskoslezský Kraj",
    "capital": "",
    "population": "15908",
    "id": "1203666435"
  },
  {
    "city": "Pelhřimov",
    "city_ascii": "Pelhrimov",
    "lat": "49.4314",
    "lng": "15.2234",
    "country": "Czechia",
    "iso2": "CZ",
    "iso3": "CZE",
    "admin_name": "Vysočina",
    "capital": "",
    "population": "16012",
    "id": "1203256095"
  },
  {
    "city": "Dvůr Králové nad Labem",
    "city_ascii": "Dvur Kralove nad Labem",
    "lat": "50.4331",
    "lng": "15.8122",
    "country": "Czechia",
    "iso2": "CZ",
    "iso3": "CZE",
    "admin_name": "Královéhradecký Kraj",
    "capital": "",
    "population": "15471",
    "id": "1203492959"
  },
  {
    "city": "Nymburk",
    "city_ascii": "Nymburk",
    "lat": "50.1861",
    "lng": "15.0417",
    "country": "Czechia",
    "iso2": "CZ",
    "iso3": "CZE",
    "admin_name": "Středočeský Kraj",
    "capital": "",
    "population": "15106",
    "id": "1203273272"
  },
  {
    "city": "Varnsdorf",
    "city_ascii": "Varnsdorf",
    "lat": "50.9116",
    "lng": "14.6184",
    "country": "Czechia",
    "iso2": "CZ",
    "iso3": "CZE",
    "admin_name": "Ústecký Kraj",
    "capital": "",
    "population": "15117",
    "id": "1203159316"
  },
  {
    "city": "Česká Třebová",
    "city_ascii": "Ceska Trebova",
    "lat": "49.9019",
    "lng": "16.4472",
    "country": "Czechia",
    "iso2": "CZ",
    "iso3": "CZE",
    "admin_name": "Pardubický Kraj",
    "capital": "",
    "population": "15267",
    "id": "1203262802"
  },
  {
    "city": "Turnov",
    "city_ascii": "Turnov",
    "lat": "50.5873",
    "lng": "15.1569",
    "country": "Czechia",
    "iso2": "CZ",
    "iso3": "CZE",
    "admin_name": "Liberecký Kraj",
    "capital": "",
    "population": "14391",
    "id": "1203116739"
  },
  {
    "city": "Poděbrady",
    "city_ascii": "Podebrady",
    "lat": "50.1425",
    "lng": "15.1189",
    "country": "Czechia",
    "iso2": "CZ",
    "iso3": "CZE",
    "admin_name": "Středočeský Kraj",
    "capital": "",
    "population": "14469",
    "id": "1203251007"
  },
  {
    "city": "Rokycany",
    "city_ascii": "Rokycany",
    "lat": "49.7428",
    "lng": "13.5946",
    "country": "Czechia",
    "iso2": "CZ",
    "iso3": "CZE",
    "admin_name": "Plzeňský Kraj",
    "capital": "",
    "population": "14313",
    "id": "1203614655"
  },
  {
    "city": "Klášterec nad Ohří",
    "city_ascii": "Klasterec nad Ohri",
    "lat": "50.3846",
    "lng": "13.1714",
    "country": "Czechia",
    "iso2": "CZ",
    "iso3": "CZE",
    "admin_name": "Ústecký Kraj",
    "capital": "",
    "population": "14365",
    "id": "1203315809"
  },
  {
    "city": "Ústí nad Orlicí",
    "city_ascii": "Usti nad Orlici",
    "lat": "49.9739",
    "lng": "16.3937",
    "country": "Czechia",
    "iso2": "CZ",
    "iso3": "CZE",
    "admin_name": "Pardubický Kraj",
    "capital": "",
    "population": "14209",
    "id": "1203823971"
  },
  {
    "city": "Hlučín",
    "city_ascii": "Hlucin",
    "lat": "49.8967",
    "lng": "18.1931",
    "country": "Czechia",
    "iso2": "CZ",
    "iso3": "CZE",
    "admin_name": "Moravskoslezský Kraj",
    "capital": "",
    "population": "13805",
    "id": "1203528969"
  },
  {
    "city": "Chodov",
    "city_ascii": "Chodov",
    "lat": "50.2414",
    "lng": "12.7439",
    "country": "Czechia",
    "iso2": "CZ",
    "iso3": "CZE",
    "admin_name": "Karlovarský Kraj",
    "capital": "",
    "population": "13089",
    "id": "1203758078"
  },
  {
    "city": "Zábřeh",
    "city_ascii": "Zabreh",
    "lat": "49.8826",
    "lng": "16.8723",
    "country": "Czechia",
    "iso2": "CZ",
    "iso3": "CZE",
    "admin_name": "Olomoucký Kraj",
    "capital": "",
    "population": "13479",
    "id": "1203721653"
  },
  {
    "city": "Šternberk",
    "city_ascii": "Sternberk",
    "lat": "49.7305",
    "lng": "17.2989",
    "country": "Czechia",
    "iso2": "CZ",
    "iso3": "CZE",
    "admin_name": "Olomoucký Kraj",
    "capital": "",
    "population": "13388",
    "id": "1203827138"
  },
  {
    "city": "Roudnice nad Labem",
    "city_ascii": "Roudnice nad Labem",
    "lat": "50.4254",
    "lng": "14.2618",
    "country": "Czechia",
    "iso2": "CZ",
    "iso3": "CZE",
    "admin_name": "Ústecký Kraj",
    "capital": "",
    "population": "12770",
    "id": "1203268404"
  },
  {
    "city": "Tachov",
    "city_ascii": "Tachov",
    "lat": "49.7954",
    "lng": "12.6337",
    "country": "Czechia",
    "iso2": "CZ",
    "iso3": "CZE",
    "admin_name": "Plzeňský Kraj",
    "capital": "",
    "population": "13072",
    "id": "1203227002"
  },
  {
    "city": "Český Krumlov",
    "city_ascii": "Cesky Krumlov",
    "lat": "48.8111",
    "lng": "14.3153",
    "country": "Czechia",
    "iso2": "CZ",
    "iso3": "CZE",
    "admin_name": "Jihočeský Kraj",
    "capital": "",
    "population": "12788",
    "id": "1203973467"
  },
  {
    "city": "Aš",
    "city_ascii": "As",
    "lat": "50.2239",
    "lng": "12.1950",
    "country": "Czechia",
    "iso2": "CZ",
    "iso3": "CZE",
    "admin_name": "Karlovarský Kraj",
    "capital": "",
    "population": "13105",
    "id": "1203503000"
  },
  {
    "city": "Čelákovice",
    "city_ascii": "Celakovice",
    "lat": "50.1606",
    "lng": "14.7500",
    "country": "Czechia",
    "iso2": "CZ",
    "iso3": "CZE",
    "admin_name": "Středočeský Kraj",
    "capital": "",
    "population": "12293",
    "id": "1203396532"
  },
  {
    "city": "Mariánské Lázně",
    "city_ascii": "Marianske Lazne",
    "lat": "49.9647",
    "lng": "12.7011",
    "country": "Czechia",
    "iso2": "CZ",
    "iso3": "CZE",
    "admin_name": "Karlovarský Kraj",
    "capital": "",
    "population": "12752",
    "id": "1203682983"
  },
  {
    "city": "Milovice",
    "city_ascii": "Milovice",
    "lat": "50.2260",
    "lng": "14.8887",
    "country": "Czechia",
    "iso2": "CZ",
    "iso3": "CZE",
    "admin_name": "Středočeský Kraj",
    "capital": "",
    "population": "12460",
    "id": "1203709386"
  },
  {
    "city": "Jaroměř",
    "city_ascii": "Jaromer",
    "lat": "50.3503",
    "lng": "15.9183",
    "country": "Czechia",
    "iso2": "CZ",
    "iso3": "CZE",
    "admin_name": "Královéhradecký Kraj",
    "capital": "",
    "population": "12324",
    "id": "1203124128"
  },
  {
    "city": "Krupka",
    "city_ascii": "Krupka",
    "lat": "50.6846",
    "lng": "13.8583",
    "country": "Czechia",
    "iso2": "CZ",
    "iso3": "CZE",
    "admin_name": "Ústecký Kraj",
    "capital": "",
    "population": "12547",
    "id": "1203244914"
  },
  {
    "city": "Vrchlabí",
    "city_ascii": "Vrchlabi",
    "lat": "50.6270",
    "lng": "15.6095",
    "country": "Czechia",
    "iso2": "CZ",
    "iso3": "CZE",
    "admin_name": "Královéhradecký Kraj",
    "capital": "",
    "population": "12289",
    "id": "1203953730"
  },
  {
    "city": "Vysoké Mýto",
    "city_ascii": "Vysoke Myto",
    "lat": "49.9533",
    "lng": "16.1617",
    "country": "Czechia",
    "iso2": "CZ",
    "iso3": "CZE",
    "admin_name": "Pardubický Kraj",
    "capital": "",
    "population": "12267",
    "id": "1203435938"
  },
  {
    "city": "Nový Bor",
    "city_ascii": "Novy Bor",
    "lat": "50.7577",
    "lng": "14.5557",
    "country": "Czechia",
    "iso2": "CZ",
    "iso3": "CZE",
    "admin_name": "Liberecký Kraj",
    "capital": "",
    "population": "11582",
    "id": "1203651923"
  },
  {
    "city": "Boskovice",
    "city_ascii": "Boskovice",
    "lat": "49.4875",
    "lng": "16.6600",
    "country": "Czechia",
    "iso2": "CZ",
    "iso3": "CZE",
    "admin_name": "Jihomoravský Kraj",
    "capital": "",
    "population": "11726",
    "id": "1203299524"
  },
  {
    "city": "Holešov",
    "city_ascii": "Holesov",
    "lat": "49.3333",
    "lng": "17.5783",
    "country": "Czechia",
    "iso2": "CZ",
    "iso3": "CZE",
    "admin_name": "Zlínský Kraj",
    "capital": "",
    "population": "11509",
    "id": "1203380921"
  },
  {
    "city": "Vlašim",
    "city_ascii": "Vlasim",
    "lat": "49.7064",
    "lng": "14.8989",
    "country": "Czechia",
    "iso2": "CZ",
    "iso3": "CZE",
    "admin_name": "Středočeský Kraj",
    "capital": "",
    "population": "11496",
    "id": "1203658512"
  },
  {
    "city": "Velké Meziříčí",
    "city_ascii": "Velke Mezirici",
    "lat": "49.3553",
    "lng": "16.0123",
    "country": "Czechia",
    "iso2": "CZ",
    "iso3": "CZE",
    "admin_name": "Vysočina",
    "capital": "",
    "population": "11452",
    "id": "1203943102"
  },
  {
    "city": "Frenštát pod Radhoštěm",
    "city_ascii": "Frenstat pod Radhostem",
    "lat": "49.5483",
    "lng": "18.2108",
    "country": "Czechia",
    "iso2": "CZ",
    "iso3": "CZE",
    "admin_name": "Moravskoslezský Kraj",
    "capital": "",
    "population": "10766",
    "id": "1203465419"
  },
  {
    "city": "Kuřim",
    "city_ascii": "Kurim",
    "lat": "49.2985",
    "lng": "16.5315",
    "country": "Czechia",
    "iso2": "CZ",
    "iso3": "CZE",
    "admin_name": "Jihomoravský Kraj",
    "capital": "",
    "population": "11021",
    "id": "1203206546"
  },
  {
    "city": "Uničov",
    "city_ascii": "Unicov",
    "lat": "49.7709",
    "lng": "17.1215",
    "country": "Czechia",
    "iso2": "CZ",
    "iso3": "CZE",
    "admin_name": "Olomoucký Kraj",
    "capital": "",
    "population": "11281",
    "id": "1203442454"
  },
  {
    "city": "Domažlice",
    "city_ascii": "Domazlice",
    "lat": "49.4406",
    "lng": "12.9272",
    "country": "Czechia",
    "iso2": "CZ",
    "iso3": "CZE",
    "admin_name": "Plzeňský Kraj",
    "capital": "",
    "population": "11056",
    "id": "1203358449"
  },
  {
    "city": "Kyjov",
    "city_ascii": "Kyjov",
    "lat": "49.0102",
    "lng": "17.1225",
    "country": "Czechia",
    "iso2": "CZ",
    "iso3": "CZE",
    "admin_name": "Jihomoravský Kraj",
    "capital": "",
    "population": "11105",
    "id": "1203980144"
  },
  {
    "city": "Rumburk",
    "city_ascii": "Rumburk",
    "lat": "50.9516",
    "lng": "14.5571",
    "country": "Czechia",
    "iso2": "CZ",
    "iso3": "CZE",
    "admin_name": "Ústecký Kraj",
    "capital": "",
    "population": "10903",
    "id": "1203370008"
  },
  {
    "city": "Jeseník",
    "city_ascii": "Jesenik",
    "lat": "50.2297",
    "lng": "17.2047",
    "country": "Czechia",
    "iso2": "CZ",
    "iso3": "CZE",
    "admin_name": "Olomoucký Kraj",
    "capital": "",
    "population": "10977",
    "id": "1203267061"
  },
  {
    "city": "Rychnov nad Kněžnou",
    "city_ascii": "Rychnov nad Kneznou",
    "lat": "50.1629",
    "lng": "16.2750",
    "country": "Czechia",
    "iso2": "CZ",
    "iso3": "CZE",
    "admin_name": "Královéhradecký Kraj",
    "capital": "",
    "population": "10899",
    "id": "1203123765"
  },
  {
    "city": "Sušice",
    "city_ascii": "Susice",
    "lat": "49.2312",
    "lng": "13.5202",
    "country": "Czechia",
    "iso2": "CZ",
    "iso3": "CZE",
    "admin_name": "Plzeňský Kraj",
    "capital": "",
    "population": "10957",
    "id": "1203245330"
  },
  {
    "city": "Humpolec",
    "city_ascii": "Humpolec",
    "lat": "49.5417",
    "lng": "15.3572",
    "country": "Czechia",
    "iso2": "CZ",
    "iso3": "CZE",
    "admin_name": "Vysočina",
    "capital": "",
    "population": "10975",
    "id": "1203780100"
  },
  {
    "city": "Veselí nad Moravou",
    "city_ascii": "Veseli nad Moravou",
    "lat": "48.9536",
    "lng": "17.3765",
    "country": "Czechia",
    "iso2": "CZ",
    "iso3": "CZE",
    "admin_name": "Jihomoravský Kraj",
    "capital": "",
    "population": "10807",
    "id": "1203951522"
  },
  {
    "city": "Prachatice",
    "city_ascii": "Prachatice",
    "lat": "49.0130",
    "lng": "13.9975",
    "country": "Czechia",
    "iso2": "CZ",
    "iso3": "CZE",
    "admin_name": "Jihočeský Kraj",
    "capital": "",
    "population": "10706",
    "id": "1203326615"
  },
  {
    "city": "Čáslav",
    "city_ascii": "Caslav",
    "lat": "49.9117",
    "lng": "15.3950",
    "country": "Czechia",
    "iso2": "CZ",
    "iso3": "CZE",
    "admin_name": "Středočeský Kraj",
    "capital": "",
    "population": "10350",
    "id": "1203177244"
  },
  {
    "city": "Králŭv Dvŭr",
    "city_ascii": "Kraluv Dvur",
    "lat": "49.9499",
    "lng": "14.0345",
    "country": "Czechia",
    "iso2": "CZ",
    "iso3": "CZE",
    "admin_name": "Středočeský Kraj",
    "capital": "",
    "population": "9995",
    "id": "1203703070"
  },
  {
    "city": "Jesenice",
    "city_ascii": "Jesenice",
    "lat": "49.9683",
    "lng": "14.5136",
    "country": "Czechia",
    "iso2": "CZ",
    "iso3": "CZE",
    "admin_name": "Středočeský Kraj",
    "capital": "",
    "population": "9997",
    "id": "1203216192"
  },
  {
    "city": "Litomyšl",
    "city_ascii": "Litomysl",
    "lat": "49.8719",
    "lng": "16.3106",
    "country": "Czechia",
    "iso2": "CZ",
    "iso3": "CZE",
    "admin_name": "Pardubický Kraj",
    "capital": "",
    "population": "10240",
    "id": "1203430500"
  },
  {
    "city": "Frýdlant nad Ostravicí",
    "city_ascii": "Frydlant nad Ostravici",
    "lat": "49.5928",
    "lng": "18.3597",
    "country": "Czechia",
    "iso2": "CZ",
    "iso3": "CZE",
    "admin_name": "Moravskoslezský Kraj",
    "capital": "",
    "population": "9926",
    "id": "1203314077"
  },
  {
    "city": "Lanškroun",
    "city_ascii": "Lanskroun",
    "lat": "49.9122",
    "lng": "16.6120",
    "country": "Czechia",
    "iso2": "CZ",
    "iso3": "CZE",
    "admin_name": "Pardubický Kraj",
    "capital": "",
    "population": "9800",
    "id": "1203727130"
  },
  {
    "city": "Přelouč",
    "city_ascii": "Prelouc",
    "lat": "50.0399",
    "lng": "15.5604",
    "country": "Czechia",
    "iso2": "CZ",
    "iso3": "CZE",
    "admin_name": "Pardubický Kraj",
    "capital": "",
    "population": "9875",
    "id": "1203203039"
  },
  {
    "city": "Nové Město na Moravě",
    "city_ascii": "Nove Mesto na Morave",
    "lat": "49.5615",
    "lng": "16.0742",
    "country": "Czechia",
    "iso2": "CZ",
    "iso3": "CZE",
    "admin_name": "Vysočina",
    "capital": "",
    "population": "10006",
    "id": "1203071196"
  },
  {
    "city": "Lysá nad Labem",
    "city_ascii": "Lysa nad Labem",
    "lat": "50.2015",
    "lng": "14.8329",
    "country": "Czechia",
    "iso2": "CZ",
    "iso3": "CZE",
    "admin_name": "Středočeský Kraj",
    "capital": "",
    "population": "9825",
    "id": "1203091035"
  },
  {
    "city": "Ivančice",
    "city_ascii": "Ivancice",
    "lat": "49.1014",
    "lng": "16.3775",
    "country": "Czechia",
    "iso2": "CZ",
    "iso3": "CZE",
    "admin_name": "Jihomoravský Kraj",
    "capital": "",
    "population": "9854",
    "id": "1203249406"
  },
  {
    "city": "Moravská Třebová",
    "city_ascii": "Moravska Trebova",
    "lat": "49.7580",
    "lng": "16.6643",
    "country": "Czechia",
    "iso2": "CZ",
    "iso3": "CZE",
    "admin_name": "Pardubický Kraj",
    "capital": "",
    "population": "9795",
    "id": "1203455488"
  },
  {
    "city": "Hlinsko",
    "city_ascii": "Hlinsko",
    "lat": "49.7622",
    "lng": "15.9075",
    "country": "Czechia",
    "iso2": "CZ",
    "iso3": "CZE",
    "admin_name": "Pardubický Kraj",
    "capital": "",
    "population": "9602",
    "id": "1203108794"
  },
  {
    "city": "Litovel",
    "city_ascii": "Litovel",
    "lat": "49.7012",
    "lng": "17.0762",
    "country": "Czechia",
    "iso2": "CZ",
    "iso3": "CZE",
    "admin_name": "Olomoucký Kraj",
    "capital": "",
    "population": "9651",
    "id": "1203150242"
  },
  {
    "city": "Roztoky",
    "city_ascii": "Roztoky",
    "lat": "50.1585",
    "lng": "14.3977",
    "country": "Czechia",
    "iso2": "CZ",
    "iso3": "CZE",
    "admin_name": "Středočeský Kraj",
    "capital": "",
    "population": "8783",
    "id": "1203472886"
  },
  {
    "city": "Tišnov",
    "city_ascii": "Tisnov",
    "lat": "49.3487",
    "lng": "16.4244",
    "country": "Czechia",
    "iso2": "CZ",
    "iso3": "CZE",
    "admin_name": "Jihomoravský Kraj",
    "capital": "",
    "population": "9267",
    "id": "1203595572"
  },
  {
    "city": "Studénka",
    "city_ascii": "Studenka",
    "lat": "49.7234",
    "lng": "18.0786",
    "country": "Czechia",
    "iso2": "CZ",
    "iso3": "CZE",
    "admin_name": "Moravskoslezský Kraj",
    "capital": "",
    "population": "9466",
    "id": "1203000978"
  },
  {
    "city": "Nové Město nad Metují",
    "city_ascii": "Nove Mesto nad Metuji",
    "lat": "50.3446",
    "lng": "16.1515",
    "country": "Czechia",
    "iso2": "CZ",
    "iso3": "CZE",
    "admin_name": "Královéhradecký Kraj",
    "capital": "",
    "population": "9317",
    "id": "1203259477"
  },
  {
    "city": "Hostivice",
    "city_ascii": "Hostivice",
    "lat": "50.0814",
    "lng": "14.2525",
    "country": "Czechia",
    "iso2": "CZ",
    "iso3": "CZE",
    "admin_name": "Středočeský Kraj",
    "capital": "",
    "population": "8917",
    "id": "1203249506"
  },
  {
    "city": "Mohelnice",
    "city_ascii": "Mohelnice",
    "lat": "49.7770",
    "lng": "16.9195",
    "country": "Czechia",
    "iso2": "CZ",
    "iso3": "CZE",
    "admin_name": "Olomoucký Kraj",
    "capital": "",
    "population": "9255",
    "id": "1203067373"
  },
  {
    "city": "Lovosice",
    "city_ascii": "Lovosice",
    "lat": "50.5151",
    "lng": "14.0511",
    "country": "Czechia",
    "iso2": "CZ",
    "iso3": "CZE",
    "admin_name": "Ústecký Kraj",
    "capital": "",
    "population": "8715",
    "id": "1203138826"
  },
  {
    "city": "Nová Paka",
    "city_ascii": "Nova Paka",
    "lat": "50.4945",
    "lng": "15.5151",
    "country": "Czechia",
    "iso2": "CZ",
    "iso3": "CZE",
    "admin_name": "Liberecký Kraj",
    "capital": "",
    "population": "9044",
    "id": "1203255589"
  },
  {
    "city": "Chotěboř",
    "city_ascii": "Chotebor",
    "lat": "49.7208",
    "lng": "15.6703",
    "country": "Czechia",
    "iso2": "CZ",
    "iso3": "CZE",
    "admin_name": "Vysočina",
    "capital": "",
    "population": "9103",
    "id": "1203957935"
  },
  {
    "city": "Duchcov",
    "city_ascii": "Duchcov",
    "lat": "50.6039",
    "lng": "13.7464",
    "country": "Czechia",
    "iso2": "CZ",
    "iso3": "CZE",
    "admin_name": "Ústecký Kraj",
    "capital": "",
    "population": "8589",
    "id": "1203260902"
  },
  {
    "city": "Mnichovo Hradiště",
    "city_ascii": "Mnichovo Hradiste",
    "lat": "50.5273",
    "lng": "14.9714",
    "country": "Czechia",
    "iso2": "CZ",
    "iso3": "CZE",
    "admin_name": "Středočeský Kraj",
    "capital": "",
    "population": "8858",
    "id": "1203949277"
  },
  {
    "city": "Polička",
    "city_ascii": "Policka",
    "lat": "49.7147",
    "lng": "16.2655",
    "country": "Czechia",
    "iso2": "CZ",
    "iso3": "CZE",
    "admin_name": "Pardubický Kraj",
    "capital": "",
    "population": "8808",
    "id": "1203964642"
  },
  {
    "city": "Dobříš",
    "city_ascii": "Dobris",
    "lat": "49.7811",
    "lng": "14.1672",
    "country": "Czechia",
    "iso2": "CZ",
    "iso3": "CZE",
    "admin_name": "Středočeský Kraj",
    "capital": "",
    "population": "8828",
    "id": "1203853361"
  },
  {
    "city": "Choceň",
    "city_ascii": "Chocen",
    "lat": "50.0017",
    "lng": "16.2231",
    "country": "Czechia",
    "iso2": "CZ",
    "iso3": "CZE",
    "admin_name": "Pardubický Kraj",
    "capital": "",
    "population": "8584",
    "id": "1203284714"
  },
  {
    "city": "Štětí",
    "city_ascii": "Steti",
    "lat": "50.4531",
    "lng": "14.3743",
    "country": "Czechia",
    "iso2": "CZ",
    "iso3": "CZE",
    "admin_name": "Ústecký Kraj",
    "capital": "",
    "population": "8584",
    "id": "1203443601"
  }
]