[
  {
    "city": "Asmara",
    "city_ascii": "Asmara",
    "lat": "15.3228",
    "lng": "38.9250",
    "country": "Eritrea",
    "iso2": "ER",
    "iso3": "ERI",
    "admin_name": "Ma’ĭkel",
    "capital": "primary",
    "population": "963000",
    "id": "1232791236"
  },
  {
    "city": "Keren",
    "city_ascii": "Keren",
    "lat": "15.7778",
    "lng": "38.4581",
    "country": "Eritrea",
    "iso2": "ER",
    "iso3": "ERI",
    "admin_name": "‘Anseba",
    "capital": "admin",
    "population": "146500",
    "id": "1232693598"
  },
  {
    "city": "Assab",
    "city_ascii": "Assab",
    "lat": "13.0167",
    "lng": "42.7333",
    "country": "Eritrea",
    "iso2": "ER",
    "iso3": "ERI",
    "admin_name": "Debubawi K’eyyĭḥ Baḥri",
    "capital": "admin",
    "population": "74405",
    "id": "1232396238"
  },
  {
    "city": "Massawa",
    "city_ascii": "Massawa",
    "lat": "15.6097",
    "lng": "39.4500",
    "country": "Eritrea",
    "iso2": "ER",
    "iso3": "ERI",
    "admin_name": "Semienawi K’eyyĭḥ Baḥri",
    "capital": "admin",
    "population": "39758",
    "id": "1232344222"
  },
  {
    "city": "Mendefera",
    "city_ascii": "Mendefera",
    "lat": "14.8833",
    "lng": "38.8167",
    "country": "Eritrea",
    "iso2": "ER",
    "iso3": "ERI",
    "admin_name": "Debub",
    "capital": "admin",
    "population": "28492",
    "id": "1232751882"
  },
  {
    "city": "Barentu",
    "city_ascii": "Barentu",
    "lat": "15.1167",
    "lng": "37.6000",
    "country": "Eritrea",
    "iso2": "ER",
    "iso3": "ERI",
    "admin_name": "Gash-Barka",
    "capital": "admin",
    "population": "15891",
    "id": "1232695352"
  },
  {
    "city": "Gwelej",
    "city_ascii": "Gwelej",
    "lat": "14.7500",
    "lng": "36.7167",
    "country": "Eritrea",
    "iso2": "ER",
    "iso3": "ERI",
    "admin_name": "Gash-Barka",
    "capital": "",
    "population": "100000",
    "id": "1232869245"
  },
  {
    "city": "Dbarwa",
    "city_ascii": "Dbarwa",
    "lat": "15.1000",
    "lng": "38.8333",
    "country": "Eritrea",
    "iso2": "ER",
    "iso3": "ERI",
    "admin_name": "Debub",
    "capital": "",
    "population": "25000",
    "id": "1232218993"
  },
  {
    "city": "Bēylul",
    "city_ascii": "Beylul",
    "lat": "13.2644",
    "lng": "42.3342",
    "country": "Eritrea",
    "iso2": "ER",
    "iso3": "ERI",
    "admin_name": "Debubawi K’eyyĭḥ Baḥri",
    "capital": "",
    "population": "14055",
    "id": "1232983964"
  },
  {
    "city": "Adi Keyh",
    "city_ascii": "Adi Keyh",
    "lat": "14.8333",
    "lng": "39.3667",
    "country": "Eritrea",
    "iso2": "ER",
    "iso3": "ERI",
    "admin_name": "Ma’ĭkel",
    "capital": "",
    "population": "13061",
    "id": "1232384326"
  },
  {
    "city": "Ghinda’e",
    "city_ascii": "Ghinda'e",
    "lat": "15.4500",
    "lng": "39.0833",
    "country": "Eritrea",
    "iso2": "ER",
    "iso3": "ERI",
    "admin_name": "Semienawi K’eyyĭḥ Baḥri",
    "capital": "",
    "population": "11560",
    "id": "1232629758"
  },
  {
    "city": "Edd",
    "city_ascii": "Edd",
    "lat": "13.9333",
    "lng": "41.7000",
    "country": "Eritrea",
    "iso2": "ER",
    "iso3": "ERI",
    "admin_name": "Debubawi K’eyyĭḥ Baḥri",
    "capital": "",
    "population": "11259",
    "id": "1232211688"
  },
  {
    "city": "Dek’emhāre",
    "city_ascii": "Dek'emhare",
    "lat": "15.0667",
    "lng": "39.0333",
    "country": "Eritrea",
    "iso2": "ER",
    "iso3": "ERI",
    "admin_name": "Debub",
    "capital": "",
    "population": "10959",
    "id": "1232763839"
  },
  {
    "city": "Ak’ordat",
    "city_ascii": "Ak'ordat",
    "lat": "15.5500",
    "lng": "37.8833",
    "country": "Eritrea",
    "iso2": "ER",
    "iso3": "ERI",
    "admin_name": "Gash-Barka",
    "capital": "",
    "population": "8857",
    "id": "1232800240"
  },
  {
    "city": "Nefasīt",
    "city_ascii": "Nefasit",
    "lat": "15.3333",
    "lng": "39.0619",
    "country": "Eritrea",
    "iso2": "ER",
    "iso3": "ERI",
    "admin_name": "Semienawi K’eyyĭḥ Baḥri",
    "capital": "",
    "population": "8600",
    "id": "1232567577"
  },
  {
    "city": "Teseney",
    "city_ascii": "Teseney",
    "lat": "15.1100",
    "lng": "36.6575",
    "country": "Eritrea",
    "iso2": "ER",
    "iso3": "ERI",
    "admin_name": "Gash-Barka",
    "capital": "",
    "population": "3753",
    "id": "1232609825"
  }
]