[
  {
    "city": "Suva",
    "city_ascii": "Suva",
    "lat": "-18.1416",
    "lng": "178.4419",
    "country": "Fiji",
    "iso2": "FJ",
    "iso3": "FJI",
    "admin_name": "Rewa",
    "capital": "primary",
    "population": "185913",
    "id": "1242615095"
  },
  {
    "city": "Nausori",
    "city_ascii": "Nausori",
    "lat": "-18.0244",
    "lng": "178.5454",
    "country": "Fiji",
    "iso2": "FJ",
    "iso3": "FJI",
    "admin_name": "Tailevu",
    "capital": "",
    "population": "57882",
    "id": "1242640119"
  },
  {
    "city": "Lautoka",
    "city_ascii": "Lautoka",
    "lat": "-17.6242",
    "lng": "177.4528",
    "country": "Fiji",
    "iso2": "FJ",
    "iso3": "FJI",
    "admin_name": "Ba",
    "capital": "",
    "population": "52220",
    "id": "1242457077"
  },
  {
    "city": "Nakasi",
    "city_ascii": "Nakasi",
    "lat": "-18.0667",
    "lng": "178.5167",
    "country": "Fiji",
    "iso2": "FJ",
    "iso3": "FJI",
    "admin_name": "Naitasiri",
    "capital": "",
    "population": "18919",
    "id": "1242908509"
  },
  {
    "city": "Lami",
    "city_ascii": "Lami",
    "lat": "-18.1167",
    "lng": "178.4167",
    "country": "Fiji",
    "iso2": "FJ",
    "iso3": "FJI",
    "admin_name": "Rewa",
    "capital": "",
    "population": "20529",
    "id": "1242263735"
  },
  {
    "city": "Nadi",
    "city_ascii": "Nadi",
    "lat": "-17.8000",
    "lng": "177.4167",
    "country": "Fiji",
    "iso2": "FJ",
    "iso3": "FJI",
    "admin_name": "Ba",
    "capital": "",
    "population": "71048",
    "id": "1242357822"
  },
  {
    "city": "Labasa",
    "city_ascii": "Labasa",
    "lat": "-16.4311",
    "lng": "179.3703",
    "country": "Fiji",
    "iso2": "FJ",
    "iso3": "FJI",
    "admin_name": "Macuata",
    "capital": "",
    "population": "27949",
    "id": "1242740801"
  },
  {
    "city": "Ba",
    "city_ascii": "Ba",
    "lat": "-17.5333",
    "lng": "177.6833",
    "country": "Fiji",
    "iso2": "FJ",
    "iso3": "FJI",
    "admin_name": "Ba",
    "capital": "",
    "population": "18526",
    "id": "1242193764"
  },
  {
    "city": "Sigatoka",
    "city_ascii": "Sigatoka",
    "lat": "-18.1414",
    "lng": "177.5069",
    "country": "Fiji",
    "iso2": "FJ",
    "iso3": "FJI",
    "admin_name": "Nadroga and Navosa",
    "capital": "",
    "population": "9622",
    "id": "1242813237"
  }
]