[
  {
    "city": "Abidjan",
    "city_ascii": "Abidjan",
    "lat": "5.3167",
    "lng": "-4.0333",
    "country": "Côte d'Ivoire",
    "iso2": "CI",
    "iso3": "CIV",
    "admin_name": "Abidjan",
    "capital": "primary",
    "population": "4980000",
    "id": "1384207980"
  },
  {
    "city": "Yopougon",
    "city_ascii": "Yopougon",
    "lat": "5.3167",
    "lng": "-4.0667",
    "country": "Côte d'Ivoire",
    "iso2": "CI",
    "iso3": "CIV",
    "admin_name": "Abidjan",
    "capital": "",
    "population": "1571065",
    "id": "1384759584"
  },
  {
    "city": "Yamoussoukro",
    "city_ascii": "Yamoussoukro",
    "lat": "6.8161",
    "lng": "-5.2742",
    "country": "Côte d'Ivoire",
    "iso2": "CI",
    "iso3": "CIV",
    "admin_name": "Yamoussoukro",
    "capital": "primary",
    "population": "355573",
    "id": "1384683557"
  },
  {
    "city": "Cocody",
    "city_ascii": "Cocody",
    "lat": "5.3500",
    "lng": "-3.9667",
    "country": "Côte d'Ivoire",
    "iso2": "CI",
    "iso3": "CIV",
    "admin_name": "Abidjan",
    "capital": "",
    "population": "692583",
    "id": "1384351512"
  },
  {
    "city": "Bouaké",
    "city_ascii": "Bouake",
    "lat": "7.6833",
    "lng": "-5.0167",
    "country": "Côte d'Ivoire",
    "iso2": "CI",
    "iso3": "CIV",
    "admin_name": "Vallée du Bandama",
    "capital": "admin",
    "population": "659233",
    "id": "1384983838"
  },
  {
    "city": "Port-Bouët",
    "city_ascii": "Port-Bouet",
    "lat": "5.2667",
    "lng": "-3.9000",
    "country": "Côte d'Ivoire",
    "iso2": "CI",
    "iso3": "CIV",
    "admin_name": "Abidjan",
    "capital": "",
    "population": "618795",
    "id": "1384512844"
  },
  {
    "city": "Koumassi",
    "city_ascii": "Koumassi",
    "lat": "5.3000",
    "lng": "-3.9500",
    "country": "Côte d'Ivoire",
    "iso2": "CI",
    "iso3": "CIV",
    "admin_name": "Abidjan",
    "capital": "",
    "population": "412282",
    "id": "1384863297"
  },
  {
    "city": "Daloa",
    "city_ascii": "Daloa",
    "lat": "6.8833",
    "lng": "-6.4500",
    "country": "Côte d'Ivoire",
    "iso2": "CI",
    "iso3": "CIV",
    "admin_name": "Sassandra-Marahoué",
    "capital": "admin",
    "population": "421871",
    "id": "1384564974"
  },
  {
    "city": "San-Pédro",
    "city_ascii": "San-Pedro",
    "lat": "4.7500",
    "lng": "-6.6333",
    "country": "Côte d'Ivoire",
    "iso2": "CI",
    "iso3": "CIV",
    "admin_name": "Bas-Sassandra",
    "capital": "admin",
    "population": "390654",
    "id": "1384436547"
  },
  {
    "city": "Attiecoubé",
    "city_ascii": "Attiecoube",
    "lat": "5.3333",
    "lng": "-4.0333",
    "country": "Côte d'Ivoire",
    "iso2": "CI",
    "iso3": "CIV",
    "admin_name": "Abidjan",
    "capital": "",
    "population": "313135",
    "id": "1384919817"
  },
  {
    "city": "Korhogo",
    "city_ascii": "Korhogo",
    "lat": "9.4167",
    "lng": "-5.6167",
    "country": "Côte d'Ivoire",
    "iso2": "CI",
    "iso3": "CIV",
    "admin_name": "Savanes",
    "capital": "admin",
    "population": "286071",
    "id": "1384205840"
  },
  {
    "city": "Gagnoa",
    "city_ascii": "Gagnoa",
    "lat": "6.1333",
    "lng": "-5.9333",
    "country": "Côte d'Ivoire",
    "iso2": "CI",
    "iso3": "CIV",
    "admin_name": "Gôh-Djiboua",
    "capital": "admin",
    "population": "277044",
    "id": "1384138010"
  },
  {
    "city": "Soubré",
    "city_ascii": "Soubre",
    "lat": "5.7833",
    "lng": "-6.6000",
    "country": "Côte d'Ivoire",
    "iso2": "CI",
    "iso3": "CIV",
    "admin_name": "Bas-Sassandra",
    "capital": "minor",
    "population": "272773",
    "id": "1384745470"
  },
  {
    "city": "Oumé",
    "city_ascii": "Oume",
    "lat": "6.3833",
    "lng": "-5.4167",
    "country": "Côte d'Ivoire",
    "iso2": "CI",
    "iso3": "CIV",
    "admin_name": "Gôh-Djiboua",
    "capital": "minor",
    "population": "260786",
    "id": "1384920146"
  },
  {
    "city": "Man",
    "city_ascii": "Man",
    "lat": "7.4000",
    "lng": "-7.5500",
    "country": "Côte d'Ivoire",
    "iso2": "CI",
    "iso3": "CIV",
    "admin_name": "Montagnes",
    "capital": "admin",
    "population": "241969",
    "id": "1384112524"
  },
  {
    "city": "Marcory",
    "city_ascii": "Marcory",
    "lat": "5.3000",
    "lng": "-3.9833",
    "country": "Côte d'Ivoire",
    "iso2": "CI",
    "iso3": "CIV",
    "admin_name": "Abidjan",
    "capital": "",
    "population": "214061",
    "id": "1384405403"
  },
  {
    "city": "Duekoué",
    "city_ascii": "Duekoue",
    "lat": "6.7333",
    "lng": "-7.3500",
    "country": "Côte d'Ivoire",
    "iso2": "CI",
    "iso3": "CIV",
    "admin_name": "Montagnes",
    "capital": "minor",
    "population": "220953",
    "id": "1384429839"
  },
  {
    "city": "Bingerville",
    "city_ascii": "Bingerville",
    "lat": "5.3500",
    "lng": "-3.9000",
    "country": "Côte d'Ivoire",
    "iso2": "CI",
    "iso3": "CIV",
    "admin_name": "Abidjan",
    "capital": "minor",
    "population": "204656",
    "id": "1384754377"
  },
  {
    "city": "Divo",
    "city_ascii": "Divo",
    "lat": "5.8333",
    "lng": "-5.3667",
    "country": "Côte d'Ivoire",
    "iso2": "CI",
    "iso3": "CIV",
    "admin_name": "Gôh-Djiboua",
    "capital": "minor",
    "population": "179455",
    "id": "1384831436"
  },
  {
    "city": "Abengourou",
    "city_ascii": "Abengourou",
    "lat": "6.7333",
    "lng": "-3.4833",
    "country": "Côte d'Ivoire",
    "iso2": "CI",
    "iso3": "CIV",
    "admin_name": "Comoé",
    "capital": "admin",
    "population": "164424",
    "id": "1384295898"
  },
  {
    "city": "Ferkessédougou",
    "city_ascii": "Ferkessedougou",
    "lat": "9.5833",
    "lng": "-5.2000",
    "country": "Côte d'Ivoire",
    "iso2": "CI",
    "iso3": "CIV",
    "admin_name": "Savanes",
    "capital": "minor",
    "population": "160267",
    "id": "1384974005"
  },
  {
    "city": "Adzopé",
    "city_ascii": "Adzope",
    "lat": "6.1667",
    "lng": "-3.9833",
    "country": "Côte d'Ivoire",
    "iso2": "CI",
    "iso3": "CIV",
    "admin_name": "Lagunes",
    "capital": "minor",
    "population": "156488",
    "id": "1384370507"
  },
  {
    "city": "Bondoukou",
    "city_ascii": "Bondoukou",
    "lat": "8.0333",
    "lng": "-2.8000",
    "country": "Côte d'Ivoire",
    "iso2": "CI",
    "iso3": "CIV",
    "admin_name": "Zanzan",
    "capital": "admin",
    "population": "141568",
    "id": "1384649653"
  },
  {
    "city": "Dabou",
    "city_ascii": "Dabou",
    "lat": "5.3167",
    "lng": "-4.3833",
    "country": "Côte d'Ivoire",
    "iso2": "CI",
    "iso3": "CIV",
    "admin_name": "Lagunes",
    "capital": "admin",
    "population": "138083",
    "id": "1384274793"
  },
  {
    "city": "Agboville",
    "city_ascii": "Agboville",
    "lat": "5.9333",
    "lng": "-4.2167",
    "country": "Côte d'Ivoire",
    "iso2": "CI",
    "iso3": "CIV",
    "admin_name": "Lagunes",
    "capital": "minor",
    "population": "135082",
    "id": "1384823872"
  },
  {
    "city": "Séguéla",
    "city_ascii": "Seguela",
    "lat": "7.9667",
    "lng": "-6.6667",
    "country": "Côte d'Ivoire",
    "iso2": "CI",
    "iso3": "CIV",
    "admin_name": "Woroba",
    "capital": "admin",
    "population": "103980",
    "id": "1384639807"
  },
  {
    "city": "Daoukro",
    "city_ascii": "Daoukro",
    "lat": "7.0500",
    "lng": "-3.9667",
    "country": "Côte d'Ivoire",
    "iso2": "CI",
    "iso3": "CIV",
    "admin_name": "Lacs",
    "capital": "minor",
    "population": "101136",
    "id": "1384963890"
  },
  {
    "city": "Aboisso",
    "city_ascii": "Aboisso",
    "lat": "5.4667",
    "lng": "-3.2000",
    "country": "Côte d'Ivoire",
    "iso2": "CI",
    "iso3": "CIV",
    "admin_name": "Comoé",
    "capital": "minor",
    "population": "100903",
    "id": "1384385857"
  },
  {
    "city": "Odienné",
    "city_ascii": "Odienne",
    "lat": "9.5000",
    "lng": "-7.5667",
    "country": "Côte d'Ivoire",
    "iso2": "CI",
    "iso3": "CIV",
    "admin_name": "Denguélé",
    "capital": "admin",
    "population": "86279",
    "id": "1384967993"
  },
  {
    "city": "Dimbokro",
    "city_ascii": "Dimbokro",
    "lat": "6.6500",
    "lng": "-4.7000",
    "country": "Côte d'Ivoire",
    "iso2": "CI",
    "iso3": "CIV",
    "admin_name": "Lacs",
    "capital": "admin",
    "population": "70198",
    "id": "1384235566"
  },
  {
    "city": "Bangolo",
    "city_ascii": "Bangolo",
    "lat": "7.0123",
    "lng": "-7.4864",
    "country": "Côte d'Ivoire",
    "iso2": "CI",
    "iso3": "CIV",
    "admin_name": "Montagnes",
    "capital": "admin",
    "population": "",
    "id": "1384048438"
  },
  {
    "city": "Bouna",
    "city_ascii": "Bouna",
    "lat": "9.2667",
    "lng": "-3.0000",
    "country": "Côte d'Ivoire",
    "iso2": "CI",
    "iso3": "CIV",
    "admin_name": "Zanzan",
    "capital": "minor",
    "population": "94883",
    "id": "1384414296"
  },
  {
    "city": "Boundiali",
    "city_ascii": "Boundiali",
    "lat": "9.5167",
    "lng": "-6.4833",
    "country": "Côte d'Ivoire",
    "iso2": "CI",
    "iso3": "CIV",
    "admin_name": "Savanes",
    "capital": "minor",
    "population": "92792",
    "id": "1384246050"
  },
  {
    "city": "Katiola",
    "city_ascii": "Katiola",
    "lat": "8.1333",
    "lng": "-5.1000",
    "country": "Côte d'Ivoire",
    "iso2": "CI",
    "iso3": "CIV",
    "admin_name": "Vallée du Bandama",
    "capital": "minor",
    "population": "90641",
    "id": "1384854888"
  },
  {
    "city": "Sassandra",
    "city_ascii": "Sassandra",
    "lat": "4.9500",
    "lng": "-6.0833",
    "country": "Côte d'Ivoire",
    "iso2": "CI",
    "iso3": "CIV",
    "admin_name": "Bas-Sassandra",
    "capital": "minor",
    "population": "87945",
    "id": "1384107875"
  },
  {
    "city": "Grand-Bassam",
    "city_ascii": "Grand-Bassam",
    "lat": "5.2000",
    "lng": "-3.7333",
    "country": "Côte d'Ivoire",
    "iso2": "CI",
    "iso3": "CIV",
    "admin_name": "Comoé",
    "capital": "minor",
    "population": "73772",
    "id": "1384167408"
  },
  {
    "city": "Bongouanou",
    "city_ascii": "Bongouanou",
    "lat": "6.6500",
    "lng": "-4.2000",
    "country": "Côte d'Ivoire",
    "iso2": "CI",
    "iso3": "CIV",
    "admin_name": "Lacs",
    "capital": "minor",
    "population": "74281",
    "id": "1384380718"
  },
  {
    "city": "Mankono",
    "city_ascii": "Mankono",
    "lat": "8.0500",
    "lng": "-6.1833",
    "country": "Côte d'Ivoire",
    "iso2": "CI",
    "iso3": "CIV",
    "admin_name": "Woroba",
    "capital": "minor",
    "population": "74165",
    "id": "1384518405"
  },
  {
    "city": "Bouaflé",
    "city_ascii": "Bouafle",
    "lat": "6.9833",
    "lng": "-5.7500",
    "country": "Côte d'Ivoire",
    "iso2": "CI",
    "iso3": "CIV",
    "admin_name": "Sassandra-Marahoué",
    "capital": "minor",
    "population": "71792",
    "id": "1384274339"
  },
  {
    "city": "Guiglo",
    "city_ascii": "Guiglo",
    "lat": "6.5500",
    "lng": "-7.4833",
    "country": "Côte d'Ivoire",
    "iso2": "CI",
    "iso3": "CIV",
    "admin_name": "Montagnes",
    "capital": "minor",
    "population": "63643",
    "id": "1384483732"
  },
  {
    "city": "Toumodi",
    "city_ascii": "Toumodi",
    "lat": "6.5520",
    "lng": "-5.0190",
    "country": "Côte d'Ivoire",
    "iso2": "CI",
    "iso3": "CIV",
    "admin_name": "Lacs",
    "capital": "minor",
    "population": "39005",
    "id": "1384416676"
  },
  {
    "city": "Touba",
    "city_ascii": "Touba",
    "lat": "8.2833",
    "lng": "-7.6833",
    "country": "Côte d'Ivoire",
    "iso2": "CI",
    "iso3": "CIV",
    "admin_name": "Woroba",
    "capital": "minor",
    "population": "31844",
    "id": "1384485647"
  },
  {
    "city": "Bonoufla",
    "city_ascii": "Bonoufla",
    "lat": "7.1333",
    "lng": "-6.4833",
    "country": "Côte d'Ivoire",
    "iso2": "CI",
    "iso3": "CIV",
    "admin_name": "Sassandra-Marahoué",
    "capital": "",
    "population": "23467",
    "id": "1384583177"
  },
  {
    "city": "Zaliohouan",
    "city_ascii": "Zaliohouan",
    "lat": "6.7833",
    "lng": "-6.2333",
    "country": "Côte d'Ivoire",
    "iso2": "CI",
    "iso3": "CIV",
    "admin_name": "Sassandra-Marahoué",
    "capital": "",
    "population": "20867",
    "id": "1384464976"
  },
  {
    "city": "Yabayo",
    "city_ascii": "Yabayo",
    "lat": "5.9500",
    "lng": "-6.6000",
    "country": "Côte d'Ivoire",
    "iso2": "CI",
    "iso3": "CIV",
    "admin_name": "Bas-Sassandra",
    "capital": "",
    "population": "20086",
    "id": "1384922069"
  },
  {
    "city": "Luénoufla",
    "city_ascii": "Luenoufla",
    "lat": "7.0667",
    "lng": "-6.2500",
    "country": "Côte d'Ivoire",
    "iso2": "CI",
    "iso3": "CIV",
    "admin_name": "Sassandra-Marahoué",
    "capital": "",
    "population": "19643",
    "id": "1384556975"
  },
  {
    "city": "Mabéhiri",
    "city_ascii": "Mabehiri",
    "lat": "5.6833",
    "lng": "-6.4167",
    "country": "Côte d'Ivoire",
    "iso2": "CI",
    "iso3": "CIV",
    "admin_name": "Bas-Sassandra",
    "capital": "",
    "population": "17909",
    "id": "1384102956"
  },
  {
    "city": "Para",
    "city_ascii": "Para",
    "lat": "5.5167",
    "lng": "-7.3333",
    "country": "Côte d'Ivoire",
    "iso2": "CI",
    "iso3": "CIV",
    "admin_name": "Bas-Sassandra",
    "capital": "",
    "population": "17594",
    "id": "1384364677"
  },
  {
    "city": "Brofodoumé",
    "city_ascii": "Brofodoume",
    "lat": "5.5167",
    "lng": "-3.9333",
    "country": "Côte d'Ivoire",
    "iso2": "CI",
    "iso3": "CIV",
    "admin_name": "Abidjan",
    "capital": "",
    "population": "15842",
    "id": "1384691434"
  },
  {
    "city": "Ahigbé Koffikro",
    "city_ascii": "Ahigbe Koffikro",
    "lat": "5.4000",
    "lng": "-3.3833",
    "country": "Côte d'Ivoire",
    "iso2": "CI",
    "iso3": "CIV",
    "admin_name": "Comoé",
    "capital": "",
    "population": "14928",
    "id": "1384105456"
  },
  {
    "city": "Doukouya",
    "city_ascii": "Doukouya",
    "lat": "6.4333",
    "lng": "-5.5500",
    "country": "Côte d'Ivoire",
    "iso2": "CI",
    "iso3": "CIV",
    "admin_name": "Gôh-Djiboua",
    "capital": "",
    "population": "14881",
    "id": "1384210901"
  },
  {
    "city": "Minignan",
    "city_ascii": "Minignan",
    "lat": "10.0000",
    "lng": "-7.8333",
    "country": "Côte d'Ivoire",
    "iso2": "CI",
    "iso3": "CIV",
    "admin_name": "Denguélé",
    "capital": "minor",
    "population": "14521",
    "id": "1384218318"
  },
  {
    "city": "Pélézi",
    "city_ascii": "Pelezi",
    "lat": "7.2833",
    "lng": "-6.8333",
    "country": "Côte d'Ivoire",
    "iso2": "CI",
    "iso3": "CIV",
    "admin_name": "Sassandra-Marahoué",
    "capital": "",
    "population": "14100",
    "id": "1384934552"
  },
  {
    "city": "Mignouré",
    "city_ascii": "Mignoure",
    "lat": "7.4833",
    "lng": "-6.7833",
    "country": "Côte d'Ivoire",
    "iso2": "CI",
    "iso3": "CIV",
    "admin_name": "Sassandra-Marahoué",
    "capital": "",
    "population": "14025",
    "id": "1384735479"
  }
]