[
  {
    "city": "Tashkent",
    "city_ascii": "Tashkent",
    "lat": "41.3111",
    "lng": "69.2797",
    "country": "Uzbekistan",
    "iso2": "UZ",
    "iso3": "UZB",
    "admin_name": "Toshkent",
    "capital": "primary",
    "population": "2571668",
    "id": "1860331871"
  },
  {
    "city": "Namangan",
    "city_ascii": "Namangan",
    "lat": "41.0011",
    "lng": "71.6683",
    "country": "Uzbekistan",
    "iso2": "UZ",
    "iso3": "UZB",
    "admin_name": "Namangan",
    "capital": "admin",
    "population": "626120",
    "id": "1860894033"
  },
  {
    "city": "Samarkand",
    "city_ascii": "Samarkand",
    "lat": "39.6547",
    "lng": "66.9758",
    "country": "Uzbekistan",
    "iso2": "UZ",
    "iso3": "UZB",
    "admin_name": "Samarqand",
    "capital": "admin",
    "population": "546303",
    "id": "1860388706"
  },
  {
    "city": "Andijon",
    "city_ascii": "Andijon",
    "lat": "40.7833",
    "lng": "72.3333",
    "country": "Uzbekistan",
    "iso2": "UZ",
    "iso3": "UZB",
    "admin_name": "Andijon",
    "capital": "admin",
    "population": "441700",
    "id": "1860445095"
  },
  {
    "city": "Qo‘qon",
    "city_ascii": "Qo`qon",
    "lat": "40.5286",
    "lng": "70.9425",
    "country": "Uzbekistan",
    "iso2": "UZ",
    "iso3": "UZB",
    "admin_name": "Farg‘ona",
    "capital": "",
    "population": "350000",
    "id": "1860403462"
  },
  {
    "city": "Nukus",
    "city_ascii": "Nukus",
    "lat": "42.4667",
    "lng": "59.6000",
    "country": "Uzbekistan",
    "iso2": "UZ",
    "iso3": "UZB",
    "admin_name": "Qoraqalpog‘iston",
    "capital": "admin",
    "population": "319583",
    "id": "1860620079"
  },
  {
    "city": "Farg‘ona",
    "city_ascii": "Farg`ona",
    "lat": "40.3864",
    "lng": "71.7864",
    "country": "Uzbekistan",
    "iso2": "UZ",
    "iso3": "UZB",
    "admin_name": "Farg‘ona",
    "capital": "admin",
    "population": "288850",
    "id": "1860479627"
  },
  {
    "city": "Bukhara",
    "city_ascii": "Bukhara",
    "lat": "39.7667",
    "lng": "64.4333",
    "country": "Uzbekistan",
    "iso2": "UZ",
    "iso3": "UZB",
    "admin_name": "Buxoro",
    "capital": "admin",
    "population": "280187",
    "id": "1860523678"
  },
  {
    "city": "Qarshi",
    "city_ascii": "Qarshi",
    "lat": "38.8667",
    "lng": "65.8000",
    "country": "Uzbekistan",
    "iso2": "UZ",
    "iso3": "UZB",
    "admin_name": "Qashqadaryo",
    "capital": "admin",
    "population": "274891",
    "id": "1860343319"
  },
  {
    "city": "Denov",
    "city_ascii": "Denov",
    "lat": "38.2667",
    "lng": "67.9000",
    "country": "Uzbekistan",
    "iso2": "UZ",
    "iso3": "UZB",
    "admin_name": "Surxondaryo",
    "capital": "",
    "population": "217274",
    "id": "1860150082"
  },
  {
    "city": "Marg‘ilon",
    "city_ascii": "Marg`ilon",
    "lat": "40.4711",
    "lng": "71.7247",
    "country": "Uzbekistan",
    "iso2": "UZ",
    "iso3": "UZB",
    "admin_name": "Farg‘ona",
    "capital": "",
    "population": "215400",
    "id": "1860419224"
  },
  {
    "city": "Iskandar",
    "city_ascii": "Iskandar",
    "lat": "41.5581",
    "lng": "69.7047",
    "country": "Uzbekistan",
    "iso2": "UZ",
    "iso3": "UZB",
    "admin_name": "Toshkent",
    "capital": "",
    "population": "195633",
    "id": "1860285858"
  },
  {
    "city": "Jizzax",
    "city_ascii": "Jizzax",
    "lat": "40.1158",
    "lng": "67.8422",
    "country": "Uzbekistan",
    "iso2": "UZ",
    "iso3": "UZB",
    "admin_name": "Jizzax",
    "capital": "admin",
    "population": "163200",
    "id": "1860218891"
  },
  {
    "city": "Chirchiq",
    "city_ascii": "Chirchiq",
    "lat": "41.4667",
    "lng": "69.5833",
    "country": "Uzbekistan",
    "iso2": "UZ",
    "iso3": "UZB",
    "admin_name": "Toshkent",
    "capital": "",
    "population": "159400",
    "id": "1860343195"
  },
  {
    "city": "Urganch",
    "city_ascii": "Urganch",
    "lat": "41.5500",
    "lng": "60.6333",
    "country": "Uzbekistan",
    "iso2": "UZ",
    "iso3": "UZB",
    "admin_name": "Xorazm",
    "capital": "admin",
    "population": "150000",
    "id": "1860546433"
  },
  {
    "city": "Termiz",
    "city_ascii": "Termiz",
    "lat": "37.2167",
    "lng": "67.2833",
    "country": "Uzbekistan",
    "iso2": "UZ",
    "iso3": "UZB",
    "admin_name": "Surxondaryo",
    "capital": "admin",
    "population": "136200",
    "id": "1860617243"
  },
  {
    "city": "Navoiy",
    "city_ascii": "Navoiy",
    "lat": "40.0844",
    "lng": "65.3792",
    "country": "Uzbekistan",
    "iso2": "UZ",
    "iso3": "UZB",
    "admin_name": "Navoiy",
    "capital": "admin",
    "population": "134100",
    "id": "1860291734"
  },
  {
    "city": "Angren",
    "city_ascii": "Angren",
    "lat": "41.0167",
    "lng": "70.1436",
    "country": "Uzbekistan",
    "iso2": "UZ",
    "iso3": "UZB",
    "admin_name": "Toshkent",
    "capital": "",
    "population": "126962",
    "id": "1860045958"
  },
  {
    "city": "Olmaliq",
    "city_ascii": "Olmaliq",
    "lat": "40.8500",
    "lng": "69.6000",
    "country": "Uzbekistan",
    "iso2": "UZ",
    "iso3": "UZB",
    "admin_name": "Toshkent",
    "capital": "",
    "population": "112078",
    "id": "1860946502"
  },
  {
    "city": "Kogon Shahri",
    "city_ascii": "Kogon Shahri",
    "lat": "39.7275",
    "lng": "64.5547",
    "country": "Uzbekistan",
    "iso2": "UZ",
    "iso3": "UZB",
    "admin_name": "Buxoro",
    "capital": "minor",
    "population": "107566",
    "id": "1860234026"
  },
  {
    "city": "Chust",
    "city_ascii": "Chust",
    "lat": "40.9978",
    "lng": "71.2403",
    "country": "Uzbekistan",
    "iso2": "UZ",
    "iso3": "UZB",
    "admin_name": "Namangan",
    "capital": "",
    "population": "100200",
    "id": "1860392637"
  },
  {
    "city": "Shahrisabz",
    "city_ascii": "Shahrisabz",
    "lat": "39.0500",
    "lng": "66.8333",
    "country": "Uzbekistan",
    "iso2": "UZ",
    "iso3": "UZB",
    "admin_name": "Qashqadaryo",
    "capital": "",
    "population": "100300",
    "id": "1860513278"
  },
  {
    "city": "Guliston",
    "city_ascii": "Guliston",
    "lat": "40.4833",
    "lng": "68.7833",
    "country": "Uzbekistan",
    "iso2": "UZ",
    "iso3": "UZB",
    "admin_name": "Sirdaryo",
    "capital": "admin",
    "population": "55600",
    "id": "1860505287"
  },
  {
    "city": "Xonobod",
    "city_ascii": "Xonobod",
    "lat": "40.8000",
    "lng": "73.0000",
    "country": "Uzbekistan",
    "iso2": "UZ",
    "iso3": "UZB",
    "admin_name": "Andijon",
    "capital": "",
    "population": "42301",
    "id": "1860608604"
  },
  {
    "city": "Urgut Shahri",
    "city_ascii": "Urgut Shahri",
    "lat": "39.4190",
    "lng": "67.2612",
    "country": "Uzbekistan",
    "iso2": "UZ",
    "iso3": "UZB",
    "admin_name": "Samarqand",
    "capital": "minor",
    "population": "99675",
    "id": "1860562788"
  },
  {
    "city": "Quvasoy",
    "city_ascii": "Quvasoy",
    "lat": "40.3000",
    "lng": "71.9667",
    "country": "Uzbekistan",
    "iso2": "UZ",
    "iso3": "UZB",
    "admin_name": "Farg‘ona",
    "capital": "minor",
    "population": "96900",
    "id": "1860491009"
  },
  {
    "city": "Kattagan",
    "city_ascii": "Kattagan",
    "lat": "40.2000",
    "lng": "64.9167",
    "country": "Uzbekistan",
    "iso2": "UZ",
    "iso3": "UZB",
    "admin_name": "Navoiy",
    "capital": "",
    "population": "86745",
    "id": "1860782136"
  },
  {
    "city": "Bekobod",
    "city_ascii": "Bekobod",
    "lat": "40.2167",
    "lng": "69.2167",
    "country": "Uzbekistan",
    "iso2": "UZ",
    "iso3": "UZB",
    "admin_name": "Toshkent",
    "capital": "",
    "population": "82082",
    "id": "1860881451"
  },
  {
    "city": "Qo‘ng‘irot Shahri",
    "city_ascii": "Qo`ng`irot Shahri",
    "lat": "43.0758",
    "lng": "58.9067",
    "country": "Uzbekistan",
    "iso2": "UZ",
    "iso3": "UZB",
    "admin_name": "Qoraqalpog‘iston",
    "capital": "minor",
    "population": "80090",
    "id": "1860555381"
  },
  {
    "city": "Shahrixon",
    "city_ascii": "Shahrixon",
    "lat": "40.7167",
    "lng": "72.0500",
    "country": "Uzbekistan",
    "iso2": "UZ",
    "iso3": "UZB",
    "admin_name": "Andijon",
    "capital": "minor",
    "population": "71400",
    "id": "1860958957"
  },
  {
    "city": "Xo‘jayli Shahri",
    "city_ascii": "Xo`jayli Shahri",
    "lat": "42.4000",
    "lng": "59.4500",
    "country": "Uzbekistan",
    "iso2": "UZ",
    "iso3": "UZB",
    "admin_name": "Qoraqalpog‘iston",
    "capital": "minor",
    "population": "67800",
    "id": "1860783170"
  },
  {
    "city": "Asaka",
    "city_ascii": "Asaka",
    "lat": "40.6333",
    "lng": "72.2333",
    "country": "Uzbekistan",
    "iso2": "UZ",
    "iso3": "UZB",
    "admin_name": "Andijon",
    "capital": "minor",
    "population": "62200",
    "id": "1860622196"
  },
  {
    "city": "Yangiyŭl",
    "city_ascii": "Yangiyul",
    "lat": "41.1125",
    "lng": "69.0467",
    "country": "Uzbekistan",
    "iso2": "UZ",
    "iso3": "UZB",
    "admin_name": "Toshkent",
    "capital": "",
    "population": "61700",
    "id": "1860453808"
  },
  {
    "city": "Parkent",
    "city_ascii": "Parkent",
    "lat": "41.2944",
    "lng": "69.6764",
    "country": "Uzbekistan",
    "iso2": "UZ",
    "iso3": "UZB",
    "admin_name": "Toshkent",
    "capital": "",
    "population": "60200",
    "id": "1860290912"
  },
  {
    "city": "Kattaqo’rg’on Shahri",
    "city_ascii": "Kattaqo'rg'on Shahri",
    "lat": "39.8989",
    "lng": "66.2561",
    "country": "Uzbekistan",
    "iso2": "UZ",
    "iso3": "UZB",
    "admin_name": "Samarqand",
    "capital": "minor",
    "population": "58950",
    "id": "1860871064"
  },
  {
    "city": "Qŭnghirot",
    "city_ascii": "Qunghirot",
    "lat": "43.0704",
    "lng": "58.9000",
    "country": "Uzbekistan",
    "iso2": "UZ",
    "iso3": "UZB",
    "admin_name": "Qoraqalpog‘iston",
    "capital": "",
    "population": "57758",
    "id": "1860586828"
  },
  {
    "city": "Xiva",
    "city_ascii": "Xiva",
    "lat": "41.3833",
    "lng": "60.3667",
    "country": "Uzbekistan",
    "iso2": "UZ",
    "iso3": "UZB",
    "admin_name": "Xorazm",
    "capital": "minor",
    "population": "55568",
    "id": "1860013300"
  },
  {
    "city": "Zarafshon Shahri",
    "city_ascii": "Zarafshon Shahri",
    "lat": "41.6081",
    "lng": "64.2264",
    "country": "Uzbekistan",
    "iso2": "UZ",
    "iso3": "UZB",
    "admin_name": "Navoiy",
    "capital": "",
    "population": "54300",
    "id": "1860278868"
  },
  {
    "city": "Tŭrtkŭl",
    "city_ascii": "Turtkul",
    "lat": "41.5500",
    "lng": "61.0000",
    "country": "Uzbekistan",
    "iso2": "UZ",
    "iso3": "UZB",
    "admin_name": "Qoraqalpog‘iston",
    "capital": "",
    "population": "50800",
    "id": "1860664878"
  },
  {
    "city": "Beruniy",
    "city_ascii": "Beruniy",
    "lat": "41.6833",
    "lng": "60.7500",
    "country": "Uzbekistan",
    "iso2": "UZ",
    "iso3": "UZB",
    "admin_name": "Qoraqalpog‘iston",
    "capital": "",
    "population": "50700",
    "id": "1860882371"
  },
  {
    "city": "Quva",
    "city_ascii": "Quva",
    "lat": "40.5247",
    "lng": "72.0700",
    "country": "Uzbekistan",
    "iso2": "UZ",
    "iso3": "UZB",
    "admin_name": "Farg‘ona",
    "capital": "minor",
    "population": "46400",
    "id": "1860496002"
  },
  {
    "city": "Oqtosh Shahri",
    "city_ascii": "Oqtosh Shahri",
    "lat": "39.9269",
    "lng": "65.9256",
    "country": "Uzbekistan",
    "iso2": "UZ",
    "iso3": "UZB",
    "admin_name": "Samarqand",
    "capital": "minor",
    "population": "41600",
    "id": "1860821760"
  },
  {
    "city": "Kitob",
    "city_ascii": "Kitob",
    "lat": "39.1336",
    "lng": "66.8819",
    "country": "Uzbekistan",
    "iso2": "UZ",
    "iso3": "UZB",
    "admin_name": "Qashqadaryo",
    "capital": "",
    "population": "40800",
    "id": "1860210417"
  },
  {
    "city": "Uchqŭrghon Shahri",
    "city_ascii": "Uchqurghon Shahri",
    "lat": "41.1214",
    "lng": "72.0936",
    "country": "Uzbekistan",
    "iso2": "UZ",
    "iso3": "UZB",
    "admin_name": "Namangan",
    "capital": "minor",
    "population": "40000",
    "id": "1860013712"
  },
  {
    "city": "Xonqa",
    "city_ascii": "Xonqa",
    "lat": "41.4742",
    "lng": "60.7822",
    "country": "Uzbekistan",
    "iso2": "UZ",
    "iso3": "UZB",
    "admin_name": "Xorazm",
    "capital": "minor",
    "population": "39400",
    "id": "1860971478"
  },
  {
    "city": "Ohangaron",
    "city_ascii": "Ohangaron",
    "lat": "40.9061",
    "lng": "69.6444",
    "country": "Uzbekistan",
    "iso2": "UZ",
    "iso3": "UZB",
    "admin_name": "Toshkent",
    "capital": "",
    "population": "37784",
    "id": "1860082477"
  },
  {
    "city": "Chimboy Shahri",
    "city_ascii": "Chimboy Shahri",
    "lat": "42.9295",
    "lng": "59.7820",
    "country": "Uzbekistan",
    "iso2": "UZ",
    "iso3": "UZB",
    "admin_name": "Qoraqalpog‘iston",
    "capital": "minor",
    "population": "36917",
    "id": "1860167547"
  },
  {
    "city": "Dashtobod",
    "city_ascii": "Dashtobod",
    "lat": "40.1269",
    "lng": "68.4944",
    "country": "Uzbekistan",
    "iso2": "UZ",
    "iso3": "UZB",
    "admin_name": "Jizzax",
    "capital": "",
    "population": "36500",
    "id": "1860941088"
  },
  {
    "city": "Chortoq",
    "city_ascii": "Chortoq",
    "lat": "41.0689",
    "lng": "71.8153",
    "country": "Uzbekistan",
    "iso2": "UZ",
    "iso3": "UZB",
    "admin_name": "Namangan",
    "capital": "minor",
    "population": "35615",
    "id": "1860436436"
  },
  {
    "city": "Paxtaobod",
    "city_ascii": "Paxtaobod",
    "lat": "40.9283",
    "lng": "72.4992",
    "country": "Uzbekistan",
    "iso2": "UZ",
    "iso3": "UZB",
    "admin_name": "Andijon",
    "capital": "minor",
    "population": "34400",
    "id": "1860865597"
  },
  {
    "city": "Piskent",
    "city_ascii": "Piskent",
    "lat": "40.8992",
    "lng": "69.3425",
    "country": "Uzbekistan",
    "iso2": "UZ",
    "iso3": "UZB",
    "admin_name": "Toshkent",
    "capital": "",
    "population": "34900",
    "id": "1860730854"
  },
  {
    "city": "Buloqboshi",
    "city_ascii": "Buloqboshi",
    "lat": "40.6222",
    "lng": "72.5028",
    "country": "Uzbekistan",
    "iso2": "UZ",
    "iso3": "UZB",
    "admin_name": "Andijon",
    "capital": "minor",
    "population": "32200",
    "id": "1860281423"
  },
  {
    "city": "Payshamba Shahri",
    "city_ascii": "Payshamba Shahri",
    "lat": "40.0078",
    "lng": "66.2372",
    "country": "Uzbekistan",
    "iso2": "UZ",
    "iso3": "UZB",
    "admin_name": "Samarqand",
    "capital": "minor",
    "population": "32568",
    "id": "1860071345"
  },
  {
    "city": "Kosonsoy",
    "city_ascii": "Kosonsoy",
    "lat": "41.2500",
    "lng": "71.5500",
    "country": "Uzbekistan",
    "iso2": "UZ",
    "iso3": "UZB",
    "admin_name": "Namangan",
    "capital": "minor",
    "population": "31217",
    "id": "1860234389"
  },
  {
    "city": "Qo‘rg‘ontepa",
    "city_ascii": "Qo`rg`ontepa",
    "lat": "40.7336",
    "lng": "72.7583",
    "country": "Uzbekistan",
    "iso2": "UZ",
    "iso3": "UZB",
    "admin_name": "Andijon",
    "capital": "minor",
    "population": "30800",
    "id": "1860268246"
  },
  {
    "city": "Keles",
    "city_ascii": "Keles",
    "lat": "41.4033",
    "lng": "69.2067",
    "country": "Uzbekistan",
    "iso2": "UZ",
    "iso3": "UZB",
    "admin_name": "Toshkent",
    "capital": "",
    "population": "30600",
    "id": "1860903282"
  },
  {
    "city": "To‘raqo‘rg‘on",
    "city_ascii": "To`raqo`rg`on",
    "lat": "41.0000",
    "lng": "71.5158",
    "country": "Uzbekistan",
    "iso2": "UZ",
    "iso3": "UZB",
    "admin_name": "Namangan",
    "capital": "",
    "population": "30300",
    "id": "1860185154"
  },
  {
    "city": "G’ijduvon Shahri",
    "city_ascii": "G'ijduvon Shahri",
    "lat": "40.1000",
    "lng": "64.6667",
    "country": "Uzbekistan",
    "iso2": "UZ",
    "iso3": "UZB",
    "admin_name": "Buxoro",
    "capital": "minor",
    "population": "30486",
    "id": "1860839337"
  },
  {
    "city": "Pop",
    "city_ascii": "Pop",
    "lat": "40.8736",
    "lng": "71.1089",
    "country": "Uzbekistan",
    "iso2": "UZ",
    "iso3": "UZB",
    "admin_name": "Namangan",
    "capital": "",
    "population": "30000",
    "id": "1860055055"
  },
  {
    "city": "Uychi",
    "city_ascii": "Uychi",
    "lat": "41.0294",
    "lng": "71.8483",
    "country": "Uzbekistan",
    "iso2": "UZ",
    "iso3": "UZB",
    "admin_name": "Namangan",
    "capital": "",
    "population": "29683",
    "id": "1860657866"
  },
  {
    "city": "Bulung’ur Shahri",
    "city_ascii": "Bulung'ur Shahri",
    "lat": "39.7600",
    "lng": "67.2700",
    "country": "Uzbekistan",
    "iso2": "UZ",
    "iso3": "UZB",
    "admin_name": "Samarqand",
    "capital": "minor",
    "population": "29200",
    "id": "1860452420"
  },
  {
    "city": "Sherobod",
    "city_ascii": "Sherobod",
    "lat": "37.6667",
    "lng": "67.0000",
    "country": "Uzbekistan",
    "iso2": "UZ",
    "iso3": "UZB",
    "admin_name": "Surxondaryo",
    "capital": "",
    "population": "29100",
    "id": "1860350024"
  },
  {
    "city": "Yangiyer",
    "city_ascii": "Yangiyer",
    "lat": "40.2667",
    "lng": "68.8167",
    "country": "Uzbekistan",
    "iso2": "UZ",
    "iso3": "UZB",
    "admin_name": "Sirdaryo",
    "capital": "",
    "population": "28593",
    "id": "1860492176"
  },
  {
    "city": "Oltinko‘l",
    "city_ascii": "Oltinko`l",
    "lat": "43.0758",
    "lng": "58.9067",
    "country": "Uzbekistan",
    "iso2": "UZ",
    "iso3": "UZB",
    "admin_name": "Qoraqalpog‘iston",
    "capital": "",
    "population": "28300",
    "id": "1860833822"
  },
  {
    "city": "Bo‘ka",
    "city_ascii": "Bo`ka",
    "lat": "40.8136",
    "lng": "69.2019",
    "country": "Uzbekistan",
    "iso2": "UZ",
    "iso3": "UZB",
    "admin_name": "Toshkent",
    "capital": "",
    "population": "28000",
    "id": "1860263265"
  },
  {
    "city": "Qibray",
    "city_ascii": "Qibray",
    "lat": "41.3897",
    "lng": "69.4650",
    "country": "Uzbekistan",
    "iso2": "UZ",
    "iso3": "UZB",
    "admin_name": "Toshkent",
    "capital": "",
    "population": "27750",
    "id": "1860400736"
  },
  {
    "city": "Gurlan",
    "city_ascii": "Gurlan",
    "lat": "41.8500",
    "lng": "60.4000",
    "country": "Uzbekistan",
    "iso2": "UZ",
    "iso3": "UZB",
    "admin_name": "Xorazm",
    "capital": "minor",
    "population": "27300",
    "id": "1860136766"
  },
  {
    "city": "Xovos",
    "city_ascii": "Xovos",
    "lat": "40.2197",
    "lng": "68.8400",
    "country": "Uzbekistan",
    "iso2": "UZ",
    "iso3": "UZB",
    "admin_name": "Sirdaryo",
    "capital": "",
    "population": "27300",
    "id": "1860506724"
  },
  {
    "city": "Haqqulobod",
    "city_ascii": "Haqqulobod",
    "lat": "40.9061",
    "lng": "72.1194",
    "country": "Uzbekistan",
    "iso2": "UZ",
    "iso3": "UZB",
    "admin_name": "Namangan",
    "capital": "minor",
    "population": "27000",
    "id": "1860543628"
  },
  {
    "city": "Zomin Shaharchasi",
    "city_ascii": "Zomin Shaharchasi",
    "lat": "39.9631",
    "lng": "68.3939",
    "country": "Uzbekistan",
    "iso2": "UZ",
    "iso3": "UZB",
    "admin_name": "Jizzax",
    "capital": "minor",
    "population": "27077",
    "id": "1860079464"
  },
  {
    "city": "Dardoq",
    "city_ascii": "Dardoq",
    "lat": "40.8156",
    "lng": "72.8311",
    "country": "Uzbekistan",
    "iso2": "UZ",
    "iso3": "UZB",
    "admin_name": "Andijon",
    "capital": "",
    "population": "26055",
    "id": "1860913698"
  },
  {
    "city": "Poytug‘",
    "city_ascii": "Poytug`",
    "lat": "40.9000",
    "lng": "72.2500",
    "country": "Uzbekistan",
    "iso2": "UZ",
    "iso3": "UZB",
    "admin_name": "Andijon",
    "capital": "minor",
    "population": "26000",
    "id": "1860067682"
  },
  {
    "city": "Oltiariq",
    "city_ascii": "Oltiariq",
    "lat": "40.3917",
    "lng": "71.4767",
    "country": "Uzbekistan",
    "iso2": "UZ",
    "iso3": "UZB",
    "admin_name": "Farg‘ona",
    "capital": "minor",
    "population": "25543",
    "id": "1860439845"
  },
  {
    "city": "Baliqchi",
    "city_ascii": "Baliqchi",
    "lat": "40.9000",
    "lng": "71.8528",
    "country": "Uzbekistan",
    "iso2": "UZ",
    "iso3": "UZB",
    "admin_name": "Andijon",
    "capital": "minor",
    "population": "25100",
    "id": "1860683125"
  },
  {
    "city": "Salor",
    "city_ascii": "Salor",
    "lat": "41.3833",
    "lng": "69.3583",
    "country": "Uzbekistan",
    "iso2": "UZ",
    "iso3": "UZB",
    "admin_name": "Toshkent",
    "capital": "",
    "population": "25521",
    "id": "1860292312"
  },
  {
    "city": "Sho‘rchi",
    "city_ascii": "Sho`rchi",
    "lat": "38.0111",
    "lng": "67.7875",
    "country": "Uzbekistan",
    "iso2": "UZ",
    "iso3": "UZB",
    "admin_name": "Surxondaryo",
    "capital": "",
    "population": "25000",
    "id": "1860901035"
  },
  {
    "city": "Rishton",
    "city_ascii": "Rishton",
    "lat": "40.3567",
    "lng": "71.2847",
    "country": "Uzbekistan",
    "iso2": "UZ",
    "iso3": "UZB",
    "admin_name": "Farg‘ona",
    "capital": "minor",
    "population": "23706",
    "id": "1860062985"
  },
  {
    "city": "G’allaorol Shahri",
    "city_ascii": "G'allaorol Shahri",
    "lat": "40.0214",
    "lng": "67.5975",
    "country": "Uzbekistan",
    "iso2": "UZ",
    "iso3": "UZB",
    "admin_name": "Jizzax",
    "capital": "minor",
    "population": "24700",
    "id": "1860986830"
  },
  {
    "city": "Chinobod",
    "city_ascii": "Chinobod",
    "lat": "40.8767",
    "lng": "71.9725",
    "country": "Uzbekistan",
    "iso2": "UZ",
    "iso3": "UZB",
    "admin_name": "Andijon",
    "capital": "",
    "population": "24000",
    "id": "1860184702"
  },
  {
    "city": "Jalolquduq",
    "city_ascii": "Jalolquduq",
    "lat": "40.7194",
    "lng": "72.6428",
    "country": "Uzbekistan",
    "iso2": "UZ",
    "iso3": "UZB",
    "admin_name": "Andijon",
    "capital": "",
    "population": "24000",
    "id": "1860303427"
  },
  {
    "city": "Uchquduq Shahri",
    "city_ascii": "Uchquduq Shahri",
    "lat": "42.1567",
    "lng": "63.5556",
    "country": "Uzbekistan",
    "iso2": "UZ",
    "iso3": "UZB",
    "admin_name": "Navoiy",
    "capital": "minor",
    "population": "24200",
    "id": "1860459881"
  },
  {
    "city": "Yangi Marg‘ilon",
    "city_ascii": "Yangi Marg`ilon",
    "lat": "40.4311",
    "lng": "71.7183",
    "country": "Uzbekistan",
    "iso2": "UZ",
    "iso3": "UZB",
    "admin_name": "Farg‘ona",
    "capital": "",
    "population": "23531",
    "id": "1860305931"
  },
  {
    "city": "Paxtakor Shahri",
    "city_ascii": "Paxtakor Shahri",
    "lat": "40.3153",
    "lng": "67.9544",
    "country": "Uzbekistan",
    "iso2": "UZ",
    "iso3": "UZB",
    "admin_name": "Jizzax",
    "capital": "minor",
    "population": "23900",
    "id": "1860664894"
  },
  {
    "city": "Chinoz",
    "city_ascii": "Chinoz",
    "lat": "40.9375",
    "lng": "68.7578",
    "country": "Uzbekistan",
    "iso2": "UZ",
    "iso3": "UZB",
    "admin_name": "Toshkent",
    "capital": "",
    "population": "23700",
    "id": "1860346487"
  },
  {
    "city": "Beshariq",
    "city_ascii": "Beshariq",
    "lat": "40.4358",
    "lng": "70.6103",
    "country": "Uzbekistan",
    "iso2": "UZ",
    "iso3": "UZB",
    "admin_name": "Farg‘ona",
    "capital": "minor",
    "population": "22800",
    "id": "1860775601"
  },
  {
    "city": "Manghit",
    "city_ascii": "Manghit",
    "lat": "42.1167",
    "lng": "60.0667",
    "country": "Uzbekistan",
    "iso2": "UZ",
    "iso3": "UZB",
    "admin_name": "Qoraqalpog‘iston",
    "capital": "",
    "population": "22949",
    "id": "1860400027"
  },
  {
    "city": "Jarqo‘rg‘on",
    "city_ascii": "Jarqo`rg`on",
    "lat": "37.5083",
    "lng": "67.4167",
    "country": "Uzbekistan",
    "iso2": "UZ",
    "iso3": "UZB",
    "admin_name": "Surxondaryo",
    "capital": "",
    "population": "22700",
    "id": "1860148120"
  },
  {
    "city": "Qorako‘l Shahri",
    "city_ascii": "Qorako`l Shahri",
    "lat": "39.5028",
    "lng": "63.8556",
    "country": "Uzbekistan",
    "iso2": "UZ",
    "iso3": "UZB",
    "admin_name": "Buxoro",
    "capital": "minor",
    "population": "22300",
    "id": "1860899143"
  },
  {
    "city": "G‘azalkent",
    "city_ascii": "G`azalkent",
    "lat": "41.5625",
    "lng": "69.7750",
    "country": "Uzbekistan",
    "iso2": "UZ",
    "iso3": "UZB",
    "admin_name": "Toshkent",
    "capital": "",
    "population": "21600",
    "id": "1860474160"
  },
  {
    "city": "Chelak",
    "city_ascii": "Chelak",
    "lat": "39.9203",
    "lng": "66.8611",
    "country": "Uzbekistan",
    "iso2": "UZ",
    "iso3": "UZB",
    "admin_name": "Samarqand",
    "capital": "",
    "population": "20800",
    "id": "1860308280"
  },
  {
    "city": "Nurota",
    "city_ascii": "Nurota",
    "lat": "40.5650",
    "lng": "65.6850",
    "country": "Uzbekistan",
    "iso2": "UZ",
    "iso3": "UZB",
    "admin_name": "Navoiy",
    "capital": "",
    "population": "21001",
    "id": "1860266981"
  },
  {
    "city": "Xo‘jaobod",
    "city_ascii": "Xo`jaobod",
    "lat": "40.6653",
    "lng": "72.5667",
    "country": "Uzbekistan",
    "iso2": "UZ",
    "iso3": "UZB",
    "admin_name": "Andijon",
    "capital": "minor",
    "population": "20200",
    "id": "1860459703"
  },
  {
    "city": "Karmana",
    "city_ascii": "Karmana",
    "lat": "40.1422",
    "lng": "65.3625",
    "country": "Uzbekistan",
    "iso2": "UZ",
    "iso3": "UZB",
    "admin_name": "Navoiy",
    "capital": "",
    "population": "20816",
    "id": "1860118561"
  },
  {
    "city": "Sultonobod",
    "city_ascii": "Sultonobod",
    "lat": "40.7644",
    "lng": "72.9764",
    "country": "Uzbekistan",
    "iso2": "UZ",
    "iso3": "UZB",
    "admin_name": "Andijon",
    "capital": "",
    "population": "20000",
    "id": "1860591797"
  },
  {
    "city": "Yakkabog‘",
    "city_ascii": "Yakkabog`",
    "lat": "38.9800",
    "lng": "66.6800",
    "country": "Uzbekistan",
    "iso2": "UZ",
    "iso3": "UZB",
    "admin_name": "Qashqadaryo",
    "capital": "",
    "population": "20600",
    "id": "1860608586"
  },
  {
    "city": "Qorasuv",
    "city_ascii": "Qorasuv",
    "lat": "40.7222",
    "lng": "72.8872",
    "country": "Uzbekistan",
    "iso2": "UZ",
    "iso3": "UZB",
    "admin_name": "Andijon",
    "capital": "",
    "population": "19454",
    "id": "1860791531"
  },
  {
    "city": "Krasnogorskiy",
    "city_ascii": "Krasnogorskiy",
    "lat": "41.1542",
    "lng": "69.6697",
    "country": "Uzbekistan",
    "iso2": "UZ",
    "iso3": "UZB",
    "admin_name": "Toshkent",
    "capital": "",
    "population": "19176",
    "id": "1860769739"
  },
  {
    "city": "Shovot",
    "city_ascii": "Shovot",
    "lat": "41.6500",
    "lng": "60.3000",
    "country": "Uzbekistan",
    "iso2": "UZ",
    "iso3": "UZB",
    "admin_name": "Xorazm",
    "capital": "minor",
    "population": "19000",
    "id": "1860224573"
  },
  {
    "city": "Toshloq",
    "city_ascii": "Toshloq",
    "lat": "40.4808",
    "lng": "71.7608",
    "country": "Uzbekistan",
    "iso2": "UZ",
    "iso3": "UZB",
    "admin_name": "Farg‘ona",
    "capital": "minor",
    "population": "18600",
    "id": "1860363369"
  },
  {
    "city": "Shirin",
    "city_ascii": "Shirin",
    "lat": "40.2269",
    "lng": "69.1344",
    "country": "Uzbekistan",
    "iso2": "UZ",
    "iso3": "UZB",
    "admin_name": "Sirdaryo",
    "capital": "",
    "population": "18900",
    "id": "1860820392"
  },
  {
    "city": "Hazorasp",
    "city_ascii": "Hazorasp",
    "lat": "41.3167",
    "lng": "61.0667",
    "country": "Uzbekistan",
    "iso2": "UZ",
    "iso3": "UZB",
    "admin_name": "Xorazm",
    "capital": "minor",
    "population": "18800",
    "id": "1860504639"
  },
  {
    "city": "Beshkent Shahri",
    "city_ascii": "Beshkent Shahri",
    "lat": "38.8167",
    "lng": "65.6500",
    "country": "Uzbekistan",
    "iso2": "UZ",
    "iso3": "UZB",
    "admin_name": "Qashqadaryo",
    "capital": "minor",
    "population": "18900",
    "id": "1860873640"
  },
  {
    "city": "Qo’shko’pir",
    "city_ascii": "Qo'shko'pir",
    "lat": "41.5333",
    "lng": "60.3500",
    "country": "Uzbekistan",
    "iso2": "UZ",
    "iso3": "UZB",
    "admin_name": "Xorazm",
    "capital": "minor",
    "population": "18700",
    "id": "1860996001"
  },
  {
    "city": "Do’stlik Shahri",
    "city_ascii": "Do'stlik Shahri",
    "lat": "40.5247",
    "lng": "68.0358",
    "country": "Uzbekistan",
    "iso2": "UZ",
    "iso3": "UZB",
    "admin_name": "Jizzax",
    "capital": "minor",
    "population": "18300",
    "id": "1860352571"
  },
  {
    "city": "Mŭynoq",
    "city_ascii": "Muynoq",
    "lat": "43.7667",
    "lng": "59.0333",
    "country": "Uzbekistan",
    "iso2": "UZ",
    "iso3": "UZB",
    "admin_name": "Qoraqalpog‘iston",
    "capital": "",
    "population": "18196",
    "id": "1860204414"
  },
  {
    "city": "Baxt",
    "city_ascii": "Baxt",
    "lat": "40.7139",
    "lng": "68.6933",
    "country": "Uzbekistan",
    "iso2": "UZ",
    "iso3": "UZB",
    "admin_name": "Sirdaryo",
    "capital": "",
    "population": "17500",
    "id": "1860344342"
  },
  {
    "city": "Jomboy Shahri",
    "city_ascii": "Jomboy Shahri",
    "lat": "39.6989",
    "lng": "67.0933",
    "country": "Uzbekistan",
    "iso2": "UZ",
    "iso3": "UZB",
    "admin_name": "Samarqand",
    "capital": "minor",
    "population": "17400",
    "id": "1860586927"
  },
  {
    "city": "G‘uzor",
    "city_ascii": "G`uzor",
    "lat": "38.6208",
    "lng": "66.2481",
    "country": "Uzbekistan",
    "iso2": "UZ",
    "iso3": "UZB",
    "admin_name": "Qashqadaryo",
    "capital": "",
    "population": "17253",
    "id": "1860850796"
  },
  {
    "city": "Burbaliq",
    "city_ascii": "Burbaliq",
    "lat": "40.3247",
    "lng": "71.3692",
    "country": "Uzbekistan",
    "iso2": "UZ",
    "iso3": "UZB",
    "admin_name": "Farg‘ona",
    "capital": "",
    "population": "16600",
    "id": "1860496270"
  },
  {
    "city": "Yangi Mirishkor",
    "city_ascii": "Yangi Mirishkor",
    "lat": "38.8514",
    "lng": "65.2778",
    "country": "Uzbekistan",
    "iso2": "UZ",
    "iso3": "UZB",
    "admin_name": "Qashqadaryo",
    "capital": "minor",
    "population": "17000",
    "id": "1860618656"
  },
  {
    "city": "Taxtako‘pir",
    "city_ascii": "Taxtako`pir",
    "lat": "43.0225",
    "lng": "60.2886",
    "country": "Uzbekistan",
    "iso2": "UZ",
    "iso3": "UZB",
    "admin_name": "Qoraqalpog‘iston",
    "capital": "minor",
    "population": "17100",
    "id": "1860617096"
  },
  {
    "city": "Druzhba",
    "city_ascii": "Druzhba",
    "lat": "41.2222",
    "lng": "61.3067",
    "country": "Uzbekistan",
    "iso2": "UZ",
    "iso3": "UZB",
    "admin_name": "Xorazm",
    "capital": "",
    "population": "16800",
    "id": "1860072225"
  },
  {
    "city": "Boysun",
    "city_ascii": "Boysun",
    "lat": "38.2000",
    "lng": "67.2000",
    "country": "Uzbekistan",
    "iso2": "UZ",
    "iso3": "UZB",
    "admin_name": "Surxondaryo",
    "capital": "",
    "population": "16732",
    "id": "1860052863"
  },
  {
    "city": "Vodil",
    "city_ascii": "Vodil",
    "lat": "40.1789",
    "lng": "71.7297",
    "country": "Uzbekistan",
    "iso2": "UZ",
    "iso3": "UZB",
    "admin_name": "Farg‘ona",
    "capital": "minor",
    "population": "16200",
    "id": "1860396622"
  },
  {
    "city": "Yaypan",
    "city_ascii": "Yaypan",
    "lat": "40.3758",
    "lng": "70.8156",
    "country": "Uzbekistan",
    "iso2": "UZ",
    "iso3": "UZB",
    "admin_name": "Farg‘ona",
    "capital": "minor",
    "population": "15984",
    "id": "1860703672"
  },
  {
    "city": "Do‘stobod",
    "city_ascii": "Do`stobod",
    "lat": "40.8564",
    "lng": "68.9281",
    "country": "Uzbekistan",
    "iso2": "UZ",
    "iso3": "UZB",
    "admin_name": "Toshkent",
    "capital": "",
    "population": "16200",
    "id": "1860923500"
  },
  {
    "city": "Ishtixon Shahri",
    "city_ascii": "Ishtixon Shahri",
    "lat": "39.9664",
    "lng": "66.4861",
    "country": "Uzbekistan",
    "iso2": "UZ",
    "iso3": "UZB",
    "admin_name": "Samarqand",
    "capital": "minor",
    "population": "16000",
    "id": "1860693720"
  },
  {
    "city": "Sardoba",
    "city_ascii": "Sardoba",
    "lat": "40.5422",
    "lng": "68.4125",
    "country": "Uzbekistan",
    "iso2": "UZ",
    "iso3": "UZB",
    "admin_name": "Sirdaryo",
    "capital": "",
    "population": "16000",
    "id": "1860363244"
  },
  {
    "city": "Juma Shahri",
    "city_ascii": "Juma Shahri",
    "lat": "39.7161",
    "lng": "66.6642",
    "country": "Uzbekistan",
    "iso2": "UZ",
    "iso3": "UZB",
    "admin_name": "Samarqand",
    "capital": "minor",
    "population": "15571",
    "id": "1860861355"
  },
  {
    "city": "Gagarin Shahri",
    "city_ascii": "Gagarin Shahri",
    "lat": "40.6619",
    "lng": "68.1722",
    "country": "Uzbekistan",
    "iso2": "UZ",
    "iso3": "UZB",
    "admin_name": "Jizzax",
    "capital": "minor",
    "population": "15200",
    "id": "1860088960"
  },
  {
    "city": "Kimyogarlar",
    "city_ascii": "Kimyogarlar",
    "lat": "39.6672",
    "lng": "66.8461",
    "country": "Uzbekistan",
    "iso2": "UZ",
    "iso3": "UZB",
    "admin_name": "Samarqand",
    "capital": "",
    "population": "14937",
    "id": "1860415259"
  },
  {
    "city": "Qumqo‘rg‘on",
    "city_ascii": "Qumqo`rg`on",
    "lat": "37.8278",
    "lng": "67.5972",
    "country": "Uzbekistan",
    "iso2": "UZ",
    "iso3": "UZB",
    "admin_name": "Surxondaryo",
    "capital": "",
    "population": "14900",
    "id": "1860294369"
  },
  {
    "city": "Uzun",
    "city_ascii": "Uzun",
    "lat": "38.3667",
    "lng": "68.0056",
    "country": "Uzbekistan",
    "iso2": "UZ",
    "iso3": "UZB",
    "admin_name": "Surxondaryo",
    "capital": "",
    "population": "14600",
    "id": "1860948605"
  },
  {
    "city": "Sariosiyo",
    "city_ascii": "Sariosiyo",
    "lat": "38.4133",
    "lng": "67.9572",
    "country": "Uzbekistan",
    "iso2": "UZ",
    "iso3": "UZB",
    "admin_name": "Surxondaryo",
    "capital": "",
    "population": "14300",
    "id": "1860882708"
  },
  {
    "city": "O‘nhayot",
    "city_ascii": "O`nhayot",
    "lat": "41.0103",
    "lng": "71.7614",
    "country": "Uzbekistan",
    "iso2": "UZ",
    "iso3": "UZB",
    "admin_name": "Namangan",
    "capital": "",
    "population": "14000",
    "id": "1860318016"
  },
  {
    "city": "Romitan Shahri",
    "city_ascii": "Romitan Shahri",
    "lat": "39.9333",
    "lng": "64.3833",
    "country": "Uzbekistan",
    "iso2": "UZ",
    "iso3": "UZB",
    "admin_name": "Buxoro",
    "capital": "minor",
    "population": "14300",
    "id": "1860913419"
  },
  {
    "city": "Marhamat",
    "city_ascii": "Marhamat",
    "lat": "40.5000",
    "lng": "72.3333",
    "country": "Uzbekistan",
    "iso2": "UZ",
    "iso3": "UZB",
    "admin_name": "Andijon",
    "capital": "minor",
    "population": "13600",
    "id": "1860259161"
  },
  {
    "city": "Shofirkon Shahri",
    "city_ascii": "Shofirkon Shahri",
    "lat": "40.1167",
    "lng": "64.5000",
    "country": "Uzbekistan",
    "iso2": "UZ",
    "iso3": "UZB",
    "admin_name": "Buxoro",
    "capital": "minor",
    "population": "14000",
    "id": "1860579364"
  },
  {
    "city": "Boyovut",
    "city_ascii": "Boyovut",
    "lat": "40.2822",
    "lng": "69.0183",
    "country": "Uzbekistan",
    "iso2": "UZ",
    "iso3": "UZB",
    "admin_name": "Sirdaryo",
    "capital": "",
    "population": "13800",
    "id": "1860318919"
  },
  {
    "city": "Toyloq Qishlog’i",
    "city_ascii": "Toyloq Qishlog'i",
    "lat": "39.6014",
    "lng": "67.0908",
    "country": "Uzbekistan",
    "iso2": "UZ",
    "iso3": "UZB",
    "admin_name": "Samarqand",
    "capital": "minor",
    "population": "13700",
    "id": "1860817167"
  },
  {
    "city": "Sariq",
    "city_ascii": "Sariq",
    "lat": "37.6722",
    "lng": "67.2375",
    "country": "Uzbekistan",
    "iso2": "UZ",
    "iso3": "UZB",
    "admin_name": "Surxondaryo",
    "capital": "",
    "population": "13700",
    "id": "1860642236"
  },
  {
    "city": "Charxin",
    "city_ascii": "Charxin",
    "lat": "39.6967",
    "lng": "66.7686",
    "country": "Uzbekistan",
    "iso2": "UZ",
    "iso3": "UZB",
    "admin_name": "Samarqand",
    "capital": "",
    "population": "13300",
    "id": "1860828377"
  },
  {
    "city": "Ŭrtaowul",
    "city_ascii": "Urtaowul",
    "lat": "41.1908",
    "lng": "69.1494",
    "country": "Uzbekistan",
    "iso2": "UZ",
    "iso3": "UZB",
    "admin_name": "Toshkent",
    "capital": "",
    "population": "13271",
    "id": "1860578331"
  },
  {
    "city": "Nishon Tumani",
    "city_ascii": "Nishon Tumani",
    "lat": "38.6558",
    "lng": "65.6994",
    "country": "Uzbekistan",
    "iso2": "UZ",
    "iso3": "UZB",
    "admin_name": "Qashqadaryo",
    "capital": "",
    "population": "13300",
    "id": "1860315743"
  },
  {
    "city": "Bag‘dod",
    "city_ascii": "Bag`dod",
    "lat": "40.4606",
    "lng": "71.2214",
    "country": "Uzbekistan",
    "iso2": "UZ",
    "iso3": "UZB",
    "admin_name": "Farg‘ona",
    "capital": "",
    "population": "12800",
    "id": "1860308372"
  },
  {
    "city": "Yozyovon",
    "city_ascii": "Yozyovon",
    "lat": "40.6619",
    "lng": "71.7431",
    "country": "Uzbekistan",
    "iso2": "UZ",
    "iso3": "UZB",
    "admin_name": "Farg‘ona",
    "capital": "minor",
    "population": "12800",
    "id": "1860299143"
  },
  {
    "city": "Chiroqchi",
    "city_ascii": "Chiroqchi",
    "lat": "39.0336",
    "lng": "66.5739",
    "country": "Uzbekistan",
    "iso2": "UZ",
    "iso3": "UZB",
    "admin_name": "Qashqadaryo",
    "capital": "",
    "population": "13220",
    "id": "1860377999"
  },
  {
    "city": "Loyish Shaharchasi",
    "city_ascii": "Loyish Shaharchasi",
    "lat": "39.8839",
    "lng": "66.7481",
    "country": "Uzbekistan",
    "iso2": "UZ",
    "iso3": "UZB",
    "admin_name": "Samarqand",
    "capital": "minor",
    "population": "12769",
    "id": "1860150334"
  },
  {
    "city": "Kuyganyor",
    "city_ascii": "Kuyganyor",
    "lat": "40.8611",
    "lng": "72.3111",
    "country": "Uzbekistan",
    "iso2": "UZ",
    "iso3": "UZB",
    "admin_name": "Andijon",
    "capital": "minor",
    "population": "12200",
    "id": "1860676676"
  },
  {
    "city": "Andijon",
    "city_ascii": "Andijon",
    "lat": "40.6444",
    "lng": "72.3639",
    "country": "Uzbekistan",
    "iso2": "UZ",
    "iso3": "UZB",
    "admin_name": "Andijon",
    "capital": "",
    "population": "12200",
    "id": "1860676293"
  },
  {
    "city": "Eski Arab",
    "city_ascii": "Eski Arab",
    "lat": "40.3686",
    "lng": "71.4231",
    "country": "Uzbekistan",
    "iso2": "UZ",
    "iso3": "UZB",
    "admin_name": "Farg‘ona",
    "capital": "",
    "population": "12600",
    "id": "1860690514"
  },
  {
    "city": "Galaosiyo Shahri",
    "city_ascii": "Galaosiyo Shahri",
    "lat": "39.8500",
    "lng": "64.4500",
    "country": "Uzbekistan",
    "iso2": "UZ",
    "iso3": "UZB",
    "admin_name": "Buxoro",
    "capital": "minor",
    "population": "12600",
    "id": "1860860569"
  },
  {
    "city": "Payariq Shahri",
    "city_ascii": "Payariq Shahri",
    "lat": "39.9892",
    "lng": "66.8458",
    "country": "Uzbekistan",
    "iso2": "UZ",
    "iso3": "UZB",
    "admin_name": "Samarqand",
    "capital": "minor",
    "population": "12345",
    "id": "1860124573"
  },
  {
    "city": "Yangiariq",
    "city_ascii": "Yangiariq",
    "lat": "41.3628",
    "lng": "60.6075",
    "country": "Uzbekistan",
    "iso2": "UZ",
    "iso3": "UZB",
    "admin_name": "Xorazm",
    "capital": "minor",
    "population": "12200",
    "id": "1860360954"
  },
  {
    "city": "Kegeyli Shahar",
    "city_ascii": "Kegeyli Shahar",
    "lat": "42.7767",
    "lng": "59.6078",
    "country": "Uzbekistan",
    "iso2": "UZ",
    "iso3": "UZB",
    "admin_name": "Qoraqalpog‘iston",
    "capital": "minor",
    "population": "12400",
    "id": "1860388394"
  },
  {
    "city": "Vobkent Shahri",
    "city_ascii": "Vobkent Shahri",
    "lat": "40.0333",
    "lng": "64.5167",
    "country": "Uzbekistan",
    "iso2": "UZ",
    "iso3": "UZB",
    "admin_name": "Buxoro",
    "capital": "minor",
    "population": "12351",
    "id": "1860136901"
  },
  {
    "city": "Paxtaobod",
    "city_ascii": "Paxtaobod",
    "lat": "40.3453",
    "lng": "68.1925",
    "country": "Uzbekistan",
    "iso2": "UZ",
    "iso3": "UZB",
    "admin_name": "Sirdaryo",
    "capital": "",
    "population": "12200",
    "id": "1860473254"
  },
  {
    "city": "G’oliblar Qishlog’i",
    "city_ascii": "G'oliblar Qishlog'i",
    "lat": "40.4953",
    "lng": "67.8778",
    "country": "Uzbekistan",
    "iso2": "UZ",
    "iso3": "UZB",
    "admin_name": "Jizzax",
    "capital": "minor",
    "population": "12300",
    "id": "1860811696"
  },
  {
    "city": "Qorao‘zak",
    "city_ascii": "Qorao`zak",
    "lat": "43.0275",
    "lng": "60.0125",
    "country": "Uzbekistan",
    "iso2": "UZ",
    "iso3": "UZB",
    "admin_name": "Qoraqalpog‘iston",
    "capital": "minor",
    "population": "12300",
    "id": "1860367424"
  },
  {
    "city": "Gulbahor",
    "city_ascii": "Gulbahor",
    "lat": "41.0747",
    "lng": "69.0275",
    "country": "Uzbekistan",
    "iso2": "UZ",
    "iso3": "UZB",
    "admin_name": "Toshkent",
    "capital": "",
    "population": "12100",
    "id": "1860823540"
  },
  {
    "city": "Oqqo‘rg‘on",
    "city_ascii": "Oqqo`rg`on",
    "lat": "40.8764",
    "lng": "69.0453",
    "country": "Uzbekistan",
    "iso2": "UZ",
    "iso3": "UZB",
    "admin_name": "Toshkent",
    "capital": "",
    "population": "11900",
    "id": "1860153212"
  },
  {
    "city": "Dang‘ara",
    "city_ascii": "Dang`ara",
    "lat": "40.5831",
    "lng": "70.9100",
    "country": "Uzbekistan",
    "iso2": "UZ",
    "iso3": "UZB",
    "admin_name": "Farg‘ona",
    "capital": "minor",
    "population": "11500",
    "id": "1860878962"
  },
  {
    "city": "Qorashina",
    "city_ascii": "Qorashina",
    "lat": "38.3394",
    "lng": "66.5619",
    "country": "Uzbekistan",
    "iso2": "UZ",
    "iso3": "UZB",
    "admin_name": "Qashqadaryo",
    "capital": "minor",
    "population": "11900",
    "id": "1860549169"
  },
  {
    "city": "Yangiqo‘rg‘on",
    "city_ascii": "Yangiqo`rg`on",
    "lat": "41.1872",
    "lng": "71.7333",
    "country": "Uzbekistan",
    "iso2": "UZ",
    "iso3": "UZB",
    "admin_name": "Namangan",
    "capital": "",
    "population": "11561",
    "id": "1860687497"
  },
  {
    "city": "Ziyodin Shaharchasi",
    "city_ascii": "Ziyodin Shaharchasi",
    "lat": "40.0342",
    "lng": "65.6547",
    "country": "Uzbekistan",
    "iso2": "UZ",
    "iso3": "UZB",
    "admin_name": "Samarqand",
    "capital": "minor",
    "population": "11610",
    "id": "1860117701"
  },
  {
    "city": "Yangirabot",
    "city_ascii": "Yangirabot",
    "lat": "40.0253",
    "lng": "65.9608",
    "country": "Uzbekistan",
    "iso2": "UZ",
    "iso3": "UZB",
    "admin_name": "Navoiy",
    "capital": "minor",
    "population": "11364",
    "id": "1860058903"
  },
  {
    "city": "Tinchlik",
    "city_ascii": "Tinchlik",
    "lat": "40.4264",
    "lng": "71.4956",
    "country": "Uzbekistan",
    "iso2": "UZ",
    "iso3": "UZB",
    "admin_name": "Farg‘ona",
    "capital": "",
    "population": "10644",
    "id": "1860903091"
  },
  {
    "city": "Bog’ot",
    "city_ascii": "Bog'ot",
    "lat": "41.3500",
    "lng": "60.8167",
    "country": "Uzbekistan",
    "iso2": "UZ",
    "iso3": "UZB",
    "admin_name": "Xorazm",
    "capital": "minor",
    "population": "10700",
    "id": "1860558228"
  },
  {
    "city": "Eski Yakkabog‘",
    "city_ascii": "Eski Yakkabog`",
    "lat": "38.9314",
    "lng": "66.8389",
    "country": "Uzbekistan",
    "iso2": "UZ",
    "iso3": "UZB",
    "admin_name": "Qashqadaryo",
    "capital": "",
    "population": "10800",
    "id": "1860248125"
  },
  {
    "city": "Tallimarjon Shahri",
    "city_ascii": "Tallimarjon Shahri",
    "lat": "38.2967",
    "lng": "65.5533",
    "country": "Uzbekistan",
    "iso2": "UZ",
    "iso3": "UZB",
    "admin_name": "Qashqadaryo",
    "capital": "",
    "population": "10800",
    "id": "1860832901"
  },
  {
    "city": "Sharg‘un",
    "city_ascii": "Sharg`un",
    "lat": "38.4600",
    "lng": "67.9669",
    "country": "Uzbekistan",
    "iso2": "UZ",
    "iso3": "UZB",
    "admin_name": "Surxondaryo",
    "capital": "",
    "population": "10716",
    "id": "1860470094"
  },
  {
    "city": "Oyim",
    "city_ascii": "Oyim",
    "lat": "40.8242",
    "lng": "72.7414",
    "country": "Uzbekistan",
    "iso2": "UZ",
    "iso3": "UZB",
    "admin_name": "Andijon",
    "capital": "",
    "population": "10000",
    "id": "1860819147"
  },
  {
    "city": "Dehqonobod",
    "city_ascii": "Dehqonobod",
    "lat": "40.5314",
    "lng": "69.0342",
    "country": "Uzbekistan",
    "iso2": "UZ",
    "iso3": "UZB",
    "admin_name": "Sirdaryo",
    "capital": "",
    "population": "10500",
    "id": "1860018395"
  },
  {
    "city": "Nuriston",
    "city_ascii": "Nuriston",
    "lat": "38.4892",
    "lng": "65.6464",
    "country": "Uzbekistan",
    "iso2": "UZ",
    "iso3": "UZB",
    "admin_name": "Qashqadaryo",
    "capital": "",
    "population": "10500",
    "id": "1860752520"
  },
  {
    "city": "Usmat Shaharchasi",
    "city_ascii": "Usmat Shaharchasi",
    "lat": "39.7386",
    "lng": "67.6433",
    "country": "Uzbekistan",
    "iso2": "UZ",
    "iso3": "UZB",
    "admin_name": "Jizzax",
    "capital": "minor",
    "population": "10500",
    "id": "1860775970"
  },
  {
    "city": "Shumanay",
    "city_ascii": "Shumanay",
    "lat": "42.6333",
    "lng": "58.9167",
    "country": "Uzbekistan",
    "iso2": "UZ",
    "iso3": "UZB",
    "admin_name": "Qoraqalpog‘iston",
    "capital": "",
    "population": "10513",
    "id": "1860689478"
  },
  {
    "city": "Jomasho‘y",
    "city_ascii": "Jomasho`y",
    "lat": "40.8633",
    "lng": "71.4597",
    "country": "Uzbekistan",
    "iso2": "UZ",
    "iso3": "UZB",
    "admin_name": "Namangan",
    "capital": "",
    "population": "10100",
    "id": "1860251898"
  },
  {
    "city": "Qanliko‘l",
    "city_ascii": "Qanliko`l",
    "lat": "42.8333",
    "lng": "59.0000",
    "country": "Uzbekistan",
    "iso2": "UZ",
    "iso3": "UZB",
    "admin_name": "Qoraqalpog‘iston",
    "capital": "minor",
    "population": "10303",
    "id": "1860774875"
  },
  {
    "city": "Bandixon",
    "city_ascii": "Bandixon",
    "lat": "37.8614",
    "lng": "67.3861",
    "country": "Uzbekistan",
    "iso2": "UZ",
    "iso3": "UZB",
    "admin_name": "Surxondaryo",
    "capital": "",
    "population": "10110",
    "id": "1860730095"
  },
  {
    "city": "Xishrov",
    "city_ascii": "Xishrov",
    "lat": "39.6383",
    "lng": "66.8897",
    "country": "Uzbekistan",
    "iso2": "UZ",
    "iso3": "UZB",
    "admin_name": "Samarqand",
    "capital": "",
    "population": "10000",
    "id": "1860278182"
  },
  {
    "city": "Uchtepa Qishlog’i",
    "city_ascii": "Uchtepa Qishlog'i",
    "lat": "40.2050",
    "lng": "67.9011",
    "country": "Uzbekistan",
    "iso2": "UZ",
    "iso3": "UZB",
    "admin_name": "Jizzax",
    "capital": "minor",
    "population": "10110",
    "id": "1860078852"
  },
  {
    "city": "Shohimardon",
    "city_ascii": "Shohimardon",
    "lat": "39.9833",
    "lng": "71.8000",
    "country": "Uzbekistan",
    "iso2": "UZ",
    "iso3": "UZB",
    "admin_name": "Farg‘ona",
    "capital": "",
    "population": "10100",
    "id": "1860836599"
  },
  {
    "city": "Bo‘z",
    "city_ascii": "Bo`z",
    "lat": "40.6833",
    "lng": "71.9167",
    "country": "Uzbekistan",
    "iso2": "UZ",
    "iso3": "UZB",
    "admin_name": "Andijon",
    "capital": "",
    "population": "9294",
    "id": "1860854695"
  },
  {
    "city": "Ingichka",
    "city_ascii": "Ingichka",
    "lat": "39.7389",
    "lng": "65.9922",
    "country": "Uzbekistan",
    "iso2": "UZ",
    "iso3": "UZB",
    "admin_name": "Samarqand",
    "capital": "",
    "population": "9676",
    "id": "1860688085"
  },
  {
    "city": "Qiziltepa",
    "city_ascii": "Qiziltepa",
    "lat": "40.0361",
    "lng": "64.8503",
    "country": "Uzbekistan",
    "iso2": "UZ",
    "iso3": "UZB",
    "admin_name": "Navoiy",
    "capital": "",
    "population": "9884",
    "id": "1860348538"
  },
  {
    "city": "Nurobod Shahri",
    "city_ascii": "Nurobod Shahri",
    "lat": "39.6086",
    "lng": "66.2867",
    "country": "Uzbekistan",
    "iso2": "UZ",
    "iso3": "UZB",
    "admin_name": "Samarqand",
    "capital": "minor",
    "population": "9600",
    "id": "1860030602"
  },
  {
    "city": "Dahbed",
    "city_ascii": "Dahbed",
    "lat": "39.7636",
    "lng": "66.9131",
    "country": "Uzbekistan",
    "iso2": "UZ",
    "iso3": "UZB",
    "admin_name": "Samarqand",
    "capital": "",
    "population": "9000",
    "id": "1860321921"
  },
  {
    "city": "Zarbdor Shaharchasi",
    "city_ascii": "Zarbdor Shaharchasi",
    "lat": "40.0747",
    "lng": "68.1683",
    "country": "Uzbekistan",
    "iso2": "UZ",
    "iso3": "UZB",
    "admin_name": "Jizzax",
    "capital": "minor",
    "population": "9110",
    "id": "1860740472"
  },
  {
    "city": "G‘ozg‘on",
    "city_ascii": "G`ozg`on",
    "lat": "40.5944",
    "lng": "65.4964",
    "country": "Uzbekistan",
    "iso2": "UZ",
    "iso3": "UZB",
    "admin_name": "Navoiy",
    "capital": "",
    "population": "8800",
    "id": "1860129710"
  },
  {
    "city": "Qorovul",
    "city_ascii": "Qorovul",
    "lat": "41.5569",
    "lng": "60.5914",
    "country": "Uzbekistan",
    "iso2": "UZ",
    "iso3": "UZB",
    "admin_name": "Xorazm",
    "capital": "minor",
    "population": "8520",
    "id": "1860937148"
  },
  {
    "city": "Jondor Shaharchasi",
    "city_ascii": "Jondor Shaharchasi",
    "lat": "39.7333",
    "lng": "64.1833",
    "country": "Uzbekistan",
    "iso2": "UZ",
    "iso3": "UZB",
    "admin_name": "Buxoro",
    "capital": "minor",
    "population": "8700",
    "id": "1860971461"
  },
  {
    "city": "Xalqobod",
    "city_ascii": "Xalqobod",
    "lat": "37.4597",
    "lng": "66.9222",
    "country": "Uzbekistan",
    "iso2": "UZ",
    "iso3": "UZB",
    "admin_name": "Surxondaryo",
    "capital": "",
    "population": "9200",
    "id": "1860446608"
  },
  {
    "city": "Qorovulbozor",
    "city_ascii": "Qorovulbozor",
    "lat": "39.5000",
    "lng": "64.8000",
    "country": "Uzbekistan",
    "iso2": "UZ",
    "iso3": "UZB",
    "admin_name": "Buxoro",
    "capital": "",
    "population": "9200",
    "id": "1860000615"
  },
  {
    "city": "Qahramon",
    "city_ascii": "Qahramon",
    "lat": "40.3050",
    "lng": "68.6017",
    "country": "Uzbekistan",
    "iso2": "UZ",
    "iso3": "UZB",
    "admin_name": "Sirdaryo",
    "capital": "",
    "population": "9000",
    "id": "1860810536"
  },
  {
    "city": "Yangiobod",
    "city_ascii": "Yangiobod",
    "lat": "41.1192",
    "lng": "70.0942",
    "country": "Uzbekistan",
    "iso2": "UZ",
    "iso3": "UZB",
    "admin_name": "Toshkent",
    "capital": "",
    "population": "8900",
    "id": "1860896994"
  },
  {
    "city": "Angor",
    "city_ascii": "Angor",
    "lat": "37.4639",
    "lng": "67.1500",
    "country": "Uzbekistan",
    "iso2": "UZ",
    "iso3": "UZB",
    "admin_name": "Surxondaryo",
    "capital": "",
    "population": "8801",
    "id": "1860931614"
  }
]