[
  {
    "city": "Conakry",
    "city_ascii": "Conakry",
    "lat": "9.5092",
    "lng": "-13.7122",
    "country": "Guinea",
    "iso2": "GN",
    "iso3": "GIN",
    "admin_name": "Conakry",
    "capital": "primary",
    "population": "1667864",
    "id": "1324568159"
  },
  {
    "city": "Mamou",
    "city_ascii": "Mamou",
    "lat": "10.3833",
    "lng": "-12.0833",
    "country": "Guinea",
    "iso2": "GN",
    "iso3": "GIN",
    "admin_name": "Mamou",
    "capital": "admin",
    "population": "376269",
    "id": "1324990909"
  },
  {
    "city": "Guéckédou",
    "city_ascii": "Gueckedou",
    "lat": "8.5667",
    "lng": "-10.1333",
    "country": "Guinea",
    "iso2": "GN",
    "iso3": "GIN",
    "admin_name": "N’Zérékoré",
    "capital": "minor",
    "population": "221715",
    "id": "1324580681"
  },
  {
    "city": "Kankan",
    "city_ascii": "Kankan",
    "lat": "10.3833",
    "lng": "-9.3000",
    "country": "Guinea",
    "iso2": "GN",
    "iso3": "GIN",
    "admin_name": "Kankan",
    "capital": "admin",
    "population": "198013",
    "id": "1324495325"
  },
  {
    "city": "N’Zérékoré",
    "city_ascii": "N'Zerekore",
    "lat": "7.7500",
    "lng": "-8.8167",
    "country": "Guinea",
    "iso2": "GN",
    "iso3": "GIN",
    "admin_name": "N’Zérékoré",
    "capital": "admin",
    "population": "195027",
    "id": "1324336588"
  },
  {
    "city": "Siguiri",
    "city_ascii": "Siguiri",
    "lat": "11.4189",
    "lng": "-9.1644",
    "country": "Guinea",
    "iso2": "GN",
    "iso3": "GIN",
    "admin_name": "Kankan",
    "capital": "minor",
    "population": "183875",
    "id": "1324494896"
  },
  {
    "city": "Kindia",
    "city_ascii": "Kindia",
    "lat": "10.0497",
    "lng": "-12.8542",
    "country": "Guinea",
    "iso2": "GN",
    "iso3": "GIN",
    "admin_name": "Kindia",
    "capital": "admin",
    "population": "181126",
    "id": "1324348910"
  },
  {
    "city": "Boké",
    "city_ascii": "Boke",
    "lat": "10.9400",
    "lng": "-14.3000",
    "country": "Guinea",
    "iso2": "GN",
    "iso3": "GIN",
    "admin_name": "Boké",
    "capital": "admin",
    "population": "116270",
    "id": "1324037897"
  },
  {
    "city": "Labé",
    "city_ascii": "Labe",
    "lat": "11.3167",
    "lng": "-12.2833",
    "country": "Guinea",
    "iso2": "GN",
    "iso3": "GIN",
    "admin_name": "Labé",
    "capital": "admin",
    "population": "107695",
    "id": "1324900784"
  },
  {
    "city": "Faranah",
    "city_ascii": "Faranah",
    "lat": "10.0333",
    "lng": "-10.7333",
    "country": "Guinea",
    "iso2": "GN",
    "iso3": "GIN",
    "admin_name": "Faranah",
    "capital": "admin",
    "population": "78108",
    "id": "1324603099"
  },
  {
    "city": "Forécariah",
    "city_ascii": "Forecariah",
    "lat": "9.4300",
    "lng": "-13.0980",
    "country": "Guinea",
    "iso2": "GN",
    "iso3": "GIN",
    "admin_name": "Kindia",
    "capital": "minor",
    "population": "12358",
    "id": "1324863095"
  },
  {
    "city": "Kamsar",
    "city_ascii": "Kamsar",
    "lat": "10.6500",
    "lng": "-14.6167",
    "country": "Guinea",
    "iso2": "GN",
    "iso3": "GIN",
    "admin_name": "Boké",
    "capital": "",
    "population": "68999",
    "id": "1324075393"
  },
  {
    "city": "Kissidougou",
    "city_ascii": "Kissidougou",
    "lat": "9.1905",
    "lng": "-10.1200",
    "country": "Guinea",
    "iso2": "GN",
    "iso3": "GIN",
    "admin_name": "Faranah",
    "capital": "minor",
    "population": "66815",
    "id": "1324750427"
  },
  {
    "city": "Macenta",
    "city_ascii": "Macenta",
    "lat": "8.5504",
    "lng": "-9.4800",
    "country": "Guinea",
    "iso2": "GN",
    "iso3": "GIN",
    "admin_name": "N’Zérékoré",
    "capital": "minor",
    "population": "43102",
    "id": "1324817479"
  },
  {
    "city": "Dabola",
    "city_ascii": "Dabola",
    "lat": "10.7500",
    "lng": "-11.1167",
    "country": "Guinea",
    "iso2": "GN",
    "iso3": "GIN",
    "admin_name": "Faranah",
    "capital": "minor",
    "population": "38617",
    "id": "1324368075"
  },
  {
    "city": "Télimélé",
    "city_ascii": "Telimele",
    "lat": "10.9050",
    "lng": "-13.0430",
    "country": "Guinea",
    "iso2": "GN",
    "iso3": "GIN",
    "admin_name": "Kindia",
    "capital": "minor",
    "population": "30311",
    "id": "1324315862"
  },
  {
    "city": "Tougué",
    "city_ascii": "Tougue",
    "lat": "11.4400",
    "lng": "-11.6700",
    "country": "Guinea",
    "iso2": "GN",
    "iso3": "GIN",
    "admin_name": "Labé",
    "capital": "minor",
    "population": "25531",
    "id": "1324920258"
  },
  {
    "city": "Fria",
    "city_ascii": "Fria",
    "lat": "10.3804",
    "lng": "-13.5500",
    "country": "Guinea",
    "iso2": "GN",
    "iso3": "GIN",
    "admin_name": "Boké",
    "capital": "minor",
    "population": "23729",
    "id": "1324583144"
  },
  {
    "city": "Pita",
    "city_ascii": "Pita",
    "lat": "11.0800",
    "lng": "-12.4010",
    "country": "Guinea",
    "iso2": "GN",
    "iso3": "GIN",
    "admin_name": "Mamou",
    "capital": "minor",
    "population": "20052",
    "id": "1324788694"
  },
  {
    "city": "Doura",
    "city_ascii": "Doura",
    "lat": "12.0167",
    "lng": "-9.0167",
    "country": "Guinea",
    "iso2": "GN",
    "iso3": "GIN",
    "admin_name": "Kankan",
    "capital": "",
    "population": "18675",
    "id": "1324130854"
  },
  {
    "city": "Kérouané",
    "city_ascii": "Kerouane",
    "lat": "9.2704",
    "lng": "-9.0200",
    "country": "Guinea",
    "iso2": "GN",
    "iso3": "GIN",
    "admin_name": "Kankan",
    "capital": "minor",
    "population": "15406",
    "id": "1324580549"
  },
  {
    "city": "Koundara",
    "city_ascii": "Koundara",
    "lat": "12.4800",
    "lng": "-13.2960",
    "country": "Guinea",
    "iso2": "GN",
    "iso3": "GIN",
    "admin_name": "Boké",
    "capital": "minor",
    "population": "13990",
    "id": "1324267190"
  },
  {
    "city": "Kouroussa",
    "city_ascii": "Kouroussa",
    "lat": "10.6530",
    "lng": "-9.8920",
    "country": "Guinea",
    "iso2": "GN",
    "iso3": "GIN",
    "admin_name": "Kankan",
    "capital": "minor",
    "population": "14223",
    "id": "1324187341"
  },
  {
    "city": "Beyla",
    "city_ascii": "Beyla",
    "lat": "8.6833",
    "lng": "-8.6333",
    "country": "Guinea",
    "iso2": "GN",
    "iso3": "GIN",
    "admin_name": "N’Zérékoré",
    "capital": "minor",
    "population": "13204",
    "id": "1324564039"
  },
  {
    "city": "Gaoual",
    "city_ascii": "Gaoual",
    "lat": "11.7540",
    "lng": "-13.2130",
    "country": "Guinea",
    "iso2": "GN",
    "iso3": "GIN",
    "admin_name": "Boké",
    "capital": "minor",
    "population": "7461",
    "id": "1324589428"
  },
  {
    "city": "Dalaba",
    "city_ascii": "Dalaba",
    "lat": "10.6560",
    "lng": "-12.2720",
    "country": "Guinea",
    "iso2": "GN",
    "iso3": "GIN",
    "admin_name": "Mamou",
    "capital": "minor",
    "population": "6349",
    "id": "1324455027"
  },
  {
    "city": "Dinguiraye",
    "city_ascii": "Dinguiraye",
    "lat": "11.2990",
    "lng": "-10.7260",
    "country": "Guinea",
    "iso2": "GN",
    "iso3": "GIN",
    "admin_name": "Faranah",
    "capital": "minor",
    "population": "6062",
    "id": "1324546502"
  },
  {
    "city": "Mali",
    "city_ascii": "Mali",
    "lat": "12.0840",
    "lng": "-12.3010",
    "country": "Guinea",
    "iso2": "GN",
    "iso3": "GIN",
    "admin_name": "Labé",
    "capital": "minor",
    "population": "5479",
    "id": "1324065197"
  },
  {
    "city": "Yomou",
    "city_ascii": "Yomou",
    "lat": "7.5660",
    "lng": "-9.2533",
    "country": "Guinea",
    "iso2": "GN",
    "iso3": "GIN",
    "admin_name": "N’Zérékoré",
    "capital": "minor",
    "population": "3614",
    "id": "1324839778"
  },
  {
    "city": "Boffa",
    "city_ascii": "Boffa",
    "lat": "10.1850",
    "lng": "-14.0430",
    "country": "Guinea",
    "iso2": "GN",
    "iso3": "GIN",
    "admin_name": "Boké",
    "capital": "minor",
    "population": "2332",
    "id": "1324801511"
  }
]