[
  {
    "city": "Doha",
    "city_ascii": "Doha",
    "lat": "25.2867",
    "lng": "51.5333",
    "country": "Qatar",
    "iso2": "QA",
    "iso3": "QAT",
    "admin_name": "Ad Dawḩah",
    "capital": "primary",
    "population": "1186023",
    "id": "1634459660"
  },
  {
    "city": "Ar Rayyān",
    "city_ascii": "Ar Rayyan",
    "lat": "25.2500",
    "lng": "51.4000",
    "country": "Qatar",
    "iso2": "QA",
    "iso3": "QAT",
    "admin_name": "Ar Rayyān",
    "capital": "admin",
    "population": "605712",
    "id": "1634097551"
  },
  {
    "city": "Al Khawr",
    "city_ascii": "Al Khawr",
    "lat": "25.6900",
    "lng": "51.5100",
    "country": "Qatar",
    "iso2": "QA",
    "iso3": "QAT",
    "admin_name": "Al Khawr wa adh Dhakhīrah",
    "capital": "admin",
    "population": "202031",
    "id": "1634786937"
  },
  {
    "city": "Ash Shīḩānīyah",
    "city_ascii": "Ash Shihaniyah",
    "lat": "25.3722",
    "lng": "51.2047",
    "country": "Qatar",
    "iso2": "QA",
    "iso3": "QAT",
    "admin_name": "Ash Shīḩānīyah",
    "capital": "admin",
    "population": "161240",
    "id": "1634539520"
  },
  {
    "city": "Al Wakrah",
    "city_ascii": "Al Wakrah",
    "lat": "25.1800",
    "lng": "51.6100",
    "country": "Qatar",
    "iso2": "QA",
    "iso3": "QAT",
    "admin_name": "Al Wakrah",
    "capital": "admin",
    "population": "87970",
    "id": "1634261569"
  },
  {
    "city": "Nu‘ayjah",
    "city_ascii": "Nu`ayjah",
    "lat": "25.2525",
    "lng": "51.5592",
    "country": "Qatar",
    "iso2": "QA",
    "iso3": "QAT",
    "admin_name": "Ad Dawḩah",
    "capital": "",
    "population": "29703",
    "id": "1634400511"
  },
  {
    "city": "Umm Şalāl ‘Alī",
    "city_ascii": "Umm Salal `Ali",
    "lat": "25.4697",
    "lng": "51.3975",
    "country": "Qatar",
    "iso2": "QA",
    "iso3": "QAT",
    "admin_name": "Umm Şalāl",
    "capital": "admin",
    "population": "",
    "id": "1634646507"
  },
  {
    "city": "Az̧ Z̧a‘āyin",
    "city_ascii": "Az Za`ayin",
    "lat": "25.5669",
    "lng": "51.4847",
    "country": "Qatar",
    "iso2": "QA",
    "iso3": "QAT",
    "admin_name": "Az̧ Z̧a‘āyin",
    "capital": "admin",
    "population": "",
    "id": "1634890537"
  },
  {
    "city": "Madīnat ash Shamāl",
    "city_ascii": "Madinat ash Shamal",
    "lat": "26.1167",
    "lng": "51.2167",
    "country": "Qatar",
    "iso2": "QA",
    "iso3": "QAT",
    "admin_name": "Ash Shamāl",
    "capital": "admin",
    "population": "",
    "id": "1634762661"
  },
  {
    "city": "Umm Qurūn",
    "city_ascii": "Umm Qurun",
    "lat": "25.2500",
    "lng": "51.3732",
    "country": "Qatar",
    "iso2": "QA",
    "iso3": "QAT",
    "admin_name": "Ar Rayyān",
    "capital": "",
    "population": "54339",
    "id": "1634017384"
  },
  {
    "city": "Adh Dhakhīrah",
    "city_ascii": "Adh Dhakhirah",
    "lat": "25.7347",
    "lng": "51.5475",
    "country": "Qatar",
    "iso2": "QA",
    "iso3": "QAT",
    "admin_name": "Al Khawr wa adh Dhakhīrah",
    "capital": "",
    "population": "13511",
    "id": "1634525121"
  },
  {
    "city": "Al Jumaylīyah",
    "city_ascii": "Al Jumayliyah",
    "lat": "25.6208",
    "lng": "51.0819",
    "country": "Qatar",
    "iso2": "QA",
    "iso3": "QAT",
    "admin_name": "Ash Shīḩānīyah",
    "capital": "",
    "population": "13085",
    "id": "1634232373"
  }
]