[
  {
    "city": "Nicosia",
    "city_ascii": "Nicosia",
    "lat": "35.1725",
    "lng": "33.3650",
    "country": "Cyprus",
    "iso2": "CY",
    "iso3": "CYP",
    "admin_name": "Lefkosía",
    "capital": "primary",
    "population": "330000",
    "id": "1196944155"
  },
  {
    "city": "Limassol",
    "city_ascii": "Limassol",
    "lat": "34.6747",
    "lng": "33.0442",
    "country": "Cyprus",
    "iso2": "CY",
    "iso3": "CYP",
    "admin_name": "Lemesós",
    "capital": "admin",
    "population": "235056",
    "id": "1196136222"
  },
  {
    "city": "Larnaca",
    "city_ascii": "Larnaca",
    "lat": "34.9167",
    "lng": "33.6333",
    "country": "Cyprus",
    "iso2": "CY",
    "iso3": "CYP",
    "admin_name": "Lárnaka",
    "capital": "admin",
    "population": "84900",
    "id": "1196804795"
  },
  {
    "city": "Paphos",
    "city_ascii": "Paphos",
    "lat": "34.7667",
    "lng": "32.4167",
    "country": "Cyprus",
    "iso2": "CY",
    "iso3": "CYP",
    "admin_name": "Páfos",
    "capital": "admin",
    "population": "63600",
    "id": "1196607408"
  },
  {
    "city": "Famagusta",
    "city_ascii": "Famagusta",
    "lat": "35.1250",
    "lng": "33.9417",
    "country": "Cyprus",
    "iso2": "CY",
    "iso3": "CYP",
    "admin_name": "Ammóchostos",
    "capital": "admin",
    "population": "40920",
    "id": "1196128852"
  },
  {
    "city": "Kyrenia",
    "city_ascii": "Kyrenia",
    "lat": "35.3403",
    "lng": "33.3192",
    "country": "Cyprus",
    "iso2": "CY",
    "iso3": "CYP",
    "admin_name": "Kerýneia",
    "capital": "admin",
    "population": "33207",
    "id": "1196334499"
  },
  {
    "city": "Mésa Geitoniá",
    "city_ascii": "Mesa Geitonia",
    "lat": "34.7024",
    "lng": "33.0453",
    "country": "Cyprus",
    "iso2": "CY",
    "iso3": "CYP",
    "admin_name": "Lemesós",
    "capital": "",
    "population": "14477",
    "id": "1196704525"
  },
  {
    "city": "Káto Polemídia",
    "city_ascii": "Kato Polemidia",
    "lat": "34.6931",
    "lng": "32.9992",
    "country": "Cyprus",
    "iso2": "CY",
    "iso3": "CYP",
    "admin_name": "Lemesós",
    "capital": "",
    "population": "22369",
    "id": "1196458883"
  },
  {
    "city": "Aradíppou",
    "city_ascii": "Aradippou",
    "lat": "34.9478",
    "lng": "33.5881",
    "country": "Cyprus",
    "iso2": "CY",
    "iso3": "CYP",
    "admin_name": "Lárnaka",
    "capital": "",
    "population": "19199",
    "id": "1196144891"
  },
  {
    "city": "Latsia",
    "city_ascii": "Latsia",
    "lat": "35.1000",
    "lng": "33.3667",
    "country": "Cyprus",
    "iso2": "CY",
    "iso3": "CYP",
    "admin_name": "Lefkosía",
    "capital": "",
    "population": "16774",
    "id": "1196538391"
  },
  {
    "city": "Ágios Athanásios",
    "city_ascii": "Agios Athanasios",
    "lat": "34.7087",
    "lng": "33.0504",
    "country": "Cyprus",
    "iso2": "CY",
    "iso3": "CYP",
    "admin_name": "Lemesós",
    "capital": "",
    "population": "14578",
    "id": "1196729508"
  },
  {
    "city": "Paralímni",
    "city_ascii": "Paralimni",
    "lat": "35.0333",
    "lng": "33.9833",
    "country": "Cyprus",
    "iso2": "CY",
    "iso3": "CYP",
    "admin_name": "Ammóchostos",
    "capital": "",
    "population": "14963",
    "id": "1196452575"
  },
  {
    "city": "Germasógeia",
    "city_ascii": "Germasogeia",
    "lat": "34.7181",
    "lng": "33.0856",
    "country": "Cyprus",
    "iso2": "CY",
    "iso3": "CYP",
    "admin_name": "Lemesós",
    "capital": "",
    "population": "13421",
    "id": "1196232379"
  },
  {
    "city": "Dáli",
    "city_ascii": "Dali",
    "lat": "35.0211",
    "lng": "33.4200",
    "country": "Cyprus",
    "iso2": "CY",
    "iso3": "CYP",
    "admin_name": "Lefkosía",
    "capital": "",
    "population": "10466",
    "id": "1196765328"
  }
]