[
  {
    "city": "Riyadh",
    "city_ascii": "Riyadh",
    "lat": "24.6333",
    "lng": "46.7167",
    "country": "Saudi Arabia",
    "iso2": "SA",
    "iso3": "SAU",
    "admin_name": "Ar Riyāḑ",
    "capital": "primary",
    "population": "7237000",
    "id": "1682999334"
  },
  {
    "city": "Jeddah",
    "city_ascii": "Jeddah",
    "lat": "21.5433",
    "lng": "39.1728",
    "country": "Saudi Arabia",
    "iso2": "SA",
    "iso3": "SAU",
    "admin_name": "Makkah al Mukarramah",
    "capital": "",
    "population": "3976000",
    "id": "1682926944"
  },
  {
    "city": "Mecca",
    "city_ascii": "Mecca",
    "lat": "21.4225",
    "lng": "39.8233",
    "country": "Saudi Arabia",
    "iso2": "SA",
    "iso3": "SAU",
    "admin_name": "Makkah al Mukarramah",
    "capital": "admin",
    "population": "1675368",
    "id": "1682169241"
  },
  {
    "city": "Medina",
    "city_ascii": "Medina",
    "lat": "24.4700",
    "lng": "39.6100",
    "country": "Saudi Arabia",
    "iso2": "SA",
    "iso3": "SAU",
    "admin_name": "Al Madīnah al Munawwarah",
    "capital": "admin",
    "population": "1180770",
    "id": "1682345785"
  },
  {
    "city": "Ad Dammām",
    "city_ascii": "Ad Dammam",
    "lat": "26.4333",
    "lng": "50.1000",
    "country": "Saudi Arabia",
    "iso2": "SA",
    "iso3": "SAU",
    "admin_name": "Ash Sharqīyah",
    "capital": "admin",
    "population": "903312",
    "id": "1682452296"
  },
  {
    "city": "Al Hufūf",
    "city_ascii": "Al Hufuf",
    "lat": "25.3833",
    "lng": "49.5833",
    "country": "Saudi Arabia",
    "iso2": "SA",
    "iso3": "SAU",
    "admin_name": "Ash Sharqīyah",
    "capital": "",
    "population": "660788",
    "id": "1682958157"
  },
  {
    "city": "Ḩafr al Bāţin",
    "city_ascii": "Hafr al Batin",
    "lat": "28.4342",
    "lng": "45.9636",
    "country": "Saudi Arabia",
    "iso2": "SA",
    "iso3": "SAU",
    "admin_name": "Ash Sharqīyah",
    "capital": "",
    "population": "600000",
    "id": "1682394909"
  },
  {
    "city": "Al Ḩillah",
    "city_ascii": "Al Hillah",
    "lat": "23.4895",
    "lng": "46.7564",
    "country": "Saudi Arabia",
    "iso2": "SA",
    "iso3": "SAU",
    "admin_name": "Ar Riyāḑ",
    "capital": "",
    "population": "594605",
    "id": "1682494753"
  },
  {
    "city": "Aţ Ţā’if",
    "city_ascii": "At Ta'if",
    "lat": "21.2751",
    "lng": "40.4062",
    "country": "Saudi Arabia",
    "iso2": "SA",
    "iso3": "SAU",
    "admin_name": "Makkah al Mukarramah",
    "capital": "",
    "population": "579970",
    "id": "1682956102"
  },
  {
    "city": "Tabūk",
    "city_ascii": "Tabuk",
    "lat": "28.3972",
    "lng": "36.5789",
    "country": "Saudi Arabia",
    "iso2": "SA",
    "iso3": "SAU",
    "admin_name": "Tabūk",
    "capital": "admin",
    "population": "547957",
    "id": "1682590992"
  },
  {
    "city": "Al Qaţīf",
    "city_ascii": "Al Qatif",
    "lat": "26.5560",
    "lng": "49.9960",
    "country": "Saudi Arabia",
    "iso2": "SA",
    "iso3": "SAU",
    "admin_name": "Ash Sharqīyah",
    "capital": "",
    "population": "524182",
    "id": "1682001245"
  },
  {
    "city": "Buraydah",
    "city_ascii": "Buraydah",
    "lat": "26.3333",
    "lng": "43.9667",
    "country": "Saudi Arabia",
    "iso2": "SA",
    "iso3": "SAU",
    "admin_name": "Al Qaşīm",
    "capital": "admin",
    "population": "467410",
    "id": "1682470726"
  },
  {
    "city": "Al Jubayl",
    "city_ascii": "Al Jubayl",
    "lat": "27.0000",
    "lng": "49.6544",
    "country": "Saudi Arabia",
    "iso2": "SA",
    "iso3": "SAU",
    "admin_name": "Ash Sharqīyah",
    "capital": "",
    "population": "392948",
    "id": "1682564079"
  },
  {
    "city": "Ḩā’il",
    "city_ascii": "Ha'il",
    "lat": "27.5167",
    "lng": "41.6833",
    "country": "Saudi Arabia",
    "iso2": "SA",
    "iso3": "SAU",
    "admin_name": "Ḩā’il",
    "capital": "admin",
    "population": "385257",
    "id": "1682249750"
  },
  {
    "city": "Al Kharj",
    "city_ascii": "Al Kharj",
    "lat": "24.1483",
    "lng": "47.3050",
    "country": "Saudi Arabia",
    "iso2": "SA",
    "iso3": "SAU",
    "admin_name": "Ar Riyāḑ",
    "capital": "",
    "population": "376325",
    "id": "1682947408"
  },
  {
    "city": "Al Qunfudhah",
    "city_ascii": "Al Qunfudhah",
    "lat": "19.1264",
    "lng": "41.0789",
    "country": "Saudi Arabia",
    "iso2": "SA",
    "iso3": "SAU",
    "admin_name": "Makkah al Mukarramah",
    "capital": "",
    "population": "300516",
    "id": "1682434353"
  },
  {
    "city": "Al Mubarraz",
    "city_ascii": "Al Mubarraz",
    "lat": "25.4416",
    "lng": "49.6642",
    "country": "Saudi Arabia",
    "iso2": "SA",
    "iso3": "SAU",
    "admin_name": "Ash Sharqīyah",
    "capital": "",
    "population": "298562",
    "id": "1682484039"
  },
  {
    "city": "Yanbu",
    "city_ascii": "Yanbu",
    "lat": "24.0883",
    "lng": "38.0582",
    "country": "Saudi Arabia",
    "iso2": "SA",
    "iso3": "SAU",
    "admin_name": "Al Madīnah al Munawwarah",
    "capital": "",
    "population": "250000",
    "id": "1682000044"
  },
  {
    "city": "Sakākā",
    "city_ascii": "Sakaka",
    "lat": "29.9697",
    "lng": "40.2000",
    "country": "Saudi Arabia",
    "iso2": "SA",
    "iso3": "SAU",
    "admin_name": "Al Jawf",
    "capital": "admin",
    "population": "242813",
    "id": "1682232132"
  },
  {
    "city": "Abhā",
    "city_ascii": "Abha",
    "lat": "18.2169",
    "lng": "42.5053",
    "country": "Saudi Arabia",
    "iso2": "SA",
    "iso3": "SAU",
    "admin_name": "‘Asīr",
    "capital": "admin",
    "population": "236157",
    "id": "1682759151"
  },
  {
    "city": "Şabyā",
    "city_ascii": "Sabya",
    "lat": "17.1489",
    "lng": "42.6258",
    "country": "Saudi Arabia",
    "iso2": "SA",
    "iso3": "SAU",
    "admin_name": "Jāzān",
    "capital": "",
    "population": "228375",
    "id": "1682601560"
  },
  {
    "city": "Al Khubar",
    "city_ascii": "Al Khubar",
    "lat": "26.2833",
    "lng": "50.2000",
    "country": "Saudi Arabia",
    "iso2": "SA",
    "iso3": "SAU",
    "admin_name": "Ash Sharqīyah",
    "capital": "",
    "population": "219679",
    "id": "1682059414"
  },
  {
    "city": "Qal‘at Bīshah",
    "city_ascii": "Qal`at Bishah",
    "lat": "20.0000",
    "lng": "42.6000",
    "country": "Saudi Arabia",
    "iso2": "SA",
    "iso3": "SAU",
    "admin_name": "‘Asīr",
    "capital": "",
    "population": "205346",
    "id": "1682202412"
  },
  {
    "city": "‘Unayzah",
    "city_ascii": "`Unayzah",
    "lat": "26.0906",
    "lng": "43.9875",
    "country": "Saudi Arabia",
    "iso2": "SA",
    "iso3": "SAU",
    "admin_name": "Al Qaşīm",
    "capital": "",
    "population": "163729",
    "id": "1682546519"
  },
  {
    "city": "Ras Tanura",
    "city_ascii": "Ras Tanura",
    "lat": "26.6500",
    "lng": "50.1667",
    "country": "Saudi Arabia",
    "iso2": "SA",
    "iso3": "SAU",
    "admin_name": "Ash Sharqīyah",
    "capital": "",
    "population": "153933",
    "id": "1682997537"
  },
  {
    "city": "Al Ḩawīyah",
    "city_ascii": "Al Hawiyah",
    "lat": "21.4411",
    "lng": "40.4975",
    "country": "Saudi Arabia",
    "iso2": "SA",
    "iso3": "SAU",
    "admin_name": "Makkah al Mukarramah",
    "capital": "",
    "population": "148151",
    "id": "1682803387"
  },
  {
    "city": "Al Qurayyāt",
    "city_ascii": "Al Qurayyat",
    "lat": "31.3167",
    "lng": "37.3667",
    "country": "Saudi Arabia",
    "iso2": "SA",
    "iso3": "SAU",
    "admin_name": "Al Jawf",
    "capital": "",
    "population": "147550",
    "id": "1682805250"
  },
  {
    "city": "Ar Rass",
    "city_ascii": "Ar Rass",
    "lat": "25.8667",
    "lng": "43.5000",
    "country": "Saudi Arabia",
    "iso2": "SA",
    "iso3": "SAU",
    "admin_name": "Al Qaşīm",
    "capital": "",
    "population": "133000",
    "id": "1682666279"
  },
  {
    "city": "Jāzān",
    "city_ascii": "Jazan",
    "lat": "16.8892",
    "lng": "42.5611",
    "country": "Saudi Arabia",
    "iso2": "SA",
    "iso3": "SAU",
    "admin_name": "Jāzān",
    "capital": "admin",
    "population": "127743",
    "id": "1682515652"
  },
  {
    "city": "Az Zulfī",
    "city_ascii": "Az Zulfi",
    "lat": "26.2833",
    "lng": "44.8000",
    "country": "Saudi Arabia",
    "iso2": "SA",
    "iso3": "SAU",
    "admin_name": "Ar Riyāḑ",
    "capital": "",
    "population": "125000",
    "id": "1682476550"
  },
  {
    "city": "Sayhāt",
    "city_ascii": "Sayhat",
    "lat": "26.4750",
    "lng": "50.0417",
    "country": "Saudi Arabia",
    "iso2": "SA",
    "iso3": "SAU",
    "admin_name": "Ash Sharqīyah",
    "capital": "",
    "population": "115000",
    "id": "1682602908"
  },
  {
    "city": "Ḩaraḑ",
    "city_ascii": "Harad",
    "lat": "24.1456",
    "lng": "49.0653",
    "country": "Saudi Arabia",
    "iso2": "SA",
    "iso3": "SAU",
    "admin_name": "Ash Sharqīyah",
    "capital": "",
    "population": "111214",
    "id": "1682802077"
  },
  {
    "city": "Al Aḩad al Masāriḩah",
    "city_ascii": "Al Ahad al Masarihah",
    "lat": "16.7097",
    "lng": "42.9550",
    "country": "Saudi Arabia",
    "iso2": "SA",
    "iso3": "SAU",
    "admin_name": "Jāzān",
    "capital": "",
    "population": "110710",
    "id": "1682620364"
  },
  {
    "city": "Najrān",
    "city_ascii": "Najran",
    "lat": "17.4917",
    "lng": "44.1322",
    "country": "Saudi Arabia",
    "iso2": "SA",
    "iso3": "SAU",
    "admin_name": "Najrān",
    "capital": "admin",
    "population": "72038",
    "id": "1682069716"
  },
  {
    "city": "Arar",
    "city_ascii": "Arar",
    "lat": "30.9833",
    "lng": "41.0167",
    "country": "Saudi Arabia",
    "iso2": "SA",
    "iso3": "SAU",
    "admin_name": "Al Ḩudūd ash Shamālīyah",
    "capital": "admin",
    "population": "27449",
    "id": "1682664517"
  },
  {
    "city": "Al Bāḩah",
    "city_ascii": "Al Bahah",
    "lat": "20.0125",
    "lng": "41.4653",
    "country": "Saudi Arabia",
    "iso2": "SA",
    "iso3": "SAU",
    "admin_name": "Al Bāḩah",
    "capital": "admin",
    "population": "21983",
    "id": "1682121855"
  },
  {
    "city": "Khamīs Mushayţ",
    "city_ascii": "Khamis Mushayt",
    "lat": "18.3000",
    "lng": "42.7333",
    "country": "Saudi Arabia",
    "iso2": "SA",
    "iso3": "SAU",
    "admin_name": "‘Asīr",
    "capital": "",
    "population": "99213",
    "id": "1682497044"
  },
  {
    "city": "Ţurayf",
    "city_ascii": "Turayf",
    "lat": "31.6775",
    "lng": "38.6531",
    "country": "Saudi Arabia",
    "iso2": "SA",
    "iso3": "SAU",
    "admin_name": "Al Ḩudūd ash Shamālīyah",
    "capital": "",
    "population": "91713",
    "id": "1682455207"
  },
  {
    "city": "Sharūrah",
    "city_ascii": "Sharurah",
    "lat": "17.4833",
    "lng": "47.1167",
    "country": "Saudi Arabia",
    "iso2": "SA",
    "iso3": "SAU",
    "admin_name": "Najrān",
    "capital": "",
    "population": "85977",
    "id": "1682490742"
  },
  {
    "city": "Rafḩā",
    "city_ascii": "Rafha",
    "lat": "29.6386",
    "lng": "43.5014",
    "country": "Saudi Arabia",
    "iso2": "SA",
    "iso3": "SAU",
    "admin_name": "Al Ḩudūd ash Shamālīyah",
    "capital": "",
    "population": "80544",
    "id": "1682612877"
  },
  {
    "city": "Al Līth",
    "city_ascii": "Al Lith",
    "lat": "20.1500",
    "lng": "40.2667",
    "country": "Saudi Arabia",
    "iso2": "SA",
    "iso3": "SAU",
    "admin_name": "Makkah al Mukarramah",
    "capital": "",
    "population": "72000",
    "id": "1682243537"
  },
  {
    "city": "Ad Darb",
    "city_ascii": "Ad Darb",
    "lat": "17.7167",
    "lng": "42.2500",
    "country": "Saudi Arabia",
    "iso2": "SA",
    "iso3": "SAU",
    "admin_name": "Jāzān",
    "capital": "",
    "population": "69134",
    "id": "1682370751"
  },
  {
    "city": "Ra’s al Khafjī",
    "city_ascii": "Ra's al Khafji",
    "lat": "28.4167",
    "lng": "48.5000",
    "country": "Saudi Arabia",
    "iso2": "SA",
    "iso3": "SAU",
    "admin_name": "Ash Sharqīyah",
    "capital": "",
    "population": "65000",
    "id": "1682230104"
  },
  {
    "city": "Badr Ḩunayn",
    "city_ascii": "Badr Hunayn",
    "lat": "23.7800",
    "lng": "38.7906",
    "country": "Saudi Arabia",
    "iso2": "SA",
    "iso3": "SAU",
    "admin_name": "Al Madīnah al Munawwarah",
    "capital": "",
    "population": "63468",
    "id": "1682157831"
  },
  {
    "city": "Khulayş",
    "city_ascii": "Khulays",
    "lat": "22.1539",
    "lng": "39.3183",
    "country": "Saudi Arabia",
    "iso2": "SA",
    "iso3": "SAU",
    "admin_name": "Makkah al Mukarramah",
    "capital": "",
    "population": "63445",
    "id": "1682152302"
  },
  {
    "city": "An Nimāş",
    "city_ascii": "An Nimas",
    "lat": "19.1200",
    "lng": "42.1300",
    "country": "Saudi Arabia",
    "iso2": "SA",
    "iso3": "SAU",
    "admin_name": "‘Asīr",
    "capital": "",
    "population": "53908",
    "id": "1682459035"
  },
  {
    "city": "Al Majāridah",
    "city_ascii": "Al Majaridah",
    "lat": "19.1167",
    "lng": "41.9167",
    "country": "Saudi Arabia",
    "iso2": "SA",
    "iso3": "SAU",
    "admin_name": "‘Asīr",
    "capital": "",
    "population": "53629",
    "id": "1682638402"
  },
  {
    "city": "Al Wajh",
    "city_ascii": "Al Wajh",
    "lat": "26.2833",
    "lng": "36.4167",
    "country": "Saudi Arabia",
    "iso2": "SA",
    "iso3": "SAU",
    "admin_name": "Tabūk",
    "capital": "",
    "population": "50000",
    "id": "1682508460"
  },
  {
    "city": "Al Midhnab",
    "city_ascii": "Al Midhnab",
    "lat": "25.8601",
    "lng": "44.2223",
    "country": "Saudi Arabia",
    "iso2": "SA",
    "iso3": "SAU",
    "admin_name": "Al Qaşīm",
    "capital": "",
    "population": "44043",
    "id": "1682375082"
  },
  {
    "city": "Abqaiq",
    "city_ascii": "Abqaiq",
    "lat": "25.9350",
    "lng": "49.6661",
    "country": "Saudi Arabia",
    "iso2": "SA",
    "iso3": "SAU",
    "admin_name": "Ash Sharqīyah",
    "capital": "",
    "population": "44000",
    "id": "1682412526"
  },
  {
    "city": "Al ‘Aqīq",
    "city_ascii": "Al `Aqiq",
    "lat": "20.2685",
    "lng": "41.6493",
    "country": "Saudi Arabia",
    "iso2": "SA",
    "iso3": "SAU",
    "admin_name": "Al Bāḩah",
    "capital": "",
    "population": "35629",
    "id": "1682354121"
  },
  {
    "city": "Ḑulay‘ Rashīd",
    "city_ascii": "Dulay` Rashid",
    "lat": "25.5067",
    "lng": "42.8614",
    "country": "Saudi Arabia",
    "iso2": "SA",
    "iso3": "SAU",
    "admin_name": "Al Qaşīm",
    "capital": "",
    "population": "35000",
    "id": "1682000063"
  },
  {
    "city": "Shaqrā’",
    "city_ascii": "Shaqra'",
    "lat": "25.2483",
    "lng": "45.2528",
    "country": "Saudi Arabia",
    "iso2": "SA",
    "iso3": "SAU",
    "admin_name": "Ar Riyāḑ",
    "capital": "",
    "population": "35000",
    "id": "1682664913"
  },
  {
    "city": "Al Mindak",
    "city_ascii": "Al Mindak",
    "lat": "20.1833",
    "lng": "41.2333",
    "country": "Saudi Arabia",
    "iso2": "SA",
    "iso3": "SAU",
    "admin_name": "Al Bāḩah",
    "capital": "",
    "population": "33319",
    "id": "1682913363"
  },
  {
    "city": "Dhahran",
    "city_ascii": "Dhahran",
    "lat": "26.2667",
    "lng": "50.1500",
    "country": "Saudi Arabia",
    "iso2": "SA",
    "iso3": "SAU",
    "admin_name": "Ash Sharqīyah",
    "capital": "",
    "population": "32067",
    "id": "1682374155"
  },
  {
    "city": "Al ‘Aydābī",
    "city_ascii": "Al `Aydabi",
    "lat": "17.2370",
    "lng": "42.9390",
    "country": "Saudi Arabia",
    "iso2": "SA",
    "iso3": "SAU",
    "admin_name": "Jāzān",
    "capital": "",
    "population": "31735",
    "id": "1682495088"
  },
  {
    "city": "Qārā",
    "city_ascii": "Qara",
    "lat": "29.8833",
    "lng": "40.2167",
    "country": "Saudi Arabia",
    "iso2": "SA",
    "iso3": "SAU",
    "admin_name": "Al Jawf",
    "capital": "",
    "population": "31480",
    "id": "1682446657"
  },
  {
    "city": "Ash Shinān",
    "city_ascii": "Ash Shinan",
    "lat": "27.1782",
    "lng": "42.4430",
    "country": "Saudi Arabia",
    "iso2": "SA",
    "iso3": "SAU",
    "admin_name": "Ḩā’il",
    "capital": "",
    "population": "30441",
    "id": "1682426795"
  },
  {
    "city": "Al ‘Awwāmīyah",
    "city_ascii": "Al `Awwamiyah",
    "lat": "26.5833",
    "lng": "49.9833",
    "country": "Saudi Arabia",
    "iso2": "SA",
    "iso3": "SAU",
    "admin_name": "Ash Sharqīyah",
    "capital": "",
    "population": "25500",
    "id": "1682093940"
  },
  {
    "city": "Ḩaql",
    "city_ascii": "Haql",
    "lat": "29.2833",
    "lng": "34.9333",
    "country": "Saudi Arabia",
    "iso2": "SA",
    "iso3": "SAU",
    "admin_name": "Al Jawf",
    "capital": "",
    "population": "25649",
    "id": "1682704031"
  },
  {
    "city": "Ḑubā",
    "city_ascii": "Duba",
    "lat": "27.3493",
    "lng": "35.6962",
    "country": "Saudi Arabia",
    "iso2": "SA",
    "iso3": "SAU",
    "admin_name": "Tabūk",
    "capital": "",
    "population": "25601",
    "id": "1682927913"
  },
  {
    "city": "As Sulayyil",
    "city_ascii": "As Sulayyil",
    "lat": "20.4597",
    "lng": "45.5744",
    "country": "Saudi Arabia",
    "iso2": "SA",
    "iso3": "SAU",
    "admin_name": "Ar Riyāḑ",
    "capital": "",
    "population": "24097",
    "id": "1682960661"
  },
  {
    "city": "Dawmat al Jandal",
    "city_ascii": "Dawmat al Jandal",
    "lat": "29.8153",
    "lng": "39.8664",
    "country": "Saudi Arabia",
    "iso2": "SA",
    "iso3": "SAU",
    "admin_name": "Al Jawf",
    "capital": "",
    "population": "22583",
    "id": "1682116359"
  },
  {
    "city": "Jubbah",
    "city_ascii": "Jubbah",
    "lat": "28.0200",
    "lng": "40.9400",
    "country": "Saudi Arabia",
    "iso2": "SA",
    "iso3": "SAU",
    "admin_name": "Ḩā’il",
    "capital": "",
    "population": "20000",
    "id": "1682817897"
  },
  {
    "city": "Ad Dir‘īyah",
    "city_ascii": "Ad Dir`iyah",
    "lat": "24.7333",
    "lng": "46.5756",
    "country": "Saudi Arabia",
    "iso2": "SA",
    "iso3": "SAU",
    "admin_name": "Ar Riyāḑ",
    "capital": "",
    "population": "19143",
    "id": "1682421969"
  },
  {
    "city": "Al Ghāţ",
    "city_ascii": "Al Ghat",
    "lat": "26.0267",
    "lng": "44.9608",
    "country": "Saudi Arabia",
    "iso2": "SA",
    "iso3": "SAU",
    "admin_name": "Ar Riyāḑ",
    "capital": "",
    "population": "16500",
    "id": "1682563733"
  },
  {
    "city": "Al Ḩā’ir",
    "city_ascii": "Al Ha'ir",
    "lat": "25.7900",
    "lng": "45.3800",
    "country": "Saudi Arabia",
    "iso2": "SA",
    "iso3": "SAU",
    "admin_name": "Ar Riyāḑ",
    "capital": "",
    "population": "13473",
    "id": "1682572501"
  },
  {
    "city": "Ḩarmah",
    "city_ascii": "Harmah",
    "lat": "25.9261",
    "lng": "45.3336",
    "country": "Saudi Arabia",
    "iso2": "SA",
    "iso3": "SAU",
    "admin_name": "Ar Riyāḑ",
    "capital": "",
    "population": "13000",
    "id": "1682617431"
  },
  {
    "city": "Al Awjām",
    "city_ascii": "Al Awjam",
    "lat": "26.5583",
    "lng": "49.9503",
    "country": "Saudi Arabia",
    "iso2": "SA",
    "iso3": "SAU",
    "admin_name": "Ash Sharqīyah",
    "capital": "",
    "population": "11460",
    "id": "1682207771"
  },
  {
    "city": "Al Majma‘ah",
    "city_ascii": "Al Majma`ah",
    "lat": "25.9039",
    "lng": "45.3456",
    "country": "Saudi Arabia",
    "iso2": "SA",
    "iso3": "SAU",
    "admin_name": "Ar Riyāḑ",
    "capital": "",
    "population": "12065",
    "id": "1682506946"
  },
  {
    "city": "Ḑurumā",
    "city_ascii": "Duruma",
    "lat": "24.6000",
    "lng": "46.1333",
    "country": "Saudi Arabia",
    "iso2": "SA",
    "iso3": "SAU",
    "admin_name": "Ar Riyāḑ",
    "capital": "",
    "population": "11461",
    "id": "1682041945"
  },
  {
    "city": "Al Quway‘īyah",
    "city_ascii": "Al Quway`iyah",
    "lat": "24.0464",
    "lng": "45.2656",
    "country": "Saudi Arabia",
    "iso2": "SA",
    "iso3": "SAU",
    "admin_name": "Ar Riyāḑ",
    "capital": "",
    "population": "8712",
    "id": "1682154232"
  }
]