[
  {
    "city": "Auckland",
    "city_ascii": "Auckland",
    "lat": "-36.8406",
    "lng": "174.7400",
    "country": "New Zealand",
    "iso2": "NZ",
    "iso3": "NZL",
    "admin_name": "Auckland",
    "capital": "admin",
    "population": "1346091",
    "id": "1554435911"
  },
  {
    "city": "Wellington",
    "city_ascii": "Wellington",
    "lat": "-41.2889",
    "lng": "174.7772",
    "country": "New Zealand",
    "iso2": "NZ",
    "iso3": "NZL",
    "admin_name": "Wellington",
    "capital": "primary",
    "population": "418500",
    "id": "1554772152"
  },
  {
    "city": "Christchurch",
    "city_ascii": "Christchurch",
    "lat": "-43.5310",
    "lng": "172.6365",
    "country": "New Zealand",
    "iso2": "NZ",
    "iso3": "NZL",
    "admin_name": "Canterbury",
    "capital": "admin",
    "population": "383200",
    "id": "1554377228"
  },
  {
    "city": "Manukau City",
    "city_ascii": "Manukau City",
    "lat": "-37.0000",
    "lng": "174.8850",
    "country": "New Zealand",
    "iso2": "NZ",
    "iso3": "NZL",
    "admin_name": "Auckland",
    "capital": "",
    "population": "375600",
    "id": "1554797148"
  },
  {
    "city": "Northcote",
    "city_ascii": "Northcote",
    "lat": "-36.8019",
    "lng": "174.7494",
    "country": "New Zealand",
    "iso2": "NZ",
    "iso3": "NZL",
    "admin_name": "Auckland",
    "capital": "",
    "population": "205605",
    "id": "1554717659"
  },
  {
    "city": "Waitakere",
    "city_ascii": "Waitakere",
    "lat": "-36.8500",
    "lng": "174.5430",
    "country": "New Zealand",
    "iso2": "NZ",
    "iso3": "NZL",
    "admin_name": "Auckland",
    "capital": "",
    "population": "208100",
    "id": "1554034359"
  },
  {
    "city": "Hamilton",
    "city_ascii": "Hamilton",
    "lat": "-37.7833",
    "lng": "175.2833",
    "country": "New Zealand",
    "iso2": "NZ",
    "iso3": "NZL",
    "admin_name": "Waikato",
    "capital": "admin",
    "population": "176500",
    "id": "1554873040"
  },
  {
    "city": "Tauranga",
    "city_ascii": "Tauranga",
    "lat": "-37.6833",
    "lng": "176.1667",
    "country": "New Zealand",
    "iso2": "NZ",
    "iso3": "NZL",
    "admin_name": "Bay of Plenty",
    "capital": "",
    "population": "151300",
    "id": "1554759867"
  },
  {
    "city": "Lower Hutt",
    "city_ascii": "Lower Hutt",
    "lat": "-41.2167",
    "lng": "174.9167",
    "country": "New Zealand",
    "iso2": "NZ",
    "iso3": "NZL",
    "admin_name": "Wellington",
    "capital": "",
    "population": "103400",
    "id": "1554623632"
  },
  {
    "city": "Dunedin",
    "city_ascii": "Dunedin",
    "lat": "-45.8742",
    "lng": "170.5036",
    "country": "New Zealand",
    "iso2": "NZ",
    "iso3": "NZL",
    "admin_name": "Otago",
    "capital": "admin",
    "population": "99885",
    "id": "1554475997"
  },
  {
    "city": "Palmerston North",
    "city_ascii": "Palmerston North",
    "lat": "-40.3550",
    "lng": "175.6117",
    "country": "New Zealand",
    "iso2": "NZ",
    "iso3": "NZL",
    "admin_name": "Manawatu-Wanganui",
    "capital": "admin",
    "population": "76236",
    "id": "1554138183"
  },
  {
    "city": "Napier",
    "city_ascii": "Napier",
    "lat": "-39.4903",
    "lng": "176.9178",
    "country": "New Zealand",
    "iso2": "NZ",
    "iso3": "NZL",
    "admin_name": "Hawke’s Bay",
    "capital": "admin",
    "population": "62241",
    "id": "1554064936"
  },
  {
    "city": "Whangarei",
    "city_ascii": "Whangarei",
    "lat": "-35.7250",
    "lng": "174.3236",
    "country": "New Zealand",
    "iso2": "NZ",
    "iso3": "NZL",
    "admin_name": "Northland",
    "capital": "admin",
    "population": "50784",
    "id": "1554000636"
  },
  {
    "city": "Invercargill",
    "city_ascii": "Invercargill",
    "lat": "-46.4131",
    "lng": "168.3475",
    "country": "New Zealand",
    "iso2": "NZ",
    "iso3": "NZL",
    "admin_name": "Southland",
    "capital": "admin",
    "population": "47625",
    "id": "1554148942"
  },
  {
    "city": "Nelson",
    "city_ascii": "Nelson",
    "lat": "-41.2708",
    "lng": "173.2839",
    "country": "New Zealand",
    "iso2": "NZ",
    "iso3": "NZL",
    "admin_name": "Nelson",
    "capital": "admin",
    "population": "46437",
    "id": "1554017097"
  },
  {
    "city": "Gisborne",
    "city_ascii": "Gisborne",
    "lat": "-38.6625",
    "lng": "178.0178",
    "country": "New Zealand",
    "iso2": "NZ",
    "iso3": "NZL",
    "admin_name": "Gisborne",
    "capital": "admin",
    "population": "34527",
    "id": "1554359840"
  },
  {
    "city": "Blenheim",
    "city_ascii": "Blenheim",
    "lat": "-41.5167",
    "lng": "173.9500",
    "country": "New Zealand",
    "iso2": "NZ",
    "iso3": "NZL",
    "admin_name": "Marlborough",
    "capital": "admin",
    "population": "26400",
    "id": "1554001426"
  },
  {
    "city": "Richmond",
    "city_ascii": "Richmond",
    "lat": "-41.3333",
    "lng": "173.1833",
    "country": "New Zealand",
    "iso2": "NZ",
    "iso3": "NZL",
    "admin_name": "Tasman",
    "capital": "admin",
    "population": "15000",
    "id": "1554001427"
  },
  {
    "city": "Whakatane",
    "city_ascii": "Whakatane",
    "lat": "-37.9600",
    "lng": "176.9800",
    "country": "New Zealand",
    "iso2": "NZ",
    "iso3": "NZL",
    "admin_name": "Bay of Plenty",
    "capital": "admin",
    "population": "15795",
    "id": "1554253729"
  },
  {
    "city": "Greymouth",
    "city_ascii": "Greymouth",
    "lat": "-42.4500",
    "lng": "171.2075",
    "country": "New Zealand",
    "iso2": "NZ",
    "iso3": "NZL",
    "admin_name": "West Coast",
    "capital": "admin",
    "population": "7965",
    "id": "1554984303"
  },
  {
    "city": "Stratford",
    "city_ascii": "Stratford",
    "lat": "-39.3333",
    "lng": "174.2833",
    "country": "New Zealand",
    "iso2": "NZ",
    "iso3": "NZL",
    "admin_name": "Taranaki",
    "capital": "admin",
    "population": "5740",
    "id": "1554001293"
  },
  {
    "city": "Waitangi",
    "city_ascii": "Waitangi",
    "lat": "-43.9514",
    "lng": "-176.5611",
    "country": "New Zealand",
    "iso2": "NZ",
    "iso3": "NZL",
    "admin_name": "Chatham Islands",
    "capital": "admin",
    "population": "177",
    "id": "1554847194"
  },
  {
    "city": "Porirua",
    "city_ascii": "Porirua",
    "lat": "-41.1333",
    "lng": "174.8500",
    "country": "New Zealand",
    "iso2": "NZ",
    "iso3": "NZL",
    "admin_name": "Wellington",
    "capital": "",
    "population": "55218",
    "id": "1554561880"
  },
  {
    "city": "Rotorua",
    "city_ascii": "Rotorua",
    "lat": "-38.1378",
    "lng": "176.2514",
    "country": "New Zealand",
    "iso2": "NZ",
    "iso3": "NZL",
    "admin_name": "Bay of Plenty",
    "capital": "",
    "population": "54204",
    "id": "1554000379"
  },
  {
    "city": "New Plymouth",
    "city_ascii": "New Plymouth",
    "lat": "-39.0578",
    "lng": "174.0742",
    "country": "New Zealand",
    "iso2": "NZ",
    "iso3": "NZL",
    "admin_name": "Taranaki",
    "capital": "",
    "population": "53988",
    "id": "1554939405"
  },
  {
    "city": "Upper Hutt",
    "city_ascii": "Upper Hutt",
    "lat": "-41.1333",
    "lng": "175.0500",
    "country": "New Zealand",
    "iso2": "NZ",
    "iso3": "NZL",
    "admin_name": "Wellington",
    "capital": "",
    "population": "41000",
    "id": "1554000042"
  },
  {
    "city": "Whanganui",
    "city_ascii": "Whanganui",
    "lat": "-39.9325",
    "lng": "175.0519",
    "country": "New Zealand",
    "iso2": "NZ",
    "iso3": "NZL",
    "admin_name": "Manawatu-Wanganui",
    "capital": "",
    "population": "39400",
    "id": "1554827998"
  },
  {
    "city": "Paraparaumu",
    "city_ascii": "Paraparaumu",
    "lat": "-40.9167",
    "lng": "175.0167",
    "country": "New Zealand",
    "iso2": "NZ",
    "iso3": "NZL",
    "admin_name": "Wellington",
    "capital": "",
    "population": "28701",
    "id": "1554166459"
  },
  {
    "city": "Timaru",
    "city_ascii": "Timaru",
    "lat": "-44.3931",
    "lng": "171.2508",
    "country": "New Zealand",
    "iso2": "NZ",
    "iso3": "NZL",
    "admin_name": "Canterbury",
    "capital": "",
    "population": "27501",
    "id": "1554243304"
  },
  {
    "city": "Pukekohe East",
    "city_ascii": "Pukekohe East",
    "lat": "-37.2000",
    "lng": "174.9000",
    "country": "New Zealand",
    "iso2": "NZ",
    "iso3": "NZL",
    "admin_name": "Auckland",
    "capital": "",
    "population": "26300",
    "id": "1554599644"
  },
  {
    "city": "Taupo",
    "city_ascii": "Taupo",
    "lat": "-38.6875",
    "lng": "176.0694",
    "country": "New Zealand",
    "iso2": "NZ",
    "iso3": "NZL",
    "admin_name": "Waikato",
    "capital": "",
    "population": "23622",
    "id": "1554654784"
  },
  {
    "city": "Masterton",
    "city_ascii": "Masterton",
    "lat": "-40.9700",
    "lng": "175.6500",
    "country": "New Zealand",
    "iso2": "NZ",
    "iso3": "NZL",
    "admin_name": "Wellington",
    "capital": "",
    "population": "19818",
    "id": "1554641049"
  },
  {
    "city": "Cambridge",
    "city_ascii": "Cambridge",
    "lat": "-37.8833",
    "lng": "175.4667",
    "country": "New Zealand",
    "iso2": "NZ",
    "iso3": "NZL",
    "admin_name": "Waikato",
    "capital": "",
    "population": "18651",
    "id": "1554000848"
  },
  {
    "city": "Feilding",
    "city_ascii": "Feilding",
    "lat": "-40.2167",
    "lng": "175.5667",
    "country": "New Zealand",
    "iso2": "NZ",
    "iso3": "NZL",
    "admin_name": "Manawatu-Wanganui",
    "capital": "",
    "population": "17800",
    "id": "1554000257"
  },
  {
    "city": "Levin",
    "city_ascii": "Levin",
    "lat": "-40.6219",
    "lng": "175.2867",
    "country": "New Zealand",
    "iso2": "NZ",
    "iso3": "NZL",
    "admin_name": "Manawatu-Wanganui",
    "capital": "",
    "population": "17670",
    "id": "1554983635"
  },
  {
    "city": "Ashton",
    "city_ascii": "Ashton",
    "lat": "-44.0333",
    "lng": "171.7667",
    "country": "New Zealand",
    "iso2": "NZ",
    "iso3": "NZL",
    "admin_name": "Canterbury",
    "capital": "",
    "population": "17700",
    "id": "1554784264"
  },
  {
    "city": "Macetown",
    "city_ascii": "Macetown",
    "lat": "-44.8650",
    "lng": "168.8190",
    "country": "New Zealand",
    "iso2": "NZ",
    "iso3": "NZL",
    "admin_name": "Otago",
    "capital": "",
    "population": "16600",
    "id": "1554582165"
  },
  {
    "city": "Rolleston",
    "city_ascii": "Rolleston",
    "lat": "-43.5833",
    "lng": "172.3833",
    "country": "New Zealand",
    "iso2": "NZ",
    "iso3": "NZL",
    "admin_name": "Canterbury",
    "capital": "",
    "population": "16350",
    "id": "1554176166"
  },
  {
    "city": "Tokoroa",
    "city_ascii": "Tokoroa",
    "lat": "-38.2167",
    "lng": "175.8667",
    "country": "New Zealand",
    "iso2": "NZ",
    "iso3": "NZL",
    "admin_name": "Waikato",
    "capital": "",
    "population": "13572",
    "id": "1554951529"
  },
  {
    "city": "Havelock North",
    "city_ascii": "Havelock North",
    "lat": "-39.6667",
    "lng": "176.8833",
    "country": "New Zealand",
    "iso2": "NZ",
    "iso3": "NZL",
    "admin_name": "Hawke’s Bay",
    "capital": "",
    "population": "13950",
    "id": "1554193593"
  },
  {
    "city": "Mosgiel",
    "city_ascii": "Mosgiel",
    "lat": "-45.8750",
    "lng": "170.3486",
    "country": "New Zealand",
    "iso2": "NZ",
    "iso3": "NZL",
    "admin_name": "Otago",
    "capital": "",
    "population": "13400",
    "id": "1554341062"
  },
  {
    "city": "Te Awamutu",
    "city_ascii": "Te Awamutu",
    "lat": "-38.0167",
    "lng": "175.3167",
    "country": "New Zealand",
    "iso2": "NZ",
    "iso3": "NZL",
    "admin_name": "Waikato",
    "capital": "",
    "population": "12195",
    "id": "1554001222"
  },
  {
    "city": "Waikanae",
    "city_ascii": "Waikanae",
    "lat": "-40.8750",
    "lng": "175.0639",
    "country": "New Zealand",
    "iso2": "NZ",
    "iso3": "NZL",
    "admin_name": "Wellington",
    "capital": "",
    "population": "12100",
    "id": "1554624715"
  },
  {
    "city": "Paraparaumu Beach",
    "city_ascii": "Paraparaumu Beach",
    "lat": "-40.8938",
    "lng": "174.9794",
    "country": "New Zealand",
    "iso2": "NZ",
    "iso3": "NZL",
    "admin_name": "Wellington",
    "capital": "",
    "population": "9087",
    "id": "1554306968"
  },
  {
    "city": "Hawera",
    "city_ascii": "Hawera",
    "lat": "-39.5933",
    "lng": "174.2783",
    "country": "New Zealand",
    "iso2": "NZ",
    "iso3": "NZL",
    "admin_name": "Taranaki",
    "capital": "",
    "population": "9792",
    "id": "1554872573"
  },
  {
    "city": "Glencoe",
    "city_ascii": "Glencoe",
    "lat": "-46.1833",
    "lng": "168.6833",
    "country": "New Zealand",
    "iso2": "NZ",
    "iso3": "NZL",
    "admin_name": "Southland",
    "capital": "",
    "population": "9750",
    "id": "1554979133"
  },
  {
    "city": "Waiuku",
    "city_ascii": "Waiuku",
    "lat": "-37.2490",
    "lng": "174.7300",
    "country": "New Zealand",
    "iso2": "NZ",
    "iso3": "NZL",
    "admin_name": "Auckland",
    "capital": "",
    "population": "9171",
    "id": "1554334008"
  },
  {
    "city": "Wanaka",
    "city_ascii": "Wanaka",
    "lat": "-44.7000",
    "lng": "169.1500",
    "country": "New Zealand",
    "iso2": "NZ",
    "iso3": "NZL",
    "admin_name": "Otago",
    "capital": "",
    "population": "8900",
    "id": "1554152950"
  },
  {
    "city": "Thames",
    "city_ascii": "Thames",
    "lat": "-37.1383",
    "lng": "175.5375",
    "country": "New Zealand",
    "iso2": "NZ",
    "iso3": "NZL",
    "admin_name": "Waikato",
    "capital": "",
    "population": "7293",
    "id": "1554802053"
  },
  {
    "city": "Kerikeri",
    "city_ascii": "Kerikeri",
    "lat": "-35.2244",
    "lng": "173.9514",
    "country": "New Zealand",
    "iso2": "NZ",
    "iso3": "NZL",
    "admin_name": "Northland",
    "capital": "",
    "population": "6960",
    "id": "1554530676"
  },
  {
    "city": "Kaitaia",
    "city_ascii": "Kaitaia",
    "lat": "-35.1125",
    "lng": "173.2628",
    "country": "New Zealand",
    "iso2": "NZ",
    "iso3": "NZL",
    "admin_name": "Northland",
    "capital": "",
    "population": "5868",
    "id": "1554000934"
  },
  {
    "city": "Westport",
    "city_ascii": "Westport",
    "lat": "-41.7581",
    "lng": "171.6022",
    "country": "New Zealand",
    "iso2": "NZ",
    "iso3": "NZL",
    "admin_name": "West Coast",
    "capital": "",
    "population": "4660",
    "id": "1554650685"
  },
  {
    "city": "Turangi",
    "city_ascii": "Turangi",
    "lat": "-38.9889",
    "lng": "175.8083",
    "country": "New Zealand",
    "iso2": "NZ",
    "iso3": "NZL",
    "admin_name": "Waikato",
    "capital": "",
    "population": "3320",
    "id": "1554981086"
  },
  {
    "city": "Hokitika",
    "city_ascii": "Hokitika",
    "lat": "-42.7156",
    "lng": "170.9681",
    "country": "New Zealand",
    "iso2": "NZ",
    "iso3": "NZL",
    "admin_name": "West Coast",
    "capital": "",
    "population": "2892",
    "id": "1554205461"
  },
  {
    "city": "Te Anau",
    "city_ascii": "Te Anau",
    "lat": "-45.4167",
    "lng": "167.7167",
    "country": "New Zealand",
    "iso2": "NZ",
    "iso3": "NZL",
    "admin_name": "Southland",
    "capital": "",
    "population": "2250",
    "id": "1554603580"
  },
  {
    "city": "Kaikoura",
    "city_ascii": "Kaikoura",
    "lat": "-42.4000",
    "lng": "173.6800",
    "country": "New Zealand",
    "iso2": "NZ",
    "iso3": "NZL",
    "admin_name": "Canterbury",
    "capital": "",
    "population": "2210",
    "id": "1554578431"
  },
  {
    "city": "Halfmoon Bay",
    "city_ascii": "Halfmoon Bay",
    "lat": "-46.9000",
    "lng": "168.1333",
    "country": "New Zealand",
    "iso2": "NZ",
    "iso3": "NZL",
    "admin_name": "Southland",
    "capital": "",
    "population": "300",
    "id": "1554077152"
  },
  {
    "city": "Kairaki",
    "city_ascii": "Kairaki",
    "lat": "-43.3860",
    "lng": "172.7030",
    "country": "New Zealand",
    "iso2": "NZ",
    "iso3": "NZL",
    "admin_name": "Canterbury",
    "capital": "",
    "population": "225",
    "id": "1554001309"
  }
]