[
  {
    "city": "Lusaka",
    "city_ascii": "Lusaka",
    "lat": "-15.4167",
    "lng": "28.2833",
    "country": "Zambia",
    "iso2": "ZM",
    "iso3": "ZMB",
    "admin_name": "Lusaka",
    "capital": "primary",
    "population": "2467563",
    "id": "1894157390"
  },
  {
    "city": "Ndola",
    "city_ascii": "Ndola",
    "lat": "-12.9667",
    "lng": "28.6333",
    "country": "Zambia",
    "iso2": "ZM",
    "iso3": "ZMB",
    "admin_name": "Copperbelt",
    "capital": "admin",
    "population": "528330",
    "id": "1894032745"
  },
  {
    "city": "Kitwe",
    "city_ascii": "Kitwe",
    "lat": "-12.8167",
    "lng": "28.2000",
    "country": "Zambia",
    "iso2": "ZM",
    "iso3": "ZMB",
    "admin_name": "Copperbelt",
    "capital": "",
    "population": "504194",
    "id": "1894321752"
  },
  {
    "city": "Kafue",
    "city_ascii": "Kafue",
    "lat": "-15.7667",
    "lng": "28.1833",
    "country": "Zambia",
    "iso2": "ZM",
    "iso3": "ZMB",
    "admin_name": "Lusaka",
    "capital": "",
    "population": "219000",
    "id": "1894930695"
  },
  {
    "city": "Mazabuka",
    "city_ascii": "Mazabuka",
    "lat": "-15.8467",
    "lng": "27.7475",
    "country": "Zambia",
    "iso2": "ZM",
    "iso3": "ZMB",
    "admin_name": "Southern",
    "capital": "",
    "population": "203219",
    "id": "1894390715"
  },
  {
    "city": "Kasama",
    "city_ascii": "Kasama",
    "lat": "-10.2117",
    "lng": "31.1783",
    "country": "Zambia",
    "iso2": "ZM",
    "iso3": "ZMB",
    "admin_name": "Northern",
    "capital": "admin",
    "population": "200000",
    "id": "1894305215"
  },
  {
    "city": "Mongu",
    "city_ascii": "Mongu",
    "lat": "-15.2775",
    "lng": "23.1319",
    "country": "Zambia",
    "iso2": "ZM",
    "iso3": "ZMB",
    "admin_name": "Western",
    "capital": "admin",
    "population": "179585",
    "id": "1894761291"
  },
  {
    "city": "Kashikishi",
    "city_ascii": "Kashikishi",
    "lat": "-9.3000",
    "lng": "28.7167",
    "country": "Zambia",
    "iso2": "ZM",
    "iso3": "ZMB",
    "admin_name": "Luapula",
    "capital": "",
    "population": "150000",
    "id": "1894795016"
  },
  {
    "city": "Chingola",
    "city_ascii": "Chingola",
    "lat": "-12.5333",
    "lng": "27.8500",
    "country": "Zambia",
    "iso2": "ZM",
    "iso3": "ZMB",
    "admin_name": "Copperbelt",
    "capital": "",
    "population": "147448",
    "id": "1894202007"
  },
  {
    "city": "Nchelenge",
    "city_ascii": "Nchelenge",
    "lat": "-9.3533",
    "lng": "28.7403",
    "country": "Zambia",
    "iso2": "ZM",
    "iso3": "ZMB",
    "admin_name": "Luapula",
    "capital": "",
    "population": "147927",
    "id": "1894890604"
  },
  {
    "city": "Livingstone",
    "city_ascii": "Livingstone",
    "lat": "-17.8500",
    "lng": "25.8667",
    "country": "Zambia",
    "iso2": "ZM",
    "iso3": "ZMB",
    "admin_name": "Southern",
    "capital": "",
    "population": "136897",
    "id": "1894634581"
  },
  {
    "city": "Mansa",
    "city_ascii": "Mansa",
    "lat": "-11.2000",
    "lng": "28.8833",
    "country": "Zambia",
    "iso2": "ZM",
    "iso3": "ZMB",
    "admin_name": "Luapula",
    "capital": "admin",
    "population": "129185",
    "id": "1894038366"
  },
  {
    "city": "Mufulira",
    "city_ascii": "Mufulira",
    "lat": "-12.5356",
    "lng": "28.2419",
    "country": "Zambia",
    "iso2": "ZM",
    "iso3": "ZMB",
    "admin_name": "Copperbelt",
    "capital": "",
    "population": "122336",
    "id": "1894907880"
  },
  {
    "city": "Bwana Mkubwa",
    "city_ascii": "Bwana Mkubwa",
    "lat": "-12.9833",
    "lng": "28.7000",
    "country": "Zambia",
    "iso2": "ZM",
    "iso3": "ZMB",
    "admin_name": "Copperbelt",
    "capital": "",
    "population": "118464",
    "id": "1894858787"
  },
  {
    "city": "Kabwe",
    "city_ascii": "Kabwe",
    "lat": "-14.4333",
    "lng": "28.4500",
    "country": "Zambia",
    "iso2": "ZM",
    "iso3": "ZMB",
    "admin_name": "Central",
    "capital": "admin",
    "population": "117517",
    "id": "1894711746"
  },
  {
    "city": "Luanshya",
    "city_ascii": "Luanshya",
    "lat": "-13.1333",
    "lng": "28.4000",
    "country": "Zambia",
    "iso2": "ZM",
    "iso3": "ZMB",
    "admin_name": "Copperbelt",
    "capital": "",
    "population": "117579",
    "id": "1894410334"
  },
  {
    "city": "Mporokoso",
    "city_ascii": "Mporokoso",
    "lat": "-9.3833",
    "lng": "30.1000",
    "country": "Zambia",
    "iso2": "ZM",
    "iso3": "ZMB",
    "admin_name": "Northern",
    "capital": "",
    "population": "100993",
    "id": "1894882927"
  },
  {
    "city": "Chipata",
    "city_ascii": "Chipata",
    "lat": "-13.6453",
    "lng": "32.6464",
    "country": "Zambia",
    "iso2": "ZM",
    "iso3": "ZMB",
    "admin_name": "Eastern",
    "capital": "admin",
    "population": "98416",
    "id": "1894816262"
  },
  {
    "city": "Solwezi",
    "city_ascii": "Solwezi",
    "lat": "-12.1433",
    "lng": "26.3858",
    "country": "Zambia",
    "iso2": "ZM",
    "iso3": "ZMB",
    "admin_name": "North-Western",
    "capital": "admin",
    "population": "90856",
    "id": "1894777820"
  },
  {
    "city": "Choma",
    "city_ascii": "Choma",
    "lat": "-16.7711",
    "lng": "26.9922",
    "country": "Zambia",
    "iso2": "ZM",
    "iso3": "ZMB",
    "admin_name": "Southern",
    "capital": "admin",
    "population": "51842",
    "id": "1894419971"
  },
  {
    "city": "Chinsali",
    "city_ascii": "Chinsali",
    "lat": "-10.5522",
    "lng": "32.0692",
    "country": "Zambia",
    "iso2": "ZM",
    "iso3": "ZMB",
    "admin_name": "Muchinga",
    "capital": "admin",
    "population": "15198",
    "id": "1894041491"
  },
  {
    "city": "Chililabombwe",
    "city_ascii": "Chililabombwe",
    "lat": "-12.3667",
    "lng": "27.8278",
    "country": "Zambia",
    "iso2": "ZM",
    "iso3": "ZMB",
    "admin_name": "Copperbelt",
    "capital": "",
    "population": "90530",
    "id": "1894950283"
  },
  {
    "city": "Chirundu",
    "city_ascii": "Chirundu",
    "lat": "-16.0500",
    "lng": "28.8333",
    "country": "Zambia",
    "iso2": "ZM",
    "iso3": "ZMB",
    "admin_name": "Southern",
    "capital": "",
    "population": "84750",
    "id": "1894856417"
  },
  {
    "city": "Kapiri Mposhi",
    "city_ascii": "Kapiri Mposhi",
    "lat": "-13.9772",
    "lng": "28.6847",
    "country": "Zambia",
    "iso2": "ZM",
    "iso3": "ZMB",
    "admin_name": "Central",
    "capital": "",
    "population": "37942",
    "id": "1894676779"
  },
  {
    "city": "Mpika",
    "city_ascii": "Mpika",
    "lat": "-11.8300",
    "lng": "31.4600",
    "country": "Zambia",
    "iso2": "ZM",
    "iso3": "ZMB",
    "admin_name": "Muchinga",
    "capital": "",
    "population": "28445",
    "id": "1894224372"
  },
  {
    "city": "Mbala",
    "city_ascii": "Mbala",
    "lat": "-8.8333",
    "lng": "31.3833",
    "country": "Zambia",
    "iso2": "ZM",
    "iso3": "ZMB",
    "admin_name": "Northern",
    "capital": "",
    "population": "20570",
    "id": "1894671312"
  },
  {
    "city": "Kawambwa",
    "city_ascii": "Kawambwa",
    "lat": "-9.7914",
    "lng": "29.0789",
    "country": "Zambia",
    "iso2": "ZM",
    "iso3": "ZMB",
    "admin_name": "Luapula",
    "capital": "",
    "population": "20589",
    "id": "1894964184"
  },
  {
    "city": "Sesheke",
    "city_ascii": "Sesheke",
    "lat": "-17.4667",
    "lng": "24.3000",
    "country": "Zambia",
    "iso2": "ZM",
    "iso3": "ZMB",
    "admin_name": "Western",
    "capital": "",
    "population": "20149",
    "id": "1894753767"
  },
  {
    "city": "Mumbwa",
    "city_ascii": "Mumbwa",
    "lat": "-14.9853",
    "lng": "27.0619",
    "country": "Zambia",
    "iso2": "ZM",
    "iso3": "ZMB",
    "admin_name": "Central",
    "capital": "",
    "population": "19086",
    "id": "1894568812"
  },
  {
    "city": "Mwinilunga",
    "city_ascii": "Mwinilunga",
    "lat": "-11.7172",
    "lng": "24.4289",
    "country": "Zambia",
    "iso2": "ZM",
    "iso3": "ZMB",
    "admin_name": "North-Western",
    "capital": "",
    "population": "15704",
    "id": "1894210586"
  },
  {
    "city": "Chifubu",
    "city_ascii": "Chifubu",
    "lat": "-12.9333",
    "lng": "28.6167",
    "country": "Zambia",
    "iso2": "ZM",
    "iso3": "ZMB",
    "admin_name": "Copperbelt",
    "capital": "",
    "population": "13307",
    "id": "1894511606"
  },
  {
    "city": "Kaoma",
    "city_ascii": "Kaoma",
    "lat": "-14.8000",
    "lng": "24.8000",
    "country": "Zambia",
    "iso2": "ZM",
    "iso3": "ZMB",
    "admin_name": "Western",
    "capital": "",
    "population": "14212",
    "id": "1894846267"
  },
  {
    "city": "Chilonga",
    "city_ascii": "Chilonga",
    "lat": "-12.0244",
    "lng": "31.3364",
    "country": "Zambia",
    "iso2": "ZM",
    "iso3": "ZMB",
    "admin_name": "Muchinga",
    "capital": "",
    "population": "11816",
    "id": "1894544626"
  },
  {
    "city": "Lundazi",
    "city_ascii": "Lundazi",
    "lat": "-12.3000",
    "lng": "33.1833",
    "country": "Zambia",
    "iso2": "ZM",
    "iso3": "ZMB",
    "admin_name": "Eastern",
    "capital": "",
    "population": "11635",
    "id": "1894277247"
  },
  {
    "city": "Kasempa",
    "city_ascii": "Kasempa",
    "lat": "-13.4550",
    "lng": "25.8350",
    "country": "Zambia",
    "iso2": "ZM",
    "iso3": "ZMB",
    "admin_name": "North-Western",
    "capital": "",
    "population": "11700",
    "id": "1894152710"
  },
  {
    "city": "Nakonde",
    "city_ascii": "Nakonde",
    "lat": "-9.3272",
    "lng": "32.7583",
    "country": "Zambia",
    "iso2": "ZM",
    "iso3": "ZMB",
    "admin_name": "Muchinga",
    "capital": "",
    "population": "10652",
    "id": "1894139781"
  },
  {
    "city": "Senanga",
    "city_ascii": "Senanga",
    "lat": "-16.1167",
    "lng": "23.2667",
    "country": "Zambia",
    "iso2": "ZM",
    "iso3": "ZMB",
    "admin_name": "Western",
    "capital": "",
    "population": "10005",
    "id": "1894742251"
  },
  {
    "city": "Kalabo",
    "city_ascii": "Kalabo",
    "lat": "-14.9911",
    "lng": "22.6789",
    "country": "Zambia",
    "iso2": "ZM",
    "iso3": "ZMB",
    "admin_name": "Western",
    "capital": "",
    "population": "7731",
    "id": "1894966417"
  },
  {
    "city": "Zambezi",
    "city_ascii": "Zambezi",
    "lat": "-13.5500",
    "lng": "23.1167",
    "country": "Zambia",
    "iso2": "ZM",
    "iso3": "ZMB",
    "admin_name": "North-Western",
    "capital": "",
    "population": "7074",
    "id": "1894660797"
  },
  {
    "city": "Lukulu",
    "city_ascii": "Lukulu",
    "lat": "-14.4083",
    "lng": "23.2667",
    "country": "Zambia",
    "iso2": "ZM",
    "iso3": "ZMB",
    "admin_name": "Western",
    "capital": "",
    "population": "3349",
    "id": "1894281443"
  },
  {
    "city": "Nyimba",
    "city_ascii": "Nyimba",
    "lat": "-14.5495",
    "lng": "30.8100",
    "country": "Zambia",
    "iso2": "ZM",
    "iso3": "ZMB",
    "admin_name": "Eastern",
    "capital": "",
    "population": "1336",
    "id": "1894088472"
  }
]