[
  {
    "city": "Djibouti",
    "city_ascii": "Djibouti",
    "lat": "11.5883",
    "lng": "43.1450",
    "country": "Djibouti",
    "iso2": "DJ",
    "iso3": "DJI",
    "admin_name": "Djibouti",
    "capital": "primary",
    "population": "603900",
    "id": "1262028958"
  },
  {
    "city": "Arta",
    "city_ascii": "Arta",
    "lat": "11.5236",
    "lng": "42.8472",
    "country": "Djibouti",
    "iso2": "DJ",
    "iso3": "DJI",
    "admin_name": "Arta",
    "capital": "admin",
    "population": "75654",
    "id": "1262889858"
  },
  {
    "city": "Ali Sabieh",
    "city_ascii": "Ali Sabieh",
    "lat": "11.1500",
    "lng": "42.7167",
    "country": "Djibouti",
    "iso2": "DJ",
    "iso3": "DJI",
    "admin_name": "Ali Sabieh",
    "capital": "admin",
    "population": "37939",
    "id": "1262104228"
  },
  {
    "city": "Dikhil",
    "city_ascii": "Dikhil",
    "lat": "11.1167",
    "lng": "42.3667",
    "country": "Djibouti",
    "iso2": "DJ",
    "iso3": "DJI",
    "admin_name": "Dikhil",
    "capital": "admin",
    "population": "35000",
    "id": "1262950337"
  },
  {
    "city": "Obock",
    "city_ascii": "Obock",
    "lat": "11.9667",
    "lng": "43.2833",
    "country": "Djibouti",
    "iso2": "DJ",
    "iso3": "DJI",
    "admin_name": "Obock",
    "capital": "admin",
    "population": "21200",
    "id": "1262002221"
  },
  {
    "city": "Tadjourah",
    "city_ascii": "Tadjourah",
    "lat": "11.7833",
    "lng": "42.8833",
    "country": "Djibouti",
    "iso2": "DJ",
    "iso3": "DJI",
    "admin_name": "Tadjourah",
    "capital": "admin",
    "population": "14820",
    "id": "1262504958"
  },
  {
    "city": "Yoboki",
    "city_ascii": "Yoboki",
    "lat": "11.5167",
    "lng": "42.1000",
    "country": "Djibouti",
    "iso2": "DJ",
    "iso3": "DJI",
    "admin_name": "Dikhil",
    "capital": "",
    "population": "18000",
    "id": "1262096912"
  }
]