[
  {
    "city": "Kampala",
    "city_ascii": "Kampala",
    "lat": "0.3136",
    "lng": "32.5811",
    "country": "Uganda",
    "iso2": "UG",
    "iso3": "UGA",
    "admin_name": "Kampala",
    "capital": "primary",
    "population": "1680600",
    "id": "1800406299"
  },
  {
    "city": "Mbale",
    "city_ascii": "Mbale",
    "lat": "1.0806",
    "lng": "34.1750",
    "country": "Uganda",
    "iso2": "UG",
    "iso3": "UGA",
    "admin_name": "Mbale",
    "capital": "admin",
    "population": "586300",
    "id": "1800265900"
  },
  {
    "city": "Nansana",
    "city_ascii": "Nansana",
    "lat": "0.3639",
    "lng": "32.5286",
    "country": "Uganda",
    "iso2": "UG",
    "iso3": "UGA",
    "admin_name": "Wakiso",
    "capital": "",
    "population": "532800",
    "id": "1800032516"
  },
  {
    "city": "Arua",
    "city_ascii": "Arua",
    "lat": "3.0353",
    "lng": "30.9108",
    "country": "Uganda",
    "iso2": "UG",
    "iso3": "UGA",
    "admin_name": "Arua",
    "capital": "admin",
    "population": "250000",
    "id": "1800812511"
  },
  {
    "city": "Kasangati",
    "city_ascii": "Kasangati",
    "lat": "0.4378",
    "lng": "32.6025",
    "country": "Uganda",
    "iso2": "UG",
    "iso3": "UGA",
    "admin_name": "Wakiso",
    "capital": "",
    "population": "207800",
    "id": "1800208674"
  },
  {
    "city": "Mbarara",
    "city_ascii": "Mbarara",
    "lat": "-0.6133",
    "lng": "30.6583",
    "country": "Uganda",
    "iso2": "UG",
    "iso3": "UGA",
    "admin_name": "Mbarara",
    "capital": "admin",
    "population": "195013",
    "id": "1800554483"
  },
  {
    "city": "Njeru",
    "city_ascii": "Njeru",
    "lat": "0.4311",
    "lng": "33.1478",
    "country": "Uganda",
    "iso2": "UG",
    "iso3": "UGA",
    "admin_name": "Buikwe",
    "capital": "",
    "population": "178800",
    "id": "1800578691"
  },
  {
    "city": "Mukono",
    "city_ascii": "Mukono",
    "lat": "0.3533",
    "lng": "32.7553",
    "country": "Uganda",
    "iso2": "UG",
    "iso3": "UGA",
    "admin_name": "Mukono",
    "capital": "admin",
    "population": "161996",
    "id": "1800864322"
  },
  {
    "city": "Gulu",
    "city_ascii": "Gulu",
    "lat": "2.7817",
    "lng": "32.2992",
    "country": "Uganda",
    "iso2": "UG",
    "iso3": "UGA",
    "admin_name": "Gulu",
    "capital": "admin",
    "population": "152276",
    "id": "1800406007"
  },
  {
    "city": "Tororo",
    "city_ascii": "Tororo",
    "lat": "0.6928",
    "lng": "34.1811",
    "country": "Uganda",
    "iso2": "UG",
    "iso3": "UGA",
    "admin_name": "Tororo",
    "capital": "admin",
    "population": "150000",
    "id": "1800214991"
  },
  {
    "city": "Lira",
    "city_ascii": "Lira",
    "lat": "2.2472",
    "lng": "32.9000",
    "country": "Uganda",
    "iso2": "UG",
    "iso3": "UGA",
    "admin_name": "Lira",
    "capital": "admin",
    "population": "135445",
    "id": "1800877735"
  },
  {
    "city": "Hoima",
    "city_ascii": "Hoima",
    "lat": "1.4319",
    "lng": "31.3525",
    "country": "Uganda",
    "iso2": "UG",
    "iso3": "UGA",
    "admin_name": "Hoima",
    "capital": "admin",
    "population": "122700",
    "id": "1800806239"
  },
  {
    "city": "Kasese",
    "city_ascii": "Kasese",
    "lat": "0.1867",
    "lng": "30.0881",
    "country": "Uganda",
    "iso2": "UG",
    "iso3": "UGA",
    "admin_name": "Kasese",
    "capital": "admin",
    "population": "115400",
    "id": "1800924936"
  },
  {
    "city": "Lugazi",
    "city_ascii": "Lugazi",
    "lat": "0.3833",
    "lng": "32.9242",
    "country": "Uganda",
    "iso2": "UG",
    "iso3": "UGA",
    "admin_name": "Buikwe",
    "capital": "",
    "population": "114163",
    "id": "1800606876"
  },
  {
    "city": "Masindi",
    "city_ascii": "Masindi",
    "lat": "1.6836",
    "lng": "31.7222",
    "country": "Uganda",
    "iso2": "UG",
    "iso3": "UGA",
    "admin_name": "Masindi",
    "capital": "admin",
    "population": "110500",
    "id": "1800409287"
  },
  {
    "city": "Mityana",
    "city_ascii": "Mityana",
    "lat": "0.4006",
    "lng": "32.0422",
    "country": "Uganda",
    "iso2": "UG",
    "iso3": "UGA",
    "admin_name": "Mityana",
    "capital": "admin",
    "population": "105200",
    "id": "1800284151"
  },
  {
    "city": "Masaka",
    "city_ascii": "Masaka",
    "lat": "-0.3411",
    "lng": "31.7361",
    "country": "Uganda",
    "iso2": "UG",
    "iso3": "UGA",
    "admin_name": "Masaka",
    "capital": "admin",
    "population": "103829",
    "id": "1800731885"
  },
  {
    "city": "Mubende",
    "city_ascii": "Mubende",
    "lat": "0.5575",
    "lng": "31.3950",
    "country": "Uganda",
    "iso2": "UG",
    "iso3": "UGA",
    "admin_name": "Mubende",
    "capital": "admin",
    "population": "103473",
    "id": "1800105368"
  },
  {
    "city": "Wakiso",
    "city_ascii": "Wakiso",
    "lat": "0.3981",
    "lng": "32.4781",
    "country": "Uganda",
    "iso2": "UG",
    "iso3": "UGA",
    "admin_name": "Wakiso",
    "capital": "admin",
    "population": "87900",
    "id": "1800102352"
  },
  {
    "city": "Jinja",
    "city_ascii": "Jinja",
    "lat": "0.4233",
    "lng": "33.2039",
    "country": "Uganda",
    "iso2": "UG",
    "iso3": "UGA",
    "admin_name": "Jinja",
    "capital": "admin",
    "population": "72931",
    "id": "1800632405"
  },
  {
    "city": "Busia",
    "city_ascii": "Busia",
    "lat": "0.4669",
    "lng": "34.0900",
    "country": "Uganda",
    "iso2": "UG",
    "iso3": "UGA",
    "admin_name": "Busia",
    "capital": "admin",
    "population": "64900",
    "id": "1800460306"
  },
  {
    "city": "Kamuli",
    "city_ascii": "Kamuli",
    "lat": "0.9450",
    "lng": "33.1250",
    "country": "Uganda",
    "iso2": "UG",
    "iso3": "UGA",
    "admin_name": "Kamuli",
    "capital": "admin",
    "population": "67800",
    "id": "1800849421"
  },
  {
    "city": "Kireka",
    "city_ascii": "Kireka",
    "lat": "0.3467",
    "lng": "32.5000",
    "country": "Uganda",
    "iso2": "UG",
    "iso3": "UGA",
    "admin_name": "Wakiso",
    "capital": "",
    "population": "69000",
    "id": "1800730465"
  },
  {
    "city": "Apac",
    "city_ascii": "Apac",
    "lat": "1.9850",
    "lng": "32.5350",
    "country": "Uganda",
    "iso2": "UG",
    "iso3": "UGA",
    "admin_name": "Apac",
    "capital": "admin",
    "population": "67700",
    "id": "1800174030"
  },
  {
    "city": "Soroti",
    "city_ascii": "Soroti",
    "lat": "1.7150",
    "lng": "33.6111",
    "country": "Uganda",
    "iso2": "UG",
    "iso3": "UGA",
    "admin_name": "Soroti",
    "capital": "admin",
    "population": "60900",
    "id": "1800434608"
  },
  {
    "city": "Iganga",
    "city_ascii": "Iganga",
    "lat": "0.6150",
    "lng": "33.4850",
    "country": "Uganda",
    "iso2": "UG",
    "iso3": "UGA",
    "admin_name": "Iganga",
    "capital": "admin",
    "population": "53870",
    "id": "1800987671"
  },
  {
    "city": "Fort Portal",
    "city_ascii": "Fort Portal",
    "lat": "0.6544",
    "lng": "30.2744",
    "country": "Uganda",
    "iso2": "UG",
    "iso3": "UGA",
    "admin_name": "Kabarole",
    "capital": "admin",
    "population": "60800",
    "id": "1800139086"
  },
  {
    "city": "Kitgum",
    "city_ascii": "Kitgum",
    "lat": "3.2889",
    "lng": "32.8778",
    "country": "Uganda",
    "iso2": "UG",
    "iso3": "UGA",
    "admin_name": "Kitgum",
    "capital": "admin",
    "population": "56891",
    "id": "1800380883"
  },
  {
    "city": "Kyaliwajjala",
    "city_ascii": "Kyaliwajjala",
    "lat": "0.3800",
    "lng": "32.6467",
    "country": "Uganda",
    "iso2": "UG",
    "iso3": "UGA",
    "admin_name": "Wakiso",
    "capital": "",
    "population": "50000",
    "id": "1800975843"
  },
  {
    "city": "Kabale",
    "city_ascii": "Kabale",
    "lat": "-1.2500",
    "lng": "29.9900",
    "country": "Uganda",
    "iso2": "UG",
    "iso3": "UGA",
    "admin_name": "Kabale",
    "capital": "admin",
    "population": "53200",
    "id": "1800408751"
  },
  {
    "city": "Luwero",
    "city_ascii": "Luwero",
    "lat": "0.8331",
    "lng": "32.4994",
    "country": "Uganda",
    "iso2": "UG",
    "iso3": "UGA",
    "admin_name": "Luwero",
    "capital": "admin",
    "population": "49100",
    "id": "1800067821"
  },
  {
    "city": "Yumbe",
    "city_ascii": "Yumbe",
    "lat": "3.4650",
    "lng": "31.2450",
    "country": "Uganda",
    "iso2": "UG",
    "iso3": "UGA",
    "admin_name": "Yumbe",
    "capital": "admin",
    "population": "47600",
    "id": "1800297508"
  },
  {
    "city": "Mpigi",
    "city_ascii": "Mpigi",
    "lat": "0.2300",
    "lng": "32.3300",
    "country": "Uganda",
    "iso2": "UG",
    "iso3": "UGA",
    "admin_name": "Mpigi",
    "capital": "admin",
    "population": "49500",
    "id": "1800370948"
  },
  {
    "city": "Bushenyi",
    "city_ascii": "Bushenyi",
    "lat": "-0.5417",
    "lng": "30.1878",
    "country": "Uganda",
    "iso2": "UG",
    "iso3": "UGA",
    "admin_name": "Buhweju",
    "capital": "admin",
    "population": "43700",
    "id": "1800740334"
  },
  {
    "city": "Koboko",
    "city_ascii": "Koboko",
    "lat": "3.4100",
    "lng": "30.9600",
    "country": "Uganda",
    "iso2": "UG",
    "iso3": "UGA",
    "admin_name": "Koboko",
    "capital": "admin",
    "population": "37825",
    "id": "1800307801"
  },
  {
    "city": "Pallisa",
    "city_ascii": "Pallisa",
    "lat": "1.1675",
    "lng": "33.7100",
    "country": "Uganda",
    "iso2": "UG",
    "iso3": "UGA",
    "admin_name": "Pallisa",
    "capital": "admin",
    "population": "42300",
    "id": "1800214906"
  },
  {
    "city": "Nebbi",
    "city_ascii": "Nebbi",
    "lat": "2.4792",
    "lng": "31.0900",
    "country": "Uganda",
    "iso2": "UG",
    "iso3": "UGA",
    "admin_name": "Nebbi",
    "capital": "admin",
    "population": "41400",
    "id": "1800598019"
  },
  {
    "city": "Bugiri",
    "city_ascii": "Bugiri",
    "lat": "0.5694",
    "lng": "33.7486",
    "country": "Uganda",
    "iso2": "UG",
    "iso3": "UGA",
    "admin_name": "Bugiri",
    "capital": "admin",
    "population": "36000",
    "id": "1800917331"
  },
  {
    "city": "Bugembe",
    "city_ascii": "Bugembe",
    "lat": "0.4675",
    "lng": "33.2414",
    "country": "Uganda",
    "iso2": "UG",
    "iso3": "UGA",
    "admin_name": "Jinja",
    "capital": "",
    "population": "33100",
    "id": "1800191347"
  },
  {
    "city": "Adjumani",
    "city_ascii": "Adjumani",
    "lat": "3.3772",
    "lng": "31.7906",
    "country": "Uganda",
    "iso2": "UG",
    "iso3": "UGA",
    "admin_name": "Adjumani",
    "capital": "admin",
    "population": "37100",
    "id": "1800855823"
  },
  {
    "city": "Rukungiri",
    "city_ascii": "Rukungiri",
    "lat": "-0.7900",
    "lng": "29.9250",
    "country": "Uganda",
    "iso2": "UG",
    "iso3": "UGA",
    "admin_name": "Rukungiri",
    "capital": "admin",
    "population": "37200",
    "id": "1800982268"
  },
  {
    "city": "Paidha",
    "city_ascii": "Paidha",
    "lat": "2.4167",
    "lng": "30.9875",
    "country": "Uganda",
    "iso2": "UG",
    "iso3": "UGA",
    "admin_name": "Zombo",
    "capital": "",
    "population": "33426",
    "id": "1800599761"
  },
  {
    "city": "Isingiro",
    "city_ascii": "Isingiro",
    "lat": "-0.7950",
    "lng": "30.8153",
    "country": "Uganda",
    "iso2": "UG",
    "iso3": "UGA",
    "admin_name": "Isingiro",
    "capital": "admin",
    "population": "34300",
    "id": "1800843586"
  },
  {
    "city": "Kiryandongo",
    "city_ascii": "Kiryandongo",
    "lat": "1.9525",
    "lng": "32.1389",
    "country": "Uganda",
    "iso2": "UG",
    "iso3": "UGA",
    "admin_name": "Kiryandongo",
    "capital": "admin",
    "population": "31610",
    "id": "1800154303"
  },
  {
    "city": "Ibanda",
    "city_ascii": "Ibanda",
    "lat": "-0.1347",
    "lng": "30.4950",
    "country": "Uganda",
    "iso2": "UG",
    "iso3": "UGA",
    "admin_name": "Ibanda",
    "capital": "admin",
    "population": "31316",
    "id": "1800636734"
  },
  {
    "city": "Kayunga",
    "city_ascii": "Kayunga",
    "lat": "0.7033",
    "lng": "32.9036",
    "country": "Uganda",
    "iso2": "UG",
    "iso3": "UGA",
    "admin_name": "Kayunga",
    "capital": "admin",
    "population": "30000",
    "id": "1800678001"
  },
  {
    "city": "Pakwach",
    "city_ascii": "Pakwach",
    "lat": "2.4619",
    "lng": "31.4983",
    "country": "Uganda",
    "iso2": "UG",
    "iso3": "UGA",
    "admin_name": "Pakwach",
    "capital": "admin",
    "population": "28700",
    "id": "1800204374"
  },
  {
    "city": "Kyegegwa",
    "city_ascii": "Kyegegwa",
    "lat": "0.4803",
    "lng": "31.0547",
    "country": "Uganda",
    "iso2": "UG",
    "iso3": "UGA",
    "admin_name": "Kyegegwa",
    "capital": "admin",
    "population": "29400",
    "id": "1800719333"
  },
  {
    "city": "Buwenge",
    "city_ascii": "Buwenge",
    "lat": "0.6503",
    "lng": "33.1703",
    "country": "Uganda",
    "iso2": "UG",
    "iso3": "UGA",
    "admin_name": "Jinja",
    "capital": "",
    "population": "24200",
    "id": "1800722293"
  },
  {
    "city": "Kibuku",
    "city_ascii": "Kibuku",
    "lat": "1.0375",
    "lng": "33.8400",
    "country": "Uganda",
    "iso2": "UG",
    "iso3": "UGA",
    "admin_name": "Kibuku",
    "capital": "admin",
    "population": "25000",
    "id": "1800098358"
  },
  {
    "city": "Abim",
    "city_ascii": "Abim",
    "lat": "2.7019",
    "lng": "33.6600",
    "country": "Uganda",
    "iso2": "UG",
    "iso3": "UGA",
    "admin_name": "Abim",
    "capital": "admin",
    "population": "24400",
    "id": "1800199589"
  },
  {
    "city": "Bundibugyo",
    "city_ascii": "Bundibugyo",
    "lat": "0.7125",
    "lng": "30.0600",
    "country": "Uganda",
    "iso2": "UG",
    "iso3": "UGA",
    "admin_name": "Bundibugyo",
    "capital": "admin",
    "population": "22300",
    "id": "1800500326"
  },
  {
    "city": "Butaleja",
    "city_ascii": "Butaleja",
    "lat": "0.9250",
    "lng": "33.9450",
    "country": "Uganda",
    "iso2": "UG",
    "iso3": "UGA",
    "admin_name": "Butaleja",
    "capital": "admin",
    "population": "24000",
    "id": "1800859767"
  },
  {
    "city": "Kyenjojo",
    "city_ascii": "Kyenjojo",
    "lat": "0.6100",
    "lng": "30.6442",
    "country": "Uganda",
    "iso2": "UG",
    "iso3": "UGA",
    "admin_name": "Kyenjojo",
    "capital": "admin",
    "population": "23467",
    "id": "1800420914"
  },
  {
    "city": "Kiboga",
    "city_ascii": "Kiboga",
    "lat": "0.9200",
    "lng": "31.7600",
    "country": "Uganda",
    "iso2": "UG",
    "iso3": "UGA",
    "admin_name": "Kiboga",
    "capital": "admin",
    "population": "22400",
    "id": "1800749650"
  },
  {
    "city": "Kagadi",
    "city_ascii": "Kagadi",
    "lat": "0.9411",
    "lng": "30.8108",
    "country": "Uganda",
    "iso2": "UG",
    "iso3": "UGA",
    "admin_name": "Kagadi",
    "capital": "admin",
    "population": "22813",
    "id": "1800935733"
  },
  {
    "city": "Buyende",
    "city_ascii": "Buyende",
    "lat": "1.1475",
    "lng": "33.1611",
    "country": "Uganda",
    "iso2": "UG",
    "iso3": "UGA",
    "admin_name": "Buyende",
    "capital": "admin",
    "population": "23039",
    "id": "1800567800"
  },
  {
    "city": "Kotido",
    "city_ascii": "Kotido",
    "lat": "3.0061",
    "lng": "34.1125",
    "country": "Uganda",
    "iso2": "UG",
    "iso3": "UGA",
    "admin_name": "Kotido",
    "capital": "admin",
    "population": "22900",
    "id": "1800371285"
  },
  {
    "city": "Moyo",
    "city_ascii": "Moyo",
    "lat": "3.6504",
    "lng": "31.7200",
    "country": "Uganda",
    "iso2": "UG",
    "iso3": "UGA",
    "admin_name": "Moyo",
    "capital": "admin",
    "population": "22434",
    "id": "1800294178"
  },
  {
    "city": "Kimwanyi",
    "city_ascii": "Kimwanyi",
    "lat": "0.4533",
    "lng": "32.6347",
    "country": "Uganda",
    "iso2": "UG",
    "iso3": "UGA",
    "admin_name": "Wakiso",
    "capital": "",
    "population": "15700",
    "id": "1800179354"
  },
  {
    "city": "Dokolo",
    "city_ascii": "Dokolo",
    "lat": "1.9186",
    "lng": "33.1700",
    "country": "Uganda",
    "iso2": "UG",
    "iso3": "UGA",
    "admin_name": "Dokolo",
    "capital": "admin",
    "population": "19810",
    "id": "1800478941"
  },
  {
    "city": "Sironko",
    "city_ascii": "Sironko",
    "lat": "1.2306",
    "lng": "34.2481",
    "country": "Uganda",
    "iso2": "UG",
    "iso3": "UGA",
    "admin_name": "Sironko",
    "capital": "admin",
    "population": "18900",
    "id": "1800419144"
  },
  {
    "city": "Moroto",
    "city_ascii": "Moroto",
    "lat": "2.5300",
    "lng": "34.6700",
    "country": "Uganda",
    "iso2": "UG",
    "iso3": "UGA",
    "admin_name": "Moroto",
    "capital": "admin",
    "population": "16300",
    "id": "1800980026"
  },
  {
    "city": "Kamwenge",
    "city_ascii": "Kamwenge",
    "lat": "0.1861",
    "lng": "30.4539",
    "country": "Uganda",
    "iso2": "UG",
    "iso3": "UGA",
    "admin_name": "Kamwenge",
    "capital": "admin",
    "population": "19240",
    "id": "1800010095"
  },
  {
    "city": "Kisoro",
    "city_ascii": "Kisoro",
    "lat": "-1.2850",
    "lng": "29.6850",
    "country": "Uganda",
    "iso2": "UG",
    "iso3": "UGA",
    "admin_name": "Kisoro",
    "capital": "admin",
    "population": "17561",
    "id": "1800685460"
  },
  {
    "city": "Buikwe",
    "city_ascii": "Buikwe",
    "lat": "0.3442",
    "lng": "33.0300",
    "country": "Uganda",
    "iso2": "UG",
    "iso3": "UGA",
    "admin_name": "Buikwe",
    "capital": "admin",
    "population": "18500",
    "id": "1800745891"
  },
  {
    "city": "Mayuge",
    "city_ascii": "Mayuge",
    "lat": "0.4578",
    "lng": "33.4800",
    "country": "Uganda",
    "iso2": "UG",
    "iso3": "UGA",
    "admin_name": "Mayuge",
    "capital": "admin",
    "population": "17151",
    "id": "1800300606"
  },
  {
    "city": "Lyantonde",
    "city_ascii": "Lyantonde",
    "lat": "-0.4069",
    "lng": "31.1575",
    "country": "Uganda",
    "iso2": "UG",
    "iso3": "UGA",
    "admin_name": "Lyantonde",
    "capital": "admin",
    "population": "16300",
    "id": "1800896564"
  },
  {
    "city": "Ngora",
    "city_ascii": "Ngora",
    "lat": "1.4575",
    "lng": "33.7764",
    "country": "Uganda",
    "iso2": "UG",
    "iso3": "UGA",
    "admin_name": "Ngora",
    "capital": "admin",
    "population": "17700",
    "id": "1800020551"
  },
  {
    "city": "Kaliro",
    "city_ascii": "Kaliro",
    "lat": "0.8944",
    "lng": "33.4994",
    "country": "Uganda",
    "iso2": "UG",
    "iso3": "UGA",
    "admin_name": "Kaliro",
    "capital": "admin",
    "population": "16796",
    "id": "1800764757"
  },
  {
    "city": "Manafwa",
    "city_ascii": "Manafwa",
    "lat": "0.9564",
    "lng": "34.2844",
    "country": "Uganda",
    "iso2": "UG",
    "iso3": "UGA",
    "admin_name": "Manafwa",
    "capital": "admin",
    "population": "16000",
    "id": "1800257696"
  },
  {
    "city": "Busembatia",
    "city_ascii": "Busembatia",
    "lat": "0.7750",
    "lng": "33.6250",
    "country": "Uganda",
    "iso2": "UG",
    "iso3": "UGA",
    "admin_name": "Bugweri",
    "capital": "",
    "population": "14431",
    "id": "1800802251"
  },
  {
    "city": "Ntungamo",
    "city_ascii": "Ntungamo",
    "lat": "-0.8819",
    "lng": "30.2653",
    "country": "Uganda",
    "iso2": "UG",
    "iso3": "UGA",
    "admin_name": "Ntungamo",
    "capital": "admin",
    "population": "16400",
    "id": "1800042819"
  },
  {
    "city": "Lwengo",
    "city_ascii": "Lwengo",
    "lat": "-0.3911",
    "lng": "31.4606",
    "country": "Uganda",
    "iso2": "UG",
    "iso3": "UGA",
    "admin_name": "Lwengo",
    "capital": "admin",
    "population": "15527",
    "id": "1800583650"
  },
  {
    "city": "Gombe",
    "city_ascii": "Gombe",
    "lat": "0.1811",
    "lng": "32.1142",
    "country": "Uganda",
    "iso2": "UG",
    "iso3": "UGA",
    "admin_name": "Butambala",
    "capital": "admin",
    "population": "15196",
    "id": "1800068643"
  },
  {
    "city": "Kapchorwa",
    "city_ascii": "Kapchorwa",
    "lat": "1.4000",
    "lng": "34.4500",
    "country": "Uganda",
    "iso2": "UG",
    "iso3": "UGA",
    "admin_name": "Kapchorwa",
    "capital": "admin",
    "population": "12900",
    "id": "1800170407"
  },
  {
    "city": "Kanungu",
    "city_ascii": "Kanungu",
    "lat": "-0.8969",
    "lng": "29.7756",
    "country": "Uganda",
    "iso2": "UG",
    "iso3": "UGA",
    "admin_name": "Kanungu",
    "capital": "admin",
    "population": "15056",
    "id": "1800715667"
  },
  {
    "city": "Zombo",
    "city_ascii": "Zombo",
    "lat": "2.5131",
    "lng": "30.9081",
    "country": "Uganda",
    "iso2": "UG",
    "iso3": "UGA",
    "admin_name": "Zombo",
    "capital": "admin",
    "population": "15000",
    "id": "1800293674"
  },
  {
    "city": "Oyam",
    "city_ascii": "Oyam",
    "lat": "2.2350",
    "lng": "32.3850",
    "country": "Uganda",
    "iso2": "UG",
    "iso3": "UGA",
    "admin_name": "Oyam",
    "capital": "admin",
    "population": "14500",
    "id": "1800867016"
  },
  {
    "city": "Kaabong",
    "city_ascii": "Kaabong",
    "lat": "3.5200",
    "lng": "34.1200",
    "country": "Uganda",
    "iso2": "UG",
    "iso3": "UGA",
    "admin_name": "Kaabong",
    "capital": "admin",
    "population": "13400",
    "id": "1800299361"
  },
  {
    "city": "Bukedea",
    "city_ascii": "Bukedea",
    "lat": "1.3475",
    "lng": "34.0444",
    "country": "Uganda",
    "iso2": "UG",
    "iso3": "UGA",
    "admin_name": "Bukedea",
    "capital": "admin",
    "population": "13900",
    "id": "1800687979"
  },
  {
    "city": "Kibiito",
    "city_ascii": "Kibiito",
    "lat": "0.4775",
    "lng": "30.1925",
    "country": "Uganda",
    "iso2": "UG",
    "iso3": "UGA",
    "admin_name": "Bunyangabu",
    "capital": "admin",
    "population": "12984",
    "id": "1800035606"
  },
  {
    "city": "Kumi",
    "city_ascii": "Kumi",
    "lat": "1.4608",
    "lng": "33.9361",
    "country": "Uganda",
    "iso2": "UG",
    "iso3": "UGA",
    "admin_name": "Kumi",
    "capital": "admin",
    "population": "13000",
    "id": "1800429770"
  },
  {
    "city": "Amolatar",
    "city_ascii": "Amolatar",
    "lat": "1.6350",
    "lng": "32.8250",
    "country": "Uganda",
    "iso2": "UG",
    "iso3": "UGA",
    "admin_name": "Amolatar",
    "capital": "admin",
    "population": "12900",
    "id": "1800458737"
  },
  {
    "city": "Serere",
    "city_ascii": "Serere",
    "lat": "1.5000",
    "lng": "33.5500",
    "country": "Uganda",
    "iso2": "UG",
    "iso3": "UGA",
    "admin_name": "Serere",
    "capital": "admin",
    "population": "12700",
    "id": "1800171092"
  },
  {
    "city": "Kanoni",
    "city_ascii": "Kanoni",
    "lat": "0.1728",
    "lng": "31.9058",
    "country": "Uganda",
    "iso2": "UG",
    "iso3": "UGA",
    "admin_name": "Gomba",
    "capital": "admin",
    "population": "12439",
    "id": "1800973979"
  },
  {
    "city": "Nakasongola",
    "city_ascii": "Nakasongola",
    "lat": "1.3150",
    "lng": "32.4650",
    "country": "Uganda",
    "iso2": "UG",
    "iso3": "UGA",
    "admin_name": "Nakasongola",
    "capital": "admin",
    "population": "11700",
    "id": "1800270160"
  },
  {
    "city": "Amuru",
    "city_ascii": "Amuru",
    "lat": "2.8186",
    "lng": "31.8642",
    "country": "Uganda",
    "iso2": "UG",
    "iso3": "UGA",
    "admin_name": "Amuru",
    "capital": "admin",
    "population": "10800",
    "id": "1800642608"
  },
  {
    "city": "Bukomansimbi",
    "city_ascii": "Bukomansimbi",
    "lat": "-0.1667",
    "lng": "31.6186",
    "country": "Uganda",
    "iso2": "UG",
    "iso3": "UGA",
    "admin_name": "Bukomansimbi",
    "capital": "admin",
    "population": "10000",
    "id": "1800146127"
  },
  {
    "city": "Bududa",
    "city_ascii": "Bududa",
    "lat": "1.0100",
    "lng": "34.3317",
    "country": "Uganda",
    "iso2": "UG",
    "iso3": "UGA",
    "admin_name": "Bududa",
    "capital": "admin",
    "population": "8700",
    "id": "1800970850"
  },
  {
    "city": "Katakwi",
    "city_ascii": "Katakwi",
    "lat": "1.9150",
    "lng": "33.9550",
    "country": "Uganda",
    "iso2": "UG",
    "iso3": "UGA",
    "admin_name": "Katakwi",
    "capital": "admin",
    "population": "9100",
    "id": "1800303827"
  },
  {
    "city": "Bulisa",
    "city_ascii": "Bulisa",
    "lat": "2.1217",
    "lng": "31.4156",
    "country": "Uganda",
    "iso2": "UG",
    "iso3": "UGA",
    "admin_name": "Buliisa",
    "capital": "admin",
    "population": "9500",
    "id": "1800842426"
  },
  {
    "city": "Amuria",
    "city_ascii": "Amuria",
    "lat": "2.0300",
    "lng": "33.6431",
    "country": "Uganda",
    "iso2": "UG",
    "iso3": "UGA",
    "admin_name": "Amuria",
    "capital": "admin",
    "population": "8900",
    "id": "1800838006"
  },
  {
    "city": "Rakai",
    "city_ascii": "Rakai",
    "lat": "-0.7100",
    "lng": "31.4050",
    "country": "Uganda",
    "iso2": "UG",
    "iso3": "UGA",
    "admin_name": "Rakai",
    "capital": "admin",
    "population": "8500",
    "id": "1800039440"
  },
  {
    "city": "Rubirizi",
    "city_ascii": "Rubirizi",
    "lat": "-0.2661",
    "lng": "30.1069",
    "country": "Uganda",
    "iso2": "UG",
    "iso3": "UGA",
    "admin_name": "Rubirizi",
    "capital": "admin",
    "population": "8204",
    "id": "1800947890"
  },
  {
    "city": "Alebtong",
    "city_ascii": "Alebtong",
    "lat": "2.2500",
    "lng": "33.3150",
    "country": "Uganda",
    "iso2": "UG",
    "iso3": "UGA",
    "admin_name": "Alebtong",
    "capital": "admin",
    "population": "7900",
    "id": "1800244501"
  },
  {
    "city": "Sembabule",
    "city_ascii": "Sembabule",
    "lat": "-0.0800",
    "lng": "31.4600",
    "country": "Uganda",
    "iso2": "UG",
    "iso3": "UGA",
    "admin_name": "Sembabule",
    "capital": "admin",
    "population": "7800",
    "id": "1800497536"
  },
  {
    "city": "Kiruhura",
    "city_ascii": "Kiruhura",
    "lat": "-0.2100",
    "lng": "30.8300",
    "country": "Uganda",
    "iso2": "UG",
    "iso3": "UGA",
    "admin_name": "Kiruhura",
    "capital": "admin",
    "population": "6900",
    "id": "1800198933"
  },
  {
    "city": "Mitoma",
    "city_ascii": "Mitoma",
    "lat": "-0.6150",
    "lng": "30.0450",
    "country": "Uganda",
    "iso2": "UG",
    "iso3": "UGA",
    "admin_name": "Mitooma",
    "capital": "admin",
    "population": "6000",
    "id": "1800173507"
  },
  {
    "city": "Napak",
    "city_ascii": "Napak",
    "lat": "2.1156",
    "lng": "34.2267",
    "country": "Uganda",
    "iso2": "UG",
    "iso3": "UGA",
    "admin_name": "Napak",
    "capital": "admin",
    "population": "5278",
    "id": "1800784014"
  },
  {
    "city": "Kalangala",
    "city_ascii": "Kalangala",
    "lat": "-0.3214",
    "lng": "32.2919",
    "country": "Uganda",
    "iso2": "UG",
    "iso3": "UGA",
    "admin_name": "Kalangala",
    "capital": "admin",
    "population": "5200",
    "id": "1800446257"
  },
  {
    "city": "Nwoya",
    "city_ascii": "Nwoya",
    "lat": "2.6350",
    "lng": "32.0000",
    "country": "Uganda",
    "iso2": "UG",
    "iso3": "UGA",
    "admin_name": "Nwoya",
    "capital": "admin",
    "population": "4295",
    "id": "1800205431"
  },
  {
    "city": "Butalangu",
    "city_ascii": "Butalangu",
    "lat": "0.8228",
    "lng": "32.2428",
    "country": "Uganda",
    "iso2": "UG",
    "iso3": "UGA",
    "admin_name": "Nakaseke",
    "capital": "admin",
    "population": "3873",
    "id": "1800001908"
  },
  {
    "city": "Kaberamaido",
    "city_ascii": "Kaberamaido",
    "lat": "1.7667",
    "lng": "33.1522",
    "country": "Uganda",
    "iso2": "UG",
    "iso3": "UGA",
    "admin_name": "Kaberamaido",
    "capital": "admin",
    "population": "3400",
    "id": "1800845749"
  },
  {
    "city": "Amudat",
    "city_ascii": "Amudat",
    "lat": "1.9522",
    "lng": "34.9444",
    "country": "Uganda",
    "iso2": "UG",
    "iso3": "UGA",
    "admin_name": "Amudat",
    "capital": "admin",
    "population": "1900",
    "id": "1800886754"
  },
  {
    "city": "Namutumba",
    "city_ascii": "Namutumba",
    "lat": "0.8363",
    "lng": "33.6858",
    "country": "Uganda",
    "iso2": "UG",
    "iso3": "UGA",
    "admin_name": "Namutumba",
    "capital": "admin",
    "population": "",
    "id": "1800673440"
  },
  {
    "city": "Bukwo",
    "city_ascii": "Bukwo",
    "lat": "1.2928",
    "lng": "34.7531",
    "country": "Uganda",
    "iso2": "UG",
    "iso3": "UGA",
    "admin_name": "Bukwo",
    "capital": "admin",
    "population": "",
    "id": "1800276050"
  },
  {
    "city": "Maracha",
    "city_ascii": "Maracha",
    "lat": "3.2883",
    "lng": "30.9408",
    "country": "Uganda",
    "iso2": "UG",
    "iso3": "UGA",
    "admin_name": "Maracha",
    "capital": "admin",
    "population": "",
    "id": "1800799569"
  },
  {
    "city": "Binyin",
    "city_ascii": "Binyin",
    "lat": "1.4175",
    "lng": "34.5344",
    "country": "Uganda",
    "iso2": "UG",
    "iso3": "UGA",
    "admin_name": "Kween",
    "capital": "admin",
    "population": "",
    "id": "1800440664"
  },
  {
    "city": "Bulambuli",
    "city_ascii": "Bulambuli",
    "lat": "1.1600",
    "lng": "34.3967",
    "country": "Uganda",
    "iso2": "UG",
    "iso3": "UGA",
    "admin_name": "Bulambuli",
    "capital": "admin",
    "population": "",
    "id": "1800071156"
  },
  {
    "city": "Namayingo",
    "city_ascii": "Namayingo",
    "lat": "0.2398",
    "lng": "33.8849",
    "country": "Uganda",
    "iso2": "UG",
    "iso3": "UGA",
    "admin_name": "Namayingo",
    "capital": "admin",
    "population": "",
    "id": "1800633600"
  },
  {
    "city": "Butebo",
    "city_ascii": "Butebo",
    "lat": "1.1944",
    "lng": "33.9222",
    "country": "Uganda",
    "iso2": "UG",
    "iso3": "UGA",
    "admin_name": "Butebo",
    "capital": "admin",
    "population": "",
    "id": "1800710436"
  },
  {
    "city": "Busesa",
    "city_ascii": "Busesa",
    "lat": "0.6263",
    "lng": "33.6003",
    "country": "Uganda",
    "iso2": "UG",
    "iso3": "UGA",
    "admin_name": "Bugweri",
    "capital": "admin",
    "population": "",
    "id": "1800175659"
  },
  {
    "city": "Luuka Town",
    "city_ascii": "Luuka Town",
    "lat": "0.7642",
    "lng": "33.3319",
    "country": "Uganda",
    "iso2": "UG",
    "iso3": "UGA",
    "admin_name": "Luuka",
    "capital": "admin",
    "population": "",
    "id": "1800000051"
  },
  {
    "city": "Nsiika",
    "city_ascii": "Nsiika",
    "lat": "-0.2958",
    "lng": "30.3433",
    "country": "Uganda",
    "iso2": "UG",
    "iso3": "UGA",
    "admin_name": "Buhweju",
    "capital": "admin",
    "population": "",
    "id": "1800519756"
  },
  {
    "city": "Rubanda",
    "city_ascii": "Rubanda",
    "lat": "-1.1864",
    "lng": "29.8433",
    "country": "Uganda",
    "iso2": "UG",
    "iso3": "UGA",
    "admin_name": "Rubanda",
    "capital": "admin",
    "population": "",
    "id": "1800066560"
  },
  {
    "city": "Ntara",
    "city_ascii": "Ntara",
    "lat": "0.0047",
    "lng": "30.3661",
    "country": "Uganda",
    "iso2": "UG",
    "iso3": "UGA",
    "admin_name": "Kitagwenda",
    "capital": "admin",
    "population": "",
    "id": "1800001909"
  },
  {
    "city": "Kalungu",
    "city_ascii": "Kalungu",
    "lat": "-0.1681",
    "lng": "31.7600",
    "country": "Uganda",
    "iso2": "UG",
    "iso3": "UGA",
    "admin_name": "Kalungu",
    "capital": "admin",
    "population": "",
    "id": "1800770335"
  },
  {
    "city": "Bupoto",
    "city_ascii": "Bupoto",
    "lat": "0.9061",
    "lng": "34.3578",
    "country": "Uganda",
    "iso2": "UG",
    "iso3": "UGA",
    "admin_name": "Namisindwa",
    "capital": "admin",
    "population": "",
    "id": "1800358976"
  },
  {
    "city": "Kole",
    "city_ascii": "Kole",
    "lat": "2.4286",
    "lng": "32.8011",
    "country": "Uganda",
    "iso2": "UG",
    "iso3": "UGA",
    "admin_name": "Kole",
    "capital": "admin",
    "population": "",
    "id": "1800826218"
  },
  {
    "city": "Mparo",
    "city_ascii": "Mparo",
    "lat": "-1.1844",
    "lng": "30.0544",
    "country": "Uganda",
    "iso2": "UG",
    "iso3": "UGA",
    "admin_name": "Rukiga",
    "capital": "admin",
    "population": "",
    "id": "1800207938"
  },
  {
    "city": "Kasanda",
    "city_ascii": "Kasanda",
    "lat": "0.5467",
    "lng": "31.8197",
    "country": "Uganda",
    "iso2": "UG",
    "iso3": "UGA",
    "admin_name": "Kasanda",
    "capital": "admin",
    "population": "",
    "id": "1800794590"
  },
  {
    "city": "Kasaali",
    "city_ascii": "Kasaali",
    "lat": "-0.6167",
    "lng": "31.5500",
    "country": "Uganda",
    "iso2": "UG",
    "iso3": "UGA",
    "admin_name": "Kyotera",
    "capital": "admin",
    "population": "",
    "id": "1800217765"
  },
  {
    "city": "Kakumiro",
    "city_ascii": "Kakumiro",
    "lat": "0.7811",
    "lng": "31.3231",
    "country": "Uganda",
    "iso2": "UG",
    "iso3": "UGA",
    "admin_name": "Kakumiro",
    "capital": "admin",
    "population": "",
    "id": "1800894285"
  },
  {
    "city": "Kinoni",
    "city_ascii": "Kinoni",
    "lat": "-0.6583",
    "lng": "30.4581",
    "country": "Uganda",
    "iso2": "UG",
    "iso3": "UGA",
    "admin_name": "Rwampara",
    "capital": "admin",
    "population": "",
    "id": "1800009674"
  },
  {
    "city": "Kibingo",
    "city_ascii": "Kibingo",
    "lat": "-0.5700",
    "lng": "30.4150",
    "country": "Uganda",
    "iso2": "UG",
    "iso3": "UGA",
    "admin_name": "Sheema",
    "capital": "admin",
    "population": "",
    "id": "1800484853"
  },
  {
    "city": "Kalaki",
    "city_ascii": "Kalaki",
    "lat": "1.8160",
    "lng": "33.3370",
    "country": "Uganda",
    "iso2": "UG",
    "iso3": "UGA",
    "admin_name": "Kalaki",
    "capital": "admin",
    "population": "",
    "id": "1800972565"
  },
  {
    "city": "Palenga",
    "city_ascii": "Palenga",
    "lat": "2.5764",
    "lng": "32.3544",
    "country": "Uganda",
    "iso2": "UG",
    "iso3": "UGA",
    "admin_name": "Omoro",
    "capital": "admin",
    "population": "",
    "id": "1800679810"
  },
  {
    "city": "Lamwo",
    "city_ascii": "Lamwo",
    "lat": "3.5300",
    "lng": "32.8000",
    "country": "Uganda",
    "iso2": "UG",
    "iso3": "UGA",
    "admin_name": "Lamwo",
    "capital": "admin",
    "population": "",
    "id": "1800495740"
  },
  {
    "city": "Agago",
    "city_ascii": "Agago",
    "lat": "2.9847",
    "lng": "33.3306",
    "country": "Uganda",
    "iso2": "UG",
    "iso3": "UGA",
    "admin_name": "Agago",
    "capital": "admin",
    "population": "",
    "id": "1800321499"
  },
  {
    "city": "Nabilatuk",
    "city_ascii": "Nabilatuk",
    "lat": "2.0525",
    "lng": "34.5734",
    "country": "Uganda",
    "iso2": "UG",
    "iso3": "UGA",
    "admin_name": "Nabilatuk",
    "capital": "admin",
    "population": "",
    "id": "1800577877"
  },
  {
    "city": "Pader",
    "city_ascii": "Pader",
    "lat": "3.0500",
    "lng": "33.2167",
    "country": "Uganda",
    "iso2": "UG",
    "iso3": "UGA",
    "admin_name": "Pader",
    "capital": "admin",
    "population": "",
    "id": "1800105199"
  },
  {
    "city": "Otuke",
    "city_ascii": "Otuke",
    "lat": "2.4442",
    "lng": "33.5028",
    "country": "Uganda",
    "iso2": "UG",
    "iso3": "UGA",
    "admin_name": "Otuke",
    "capital": "admin",
    "population": "",
    "id": "1800657796"
  },
  {
    "city": "Nakapiripirit",
    "city_ascii": "Nakapiripirit",
    "lat": "1.9167",
    "lng": "34.7833",
    "country": "Uganda",
    "iso2": "UG",
    "iso3": "UGA",
    "admin_name": "Nakapiripirit",
    "capital": "admin",
    "population": "",
    "id": "1800663685"
  },
  {
    "city": "Kyankwanzi",
    "city_ascii": "Kyankwanzi",
    "lat": "1.2000",
    "lng": "31.8000",
    "country": "Uganda",
    "iso2": "UG",
    "iso3": "UGA",
    "admin_name": "Kyankwanzi",
    "capital": "admin",
    "population": "",
    "id": "1800427588"
  },
  {
    "city": "Ntoroko",
    "city_ascii": "Ntoroko",
    "lat": "1.0500",
    "lng": "30.5350",
    "country": "Uganda",
    "iso2": "UG",
    "iso3": "UGA",
    "admin_name": "Ntoroko",
    "capital": "admin",
    "population": "",
    "id": "1800207074"
  },
  {
    "city": "Kitamilo",
    "city_ascii": "Kitamilo",
    "lat": "0.2367",
    "lng": "33.2700",
    "country": "Uganda",
    "iso2": "UG",
    "iso3": "UGA",
    "admin_name": "Buvuma",
    "capital": "admin",
    "population": "",
    "id": "1800610172"
  },
  {
    "city": "Bombo",
    "city_ascii": "Bombo",
    "lat": "0.5778",
    "lng": "32.5450",
    "country": "Uganda",
    "iso2": "UG",
    "iso3": "UGA",
    "admin_name": "Luwero",
    "capital": "",
    "population": "75000",
    "id": "1800926068"
  },
  {
    "city": "Entebbe",
    "city_ascii": "Entebbe",
    "lat": "0.0500",
    "lng": "32.4600",
    "country": "Uganda",
    "iso2": "UG",
    "iso3": "UGA",
    "admin_name": "Wakiso",
    "capital": "",
    "population": "69958",
    "id": "1800535915"
  },
  {
    "city": "Mpondwe",
    "city_ascii": "Mpondwe",
    "lat": "0.0400",
    "lng": "29.7250",
    "country": "Uganda",
    "iso2": "UG",
    "iso3": "UGA",
    "admin_name": "Kasese",
    "capital": "",
    "population": "58600",
    "id": "1800231834"
  },
  {
    "city": "Nyenga",
    "city_ascii": "Nyenga",
    "lat": "0.3800",
    "lng": "33.1500",
    "country": "Uganda",
    "iso2": "UG",
    "iso3": "UGA",
    "admin_name": "Buikwe",
    "capital": "",
    "population": "55600",
    "id": "1800123019"
  },
  {
    "city": "Ishaka",
    "city_ascii": "Ishaka",
    "lat": "-0.5450",
    "lng": "30.1383",
    "country": "Uganda",
    "iso2": "UG",
    "iso3": "UGA",
    "admin_name": "Buhweju",
    "capital": "",
    "population": "41063",
    "id": "1800035927"
  },
  {
    "city": "Kakira",
    "city_ascii": "Kakira",
    "lat": "0.5036",
    "lng": "33.2825",
    "country": "Uganda",
    "iso2": "UG",
    "iso3": "UGA",
    "admin_name": "Jinja",
    "capital": "",
    "population": "32819",
    "id": "1800697790"
  },
  {
    "city": "Wobulenzi",
    "city_ascii": "Wobulenzi",
    "lat": "0.7200",
    "lng": "32.5300",
    "country": "Uganda",
    "iso2": "UG",
    "iso3": "UGA",
    "admin_name": "Luwero",
    "capital": "",
    "population": "31000",
    "id": "1800113774"
  },
  {
    "city": "Kalisizo",
    "city_ascii": "Kalisizo",
    "lat": "-0.5350",
    "lng": "31.6225",
    "country": "Uganda",
    "iso2": "UG",
    "iso3": "UGA",
    "admin_name": "Rakai",
    "capital": "",
    "population": "31439",
    "id": "1800028081"
  },
  {
    "city": "Budaka",
    "city_ascii": "Budaka",
    "lat": "1.0167",
    "lng": "33.9450",
    "country": "Uganda",
    "iso2": "UG",
    "iso3": "UGA",
    "admin_name": "Tororo",
    "capital": "",
    "population": "29100",
    "id": "1800690743"
  },
  {
    "city": "Kakiri",
    "city_ascii": "Kakiri",
    "lat": "0.4200",
    "lng": "32.3900",
    "country": "Uganda",
    "iso2": "UG",
    "iso3": "UGA",
    "admin_name": "Wakiso",
    "capital": "",
    "population": "28100",
    "id": "1800154731"
  },
  {
    "city": "Kamonkoli",
    "city_ascii": "Kamonkoli",
    "lat": "1.0750",
    "lng": "34.0956",
    "country": "Uganda",
    "iso2": "UG",
    "iso3": "UGA",
    "admin_name": "Budaka",
    "capital": "",
    "population": "25000",
    "id": "1800717956"
  },
  {
    "city": "Lukaya",
    "city_ascii": "Lukaya",
    "lat": "-0.1508",
    "lng": "31.8744",
    "country": "Uganda",
    "iso2": "UG",
    "iso3": "UGA",
    "admin_name": "Kalungu",
    "capital": "",
    "population": "24250",
    "id": "1800343653"
  },
  {
    "city": "Kigumba",
    "city_ascii": "Kigumba",
    "lat": "1.8150",
    "lng": "32.0100",
    "country": "Uganda",
    "iso2": "UG",
    "iso3": "UGA",
    "admin_name": "Kiryandongo",
    "capital": "",
    "population": "22000",
    "id": "1800399963"
  },
  {
    "city": "Malaba",
    "city_ascii": "Malaba",
    "lat": "0.6444",
    "lng": "34.2606",
    "country": "Uganda",
    "iso2": "UG",
    "iso3": "UGA",
    "admin_name": "Tororo",
    "capital": "",
    "population": "20800",
    "id": "1800629392"
  },
  {
    "city": "Namayumba",
    "city_ascii": "Namayumba",
    "lat": "0.5281",
    "lng": "32.2506",
    "country": "Uganda",
    "iso2": "UG",
    "iso3": "UGA",
    "admin_name": "Wakiso",
    "capital": "",
    "population": "22100",
    "id": "1800060213"
  },
  {
    "city": "Makulubita",
    "city_ascii": "Makulubita",
    "lat": "0.5122",
    "lng": "32.3664",
    "country": "Uganda",
    "iso2": "UG",
    "iso3": "UGA",
    "admin_name": "Luwero",
    "capital": "",
    "population": "21300",
    "id": "1800015106"
  },
  {
    "city": "Kihihi",
    "city_ascii": "Kihihi",
    "lat": "-0.7489",
    "lng": "29.7003",
    "country": "Uganda",
    "iso2": "UG",
    "iso3": "UGA",
    "admin_name": "Kanungu",
    "capital": "",
    "population": "20349",
    "id": "1800948354"
  },
  {
    "city": "Bukungu",
    "city_ascii": "Bukungu",
    "lat": "1.4361",
    "lng": "32.8686",
    "country": "Uganda",
    "iso2": "UG",
    "iso3": "UGA",
    "admin_name": "Buyende",
    "capital": "",
    "population": "19033",
    "id": "1800027499"
  },
  {
    "city": "Kikube",
    "city_ascii": "Kikube",
    "lat": "1.3328",
    "lng": "31.2075",
    "country": "Uganda",
    "iso2": "UG",
    "iso3": "UGA",
    "admin_name": "Kikuube",
    "capital": "",
    "population": "18100",
    "id": "1800164805"
  },
  {
    "city": "Busolwe",
    "city_ascii": "Busolwe",
    "lat": "0.8492",
    "lng": "33.9269",
    "country": "Uganda",
    "iso2": "UG",
    "iso3": "UGA",
    "admin_name": "Butaleja",
    "capital": "",
    "population": "16800",
    "id": "1800677931"
  },
  {
    "city": "Namayingo",
    "city_ascii": "Namayingo",
    "lat": "0.3450",
    "lng": "33.8800",
    "country": "Uganda",
    "iso2": "UG",
    "iso3": "UGA",
    "admin_name": "Namayingo",
    "capital": "",
    "population": "17300",
    "id": "1800364038"
  },
  {
    "city": "Katosi",
    "city_ascii": "Katosi",
    "lat": "0.1528",
    "lng": "32.8014",
    "country": "Uganda",
    "iso2": "UG",
    "iso3": "UGA",
    "admin_name": "Mukono",
    "capital": "",
    "population": "16442",
    "id": "1800190825"
  },
  {
    "city": "Buwama",
    "city_ascii": "Buwama",
    "lat": "0.0633",
    "lng": "32.1064",
    "country": "Uganda",
    "iso2": "UG",
    "iso3": "UGA",
    "admin_name": "Mpigi",
    "capital": "",
    "population": "16000",
    "id": "1800499815"
  },
  {
    "city": "Matuga",
    "city_ascii": "Matuga",
    "lat": "0.4603",
    "lng": "32.5286",
    "country": "Uganda",
    "iso2": "UG",
    "iso3": "UGA",
    "admin_name": "Wakiso",
    "capital": "",
    "population": "15000",
    "id": "1800696552"
  },
  {
    "city": "Kyazanga",
    "city_ascii": "Kyazanga",
    "lat": "-0.3864",
    "lng": "31.3186",
    "country": "Uganda",
    "iso2": "UG",
    "iso3": "UGA",
    "admin_name": "Lwengo",
    "capital": "",
    "population": "15531",
    "id": "1800635316"
  },
  {
    "city": "Kalongo",
    "city_ascii": "Kalongo",
    "lat": "3.0400",
    "lng": "33.3711",
    "country": "Uganda",
    "iso2": "UG",
    "iso3": "UGA",
    "admin_name": "Agago",
    "capital": "",
    "population": "15000",
    "id": "1800772178"
  },
  {
    "city": "Mutukula",
    "city_ascii": "Mutukula",
    "lat": "-1.0000",
    "lng": "31.4167",
    "country": "Uganda",
    "iso2": "UG",
    "iso3": "UGA",
    "admin_name": "Rakai",
    "capital": "",
    "population": "15000",
    "id": "1800910667"
  },
  {
    "city": "Hima",
    "city_ascii": "Hima",
    "lat": "0.2906",
    "lng": "30.1775",
    "country": "Uganda",
    "iso2": "UG",
    "iso3": "UGA",
    "admin_name": "Kasese",
    "capital": "",
    "population": "14700",
    "id": "1800860546"
  },
  {
    "city": "Lumino",
    "city_ascii": "Lumino",
    "lat": "0.3250",
    "lng": "33.9958",
    "country": "Uganda",
    "iso2": "UG",
    "iso3": "UGA",
    "admin_name": "Busia",
    "capital": "",
    "population": "14624",
    "id": "1800145886"
  },
  {
    "city": "Nagongera",
    "city_ascii": "Nagongera",
    "lat": "0.7700",
    "lng": "34.0261",
    "country": "Uganda",
    "iso2": "UG",
    "iso3": "UGA",
    "admin_name": "Tororo",
    "capital": "",
    "population": "14300",
    "id": "1800803785"
  },
  {
    "city": "Kyotera",
    "city_ascii": "Kyotera",
    "lat": "-0.6317",
    "lng": "31.5433",
    "country": "Uganda",
    "iso2": "UG",
    "iso3": "UGA",
    "admin_name": "Rakai",
    "capital": "",
    "population": "12789",
    "id": "1800498277"
  },
  {
    "city": "Karagwe",
    "city_ascii": "Karagwe",
    "lat": "0.6769",
    "lng": "30.1967",
    "country": "Uganda",
    "iso2": "UG",
    "iso3": "UGA",
    "admin_name": "Kabarole",
    "capital": "",
    "population": "12045",
    "id": "1800882770"
  },
  {
    "city": "Majanji",
    "city_ascii": "Majanji",
    "lat": "0.2408",
    "lng": "33.9914",
    "country": "Uganda",
    "iso2": "UG",
    "iso3": "UGA",
    "admin_name": "Busia",
    "capital": "",
    "population": "11274",
    "id": "1800028555"
  },
  {
    "city": "Bugongi",
    "city_ascii": "Bugongi",
    "lat": "-0.6356",
    "lng": "30.2528",
    "country": "Uganda",
    "iso2": "UG",
    "iso3": "UGA",
    "admin_name": "Sheema",
    "capital": "",
    "population": "11547",
    "id": "1800892810"
  },
  {
    "city": "Lwakhakha",
    "city_ascii": "Lwakhakha",
    "lat": "0.7967",
    "lng": "34.3781",
    "country": "Uganda",
    "iso2": "UG",
    "iso3": "UGA",
    "admin_name": "Manafwa",
    "capital": "",
    "population": "10700",
    "id": "1800393189"
  },
  {
    "city": "Kiwoko",
    "city_ascii": "Kiwoko",
    "lat": "0.8442",
    "lng": "32.3614",
    "country": "Uganda",
    "iso2": "UG",
    "iso3": "UGA",
    "admin_name": "Nakaseke",
    "capital": "",
    "population": "11013",
    "id": "1800103323"
  },
  {
    "city": "Semuto",
    "city_ascii": "Semuto",
    "lat": "0.6200",
    "lng": "32.3278",
    "country": "Uganda",
    "iso2": "UG",
    "iso3": "UGA",
    "admin_name": "Nakaseke",
    "capital": "",
    "population": "10935",
    "id": "1800177094"
  },
  {
    "city": "Aduku",
    "city_ascii": "Aduku",
    "lat": "2.0194",
    "lng": "32.7200",
    "country": "Uganda",
    "iso2": "UG",
    "iso3": "UGA",
    "admin_name": "Kwania",
    "capital": "",
    "population": "10700",
    "id": "1800302255"
  },
  {
    "city": "Nkokonjeru",
    "city_ascii": "Nkokonjeru",
    "lat": "0.2394",
    "lng": "32.9231",
    "country": "Uganda",
    "iso2": "UG",
    "iso3": "UGA",
    "admin_name": "Buikwe",
    "capital": "",
    "population": "10100",
    "id": "1800002522"
  },
  {
    "city": "Kadama",
    "city_ascii": "Kadama",
    "lat": "1.0167",
    "lng": "33.8803",
    "country": "Uganda",
    "iso2": "UG",
    "iso3": "UGA",
    "admin_name": "Kibuku",
    "capital": "",
    "population": "10000",
    "id": "1800484552"
  },
  {
    "city": "Masindi Port",
    "city_ascii": "Masindi Port",
    "lat": "1.6983",
    "lng": "32.0778",
    "country": "Uganda",
    "iso2": "UG",
    "iso3": "UGA",
    "admin_name": "Kiryandongo",
    "capital": "",
    "population": "10400",
    "id": "1800188907"
  },
  {
    "city": "Kazo",
    "city_ascii": "Kazo",
    "lat": "-0.0528",
    "lng": "30.7569",
    "country": "Uganda",
    "iso2": "UG",
    "iso3": "UGA",
    "admin_name": "Kazo",
    "capital": "",
    "population": "10200",
    "id": "1800531840"
  },
  {
    "city": "Nakaseke",
    "city_ascii": "Nakaseke",
    "lat": "0.7300",
    "lng": "32.4150",
    "country": "Uganda",
    "iso2": "UG",
    "iso3": "UGA",
    "admin_name": "Nakaseke",
    "capital": "",
    "population": "8600",
    "id": "1800304390"
  },
  {
    "city": "Kibale",
    "city_ascii": "Kibale",
    "lat": "0.7911",
    "lng": "31.0750",
    "country": "Uganda",
    "iso2": "UG",
    "iso3": "UGA",
    "admin_name": "Kibaale",
    "capital": "",
    "population": "7600",
    "id": "1800354454"
  },
  {
    "city": "Katwe",
    "city_ascii": "Katwe",
    "lat": "-0.1296",
    "lng": "29.9200",
    "country": "Uganda",
    "iso2": "UG",
    "iso3": "UGA",
    "admin_name": "Kasese",
    "capital": "",
    "population": "1957",
    "id": "1800329579"
  }
]