[
  {
    "city": "Maracaibo",
    "city_ascii": "Maracaibo",
    "lat": "10.6333",
    "lng": "-71.6333",
    "country": "Venezuela",
    "iso2": "VE",
    "iso3": "VEN",
    "admin_name": "Zulia",
    "capital": "admin",
    "population": "2658355",
    "id": "1862072711"
  },
  {
    "city": "Caracas",
    "city_ascii": "Caracas",
    "lat": "10.4806",
    "lng": "-66.9036",
    "country": "Venezuela",
    "iso2": "VE",
    "iso3": "VEN",
    "admin_name": "Distrito Capital",
    "capital": "primary",
    "population": "2245744",
    "id": "1862748204"
  },
  {
    "city": "Valencia",
    "city_ascii": "Valencia",
    "lat": "10.1667",
    "lng": "-68.0000",
    "country": "Venezuela",
    "iso2": "VE",
    "iso3": "VEN",
    "admin_name": "Carabobo",
    "capital": "admin",
    "population": "1484430",
    "id": "1862309871"
  },
  {
    "city": "Barquisimeto",
    "city_ascii": "Barquisimeto",
    "lat": "10.0678",
    "lng": "-69.3467",
    "country": "Venezuela",
    "iso2": "VE",
    "iso3": "VEN",
    "admin_name": "Lara",
    "capital": "admin",
    "population": "1059092",
    "id": "1862860739"
  },
  {
    "city": "Barinas",
    "city_ascii": "Barinas",
    "lat": "8.6333",
    "lng": "-70.2000",
    "country": "Venezuela",
    "iso2": "VE",
    "iso3": "VEN",
    "admin_name": "Barinas",
    "capital": "admin",
    "population": "816264",
    "id": "1862647790"
  },
  {
    "city": "Ciudad Guayana",
    "city_ascii": "Ciudad Guayana",
    "lat": "8.3667",
    "lng": "-62.6500",
    "country": "Venezuela",
    "iso2": "VE",
    "iso3": "VEN",
    "admin_name": "Bolívar",
    "capital": "minor",
    "population": "751331",
    "id": "1862889027"
  },
  {
    "city": "Catia La Mar",
    "city_ascii": "Catia La Mar",
    "lat": "10.6000",
    "lng": "-67.0333",
    "country": "Venezuela",
    "iso2": "VE",
    "iso3": "VEN",
    "admin_name": "La Guaira",
    "capital": "minor",
    "population": "661897",
    "id": "1862657837"
  },
  {
    "city": "Ciudad Bolívar",
    "city_ascii": "Ciudad Bolivar",
    "lat": "8.1219",
    "lng": "-63.5500",
    "country": "Venezuela",
    "iso2": "VE",
    "iso3": "VEN",
    "admin_name": "Bolívar",
    "capital": "admin",
    "population": "567953",
    "id": "1862318264"
  },
  {
    "city": "Santa Teresa del Tuy",
    "city_ascii": "Santa Teresa del Tuy",
    "lat": "10.2333",
    "lng": "-66.6500",
    "country": "Venezuela",
    "iso2": "VE",
    "iso3": "VEN",
    "admin_name": "Miranda",
    "capital": "minor",
    "population": "525321",
    "id": "1862528581"
  },
  {
    "city": "Maturín",
    "city_ascii": "Maturin",
    "lat": "9.7423",
    "lng": "-63.1889",
    "country": "Venezuela",
    "iso2": "VE",
    "iso3": "VEN",
    "admin_name": "Monagas",
    "capital": "admin",
    "population": "514046",
    "id": "1862546949"
  },
  {
    "city": "Barcelona",
    "city_ascii": "Barcelona",
    "lat": "10.1333",
    "lng": "-64.6833",
    "country": "Venezuela",
    "iso2": "VE",
    "iso3": "VEN",
    "admin_name": "Anzoátegui",
    "capital": "admin",
    "population": "448016",
    "id": "1862418619"
  },
  {
    "city": "Maracay",
    "city_ascii": "Maracay",
    "lat": "10.2469",
    "lng": "-67.5958",
    "country": "Venezuela",
    "iso2": "VE",
    "iso3": "VEN",
    "admin_name": "Aragua",
    "capital": "admin",
    "population": "407109",
    "id": "1862284350"
  },
  {
    "city": "Cumaná",
    "city_ascii": "Cumana",
    "lat": "10.4500",
    "lng": "-64.1667",
    "country": "Venezuela",
    "iso2": "VE",
    "iso3": "VEN",
    "admin_name": "Sucre",
    "capital": "admin",
    "population": "374706",
    "id": "1862583279"
  },
  {
    "city": "Petare",
    "city_ascii": "Petare",
    "lat": "10.4833",
    "lng": "-66.8167",
    "country": "Venezuela",
    "iso2": "VE",
    "iso3": "VEN",
    "admin_name": "Miranda",
    "capital": "minor",
    "population": "369000",
    "id": "1862595613"
  },
  {
    "city": "Cabimas",
    "city_ascii": "Cabimas",
    "lat": "10.4000",
    "lng": "-71.4333",
    "country": "Venezuela",
    "iso2": "VE",
    "iso3": "VEN",
    "admin_name": "Zulia",
    "capital": "minor",
    "population": "351735",
    "id": "1862398719"
  },
  {
    "city": "Puerto La Cruz",
    "city_ascii": "Puerto La Cruz",
    "lat": "10.2000",
    "lng": "-64.6333",
    "country": "Venezuela",
    "iso2": "VE",
    "iso3": "VEN",
    "admin_name": "Anzoátegui",
    "capital": "minor",
    "population": "306261",
    "id": "1862856141"
  },
  {
    "city": "Mérida",
    "city_ascii": "Merida",
    "lat": "8.4800",
    "lng": "-71.1900",
    "country": "Venezuela",
    "iso2": "VE",
    "iso3": "VEN",
    "admin_name": "Mérida",
    "capital": "admin",
    "population": "300000",
    "id": "1862668122"
  },
  {
    "city": "Punto Fijo",
    "city_ascii": "Punto Fijo",
    "lat": "11.7167",
    "lng": "-70.1833",
    "country": "Venezuela",
    "iso2": "VE",
    "iso3": "VEN",
    "admin_name": "Falcón",
    "capital": "minor",
    "population": "287558",
    "id": "1862535644"
  },
  {
    "city": "San Cristóbal",
    "city_ascii": "San Cristobal",
    "lat": "7.7682",
    "lng": "-72.2322",
    "country": "Venezuela",
    "iso2": "VE",
    "iso3": "VEN",
    "admin_name": "Táchira",
    "capital": "admin",
    "population": "285872",
    "id": "1862252264"
  },
  {
    "city": "Coro",
    "city_ascii": "Coro",
    "lat": "11.3950",
    "lng": "-69.6816",
    "country": "Venezuela",
    "iso2": "VE",
    "iso3": "VEN",
    "admin_name": "Falcón",
    "capital": "admin",
    "population": "284266",
    "id": "1862429150"
  },
  {
    "city": "Turmero",
    "city_ascii": "Turmero",
    "lat": "10.2283",
    "lng": "-67.4753",
    "country": "Venezuela",
    "iso2": "VE",
    "iso3": "VEN",
    "admin_name": "Aragua",
    "capital": "minor",
    "population": "254880",
    "id": "1862335549"
  },
  {
    "city": "Los Teques",
    "city_ascii": "Los Teques",
    "lat": "10.3411",
    "lng": "-67.0406",
    "country": "Venezuela",
    "iso2": "VE",
    "iso3": "VEN",
    "admin_name": "Miranda",
    "capital": "admin",
    "population": "251200",
    "id": "1862066931"
  },
  {
    "city": "Baruta",
    "city_ascii": "Baruta",
    "lat": "10.4322",
    "lng": "-66.8739",
    "country": "Venezuela",
    "iso2": "VE",
    "iso3": "VEN",
    "admin_name": "Miranda",
    "capital": "minor",
    "population": "240755",
    "id": "1862630716"
  },
  {
    "city": "San Felipe",
    "city_ascii": "San Felipe",
    "lat": "10.3353",
    "lng": "-68.7458",
    "country": "Venezuela",
    "iso2": "VE",
    "iso3": "VEN",
    "admin_name": "Yaracuy",
    "capital": "admin",
    "population": "220786",
    "id": "1862716082"
  },
  {
    "city": "Cúa",
    "city_ascii": "Cua",
    "lat": "10.1667",
    "lng": "-66.8833",
    "country": "Venezuela",
    "iso2": "VE",
    "iso3": "VEN",
    "admin_name": "Miranda",
    "capital": "minor",
    "population": "214823",
    "id": "1862770169"
  },
  {
    "city": "La Victoria",
    "city_ascii": "La Victoria",
    "lat": "10.2278",
    "lng": "-67.3336",
    "country": "Venezuela",
    "iso2": "VE",
    "iso3": "VEN",
    "admin_name": "Aragua",
    "capital": "minor",
    "population": "214492",
    "id": "1862054455"
  },
  {
    "city": "El Tigre",
    "city_ascii": "El Tigre",
    "lat": "8.8858",
    "lng": "-64.2611",
    "country": "Venezuela",
    "iso2": "VE",
    "iso3": "VEN",
    "admin_name": "Anzoátegui",
    "capital": "minor",
    "population": "213524",
    "id": "1862428934"
  },
  {
    "city": "Guarenas",
    "city_ascii": "Guarenas",
    "lat": "10.4739",
    "lng": "-66.5383",
    "country": "Venezuela",
    "iso2": "VE",
    "iso3": "VEN",
    "admin_name": "Miranda",
    "capital": "minor",
    "population": "208663",
    "id": "1862083525"
  },
  {
    "city": "Puerto Cabello",
    "city_ascii": "Puerto Cabello",
    "lat": "10.4667",
    "lng": "-68.0167",
    "country": "Venezuela",
    "iso2": "VE",
    "iso3": "VEN",
    "admin_name": "Carabobo",
    "capital": "minor",
    "population": "209080",
    "id": "1862031193"
  },
  {
    "city": "La Guaira",
    "city_ascii": "La Guaira",
    "lat": "10.6000",
    "lng": "-66.9331",
    "country": "Venezuela",
    "iso2": "VE",
    "iso3": "VEN",
    "admin_name": "La Guaira",
    "capital": "admin",
    "population": "203520",
    "id": "1862282663"
  },
  {
    "city": "Guacara",
    "city_ascii": "Guacara",
    "lat": "10.2333",
    "lng": "-67.8833",
    "country": "Venezuela",
    "iso2": "VE",
    "iso3": "VEN",
    "admin_name": "Carabobo",
    "capital": "minor",
    "population": "200212",
    "id": "1862573240"
  },
  {
    "city": "Tocuyito",
    "city_ascii": "Tocuyito",
    "lat": "10.0889",
    "lng": "-68.0922",
    "country": "Venezuela",
    "iso2": "VE",
    "iso3": "VEN",
    "admin_name": "Carabobo",
    "capital": "minor",
    "population": "197446",
    "id": "1862659974"
  },
  {
    "city": "Acarigua",
    "city_ascii": "Acarigua",
    "lat": "9.5597",
    "lng": "-69.2019",
    "country": "Venezuela",
    "iso2": "VE",
    "iso3": "VEN",
    "admin_name": "Portuguesa",
    "capital": "minor",
    "population": "195637",
    "id": "1862134462"
  },
  {
    "city": "San Fernando",
    "city_ascii": "San Fernando",
    "lat": "7.8940",
    "lng": "-67.4730",
    "country": "Venezuela",
    "iso2": "VE",
    "iso3": "VEN",
    "admin_name": "Apure",
    "capital": "admin",
    "population": "194274",
    "id": "1862404343"
  },
  {
    "city": "Guanare",
    "city_ascii": "Guanare",
    "lat": "9.0436",
    "lng": "-69.7489",
    "country": "Venezuela",
    "iso2": "VE",
    "iso3": "VEN",
    "admin_name": "Portuguesa",
    "capital": "admin",
    "population": "192644",
    "id": "1862645590"
  },
  {
    "city": "Valera",
    "city_ascii": "Valera",
    "lat": "9.3206",
    "lng": "-70.6078",
    "country": "Venezuela",
    "iso2": "VE",
    "iso3": "VEN",
    "admin_name": "Trujillo",
    "capital": "minor",
    "population": "191167",
    "id": "1862735261"
  },
  {
    "city": "Araure",
    "city_ascii": "Araure",
    "lat": "9.5667",
    "lng": "-69.2167",
    "country": "Venezuela",
    "iso2": "VE",
    "iso3": "VEN",
    "admin_name": "Portuguesa",
    "capital": "minor",
    "population": "188800",
    "id": "1862226710"
  },
  {
    "city": "Guatire",
    "city_ascii": "Guatire",
    "lat": "10.4717",
    "lng": "-66.5406",
    "country": "Venezuela",
    "iso2": "VE",
    "iso3": "VEN",
    "admin_name": "Miranda",
    "capital": "minor",
    "population": "187262",
    "id": "1862199442"
  },
  {
    "city": "San Diego",
    "city_ascii": "San Diego",
    "lat": "10.2558",
    "lng": "-67.9539",
    "country": "Venezuela",
    "iso2": "VE",
    "iso3": "VEN",
    "admin_name": "Carabobo",
    "capital": "minor",
    "population": "187215",
    "id": "1862530883"
  },
  {
    "city": "Carúpano",
    "city_ascii": "Carupano",
    "lat": "10.6722",
    "lng": "-63.2403",
    "country": "Venezuela",
    "iso2": "VE",
    "iso3": "VEN",
    "admin_name": "Sucre",
    "capital": "minor",
    "population": "173877",
    "id": "1862777685"
  },
  {
    "city": "Santa Rita",
    "city_ascii": "Santa Rita",
    "lat": "10.2003",
    "lng": "-67.5514",
    "country": "Venezuela",
    "iso2": "VE",
    "iso3": "VEN",
    "admin_name": "Aragua",
    "capital": "minor",
    "population": "169158",
    "id": "1862408122"
  },
  {
    "city": "Calabozo",
    "city_ascii": "Calabozo",
    "lat": "8.9219",
    "lng": "-67.4283",
    "country": "Venezuela",
    "iso2": "VE",
    "iso3": "VEN",
    "admin_name": "Guárico",
    "capital": "minor",
    "population": "168605",
    "id": "1862623441"
  },
  {
    "city": "Anaco",
    "city_ascii": "Anaco",
    "lat": "9.4333",
    "lng": "-64.4667",
    "country": "Venezuela",
    "iso2": "VE",
    "iso3": "VEN",
    "admin_name": "Anzoátegui",
    "capital": "minor",
    "population": "162704",
    "id": "1862074247"
  },
  {
    "city": "Palo Negro",
    "city_ascii": "Palo Negro",
    "lat": "10.1600",
    "lng": "-67.5582",
    "country": "Venezuela",
    "iso2": "VE",
    "iso3": "VEN",
    "admin_name": "Aragua",
    "capital": "minor",
    "population": "153706",
    "id": "1862061949"
  },
  {
    "city": "Ocumare del Tuy",
    "city_ascii": "Ocumare del Tuy",
    "lat": "10.1136",
    "lng": "-66.7814",
    "country": "Venezuela",
    "iso2": "VE",
    "iso3": "VEN",
    "admin_name": "Miranda",
    "capital": "minor",
    "population": "150000",
    "id": "1862015576"
  },
  {
    "city": "Villa de Cura",
    "city_ascii": "Villa de Cura",
    "lat": "10.0383",
    "lng": "-67.4892",
    "country": "Venezuela",
    "iso2": "VE",
    "iso3": "VEN",
    "admin_name": "Aragua",
    "capital": "minor",
    "population": "145098",
    "id": "1862979204"
  },
  {
    "city": "Yaritagua",
    "city_ascii": "Yaritagua",
    "lat": "10.0753",
    "lng": "-69.1283",
    "country": "Venezuela",
    "iso2": "VE",
    "iso3": "VEN",
    "admin_name": "Yaracuy",
    "capital": "minor",
    "population": "140256",
    "id": "1862905123"
  },
  {
    "city": "Los Guayos",
    "city_ascii": "Los Guayos",
    "lat": "10.1833",
    "lng": "-67.9333",
    "country": "Venezuela",
    "iso2": "VE",
    "iso3": "VEN",
    "admin_name": "Carabobo",
    "capital": "minor",
    "population": "130345",
    "id": "1862264170"
  },
  {
    "city": "Táriba",
    "city_ascii": "Tariba",
    "lat": "7.8167",
    "lng": "-72.2167",
    "country": "Venezuela",
    "iso2": "VE",
    "iso3": "VEN",
    "admin_name": "Táchira",
    "capital": "minor",
    "population": "128590",
    "id": "1862780259"
  },
  {
    "city": "Guasdualito",
    "city_ascii": "Guasdualito",
    "lat": "7.2467",
    "lng": "-70.7292",
    "country": "Venezuela",
    "iso2": "VE",
    "iso3": "VEN",
    "admin_name": "Apure",
    "capital": "minor",
    "population": "128025",
    "id": "1862834503"
  },
  {
    "city": "Cagua",
    "city_ascii": "Cagua",
    "lat": "10.1875",
    "lng": "-67.4611",
    "country": "Venezuela",
    "iso2": "VE",
    "iso3": "VEN",
    "admin_name": "Aragua",
    "capital": "minor",
    "population": "122571",
    "id": "1862805374"
  },
  {
    "city": "Porlamar",
    "city_ascii": "Porlamar",
    "lat": "10.9556",
    "lng": "-63.8478",
    "country": "Venezuela",
    "iso2": "VE",
    "iso3": "VEN",
    "admin_name": "Nueva Esparta",
    "capital": "minor",
    "population": "120924",
    "id": "1862693736"
  },
  {
    "city": "Machiques",
    "city_ascii": "Machiques",
    "lat": "10.0667",
    "lng": "-72.5667",
    "country": "Venezuela",
    "iso2": "VE",
    "iso3": "VEN",
    "admin_name": "Zulia",
    "capital": "minor",
    "population": "122734",
    "id": "1862003182"
  },
  {
    "city": "Ciudad Ojeda",
    "city_ascii": "Ciudad Ojeda",
    "lat": "10.2000",
    "lng": "-71.3000",
    "country": "Venezuela",
    "iso2": "VE",
    "iso3": "VEN",
    "admin_name": "Zulia",
    "capital": "minor",
    "population": "122124",
    "id": "1862967909"
  },
  {
    "city": "San Carlos",
    "city_ascii": "San Carlos",
    "lat": "9.6500",
    "lng": "-68.5833",
    "country": "Venezuela",
    "iso2": "VE",
    "iso3": "VEN",
    "admin_name": "Cojedes",
    "capital": "admin",
    "population": "120000",
    "id": "1862109303"
  },
  {
    "city": "Charallave",
    "city_ascii": "Charallave",
    "lat": "10.2431",
    "lng": "-66.8622",
    "country": "Venezuela",
    "iso2": "VE",
    "iso3": "VEN",
    "admin_name": "Miranda",
    "capital": "minor",
    "population": "117707",
    "id": "1862753487"
  },
  {
    "city": "La Asunción",
    "city_ascii": "La Asuncion",
    "lat": "11.0333",
    "lng": "-63.8628",
    "country": "Venezuela",
    "iso2": "VE",
    "iso3": "VEN",
    "admin_name": "Nueva Esparta",
    "capital": "admin",
    "population": "117513",
    "id": "1862490314"
  },
  {
    "city": "Valle de La Pascua",
    "city_ascii": "Valle de La Pascua",
    "lat": "9.2033",
    "lng": "-66.0103",
    "country": "Venezuela",
    "iso2": "VE",
    "iso3": "VEN",
    "admin_name": "Guárico",
    "capital": "minor",
    "population": "115902",
    "id": "1862904072"
  },
  {
    "city": "Santa Lucía",
    "city_ascii": "Santa Lucia",
    "lat": "10.2606",
    "lng": "-66.6639",
    "country": "Venezuela",
    "iso2": "VE",
    "iso3": "VEN",
    "admin_name": "Miranda",
    "capital": "minor",
    "population": "112357",
    "id": "1862614387"
  },
  {
    "city": "Carora",
    "city_ascii": "Carora",
    "lat": "10.1692",
    "lng": "-70.0783",
    "country": "Venezuela",
    "iso2": "VE",
    "iso3": "VEN",
    "admin_name": "Lara",
    "capital": "minor",
    "population": "112600",
    "id": "1862485109"
  },
  {
    "city": "Quíbor",
    "city_ascii": "Quibor",
    "lat": "9.9281",
    "lng": "-69.5778",
    "country": "Venezuela",
    "iso2": "VE",
    "iso3": "VEN",
    "admin_name": "Lara",
    "capital": "minor",
    "population": "110536",
    "id": "1862178539"
  },
  {
    "city": "Socopó",
    "city_ascii": "Socopo",
    "lat": "8.2322",
    "lng": "-70.8206",
    "country": "Venezuela",
    "iso2": "VE",
    "iso3": "VEN",
    "admin_name": "Barinas",
    "capital": "minor",
    "population": "110512",
    "id": "1862619610"
  },
  {
    "city": "Tinaquillo",
    "city_ascii": "Tinaquillo",
    "lat": "9.9167",
    "lng": "-68.3000",
    "country": "Venezuela",
    "iso2": "VE",
    "iso3": "VEN",
    "admin_name": "Cojedes",
    "capital": "minor",
    "population": "110000",
    "id": "1862118872"
  },
  {
    "city": "El Limón",
    "city_ascii": "El Limon",
    "lat": "10.3003",
    "lng": "-67.6336",
    "country": "Venezuela",
    "iso2": "VE",
    "iso3": "VEN",
    "admin_name": "Aragua",
    "capital": "minor",
    "population": "106206",
    "id": "1862210475"
  },
  {
    "city": "Ejido",
    "city_ascii": "Ejido",
    "lat": "8.5466",
    "lng": "-71.2409",
    "country": "Venezuela",
    "iso2": "VE",
    "iso3": "VEN",
    "admin_name": "Mérida",
    "capital": "minor",
    "population": "107056",
    "id": "1862153927"
  },
  {
    "city": "San Juan de los Morros",
    "city_ascii": "San Juan de los Morros",
    "lat": "9.9010",
    "lng": "-67.3540",
    "country": "Venezuela",
    "iso2": "VE",
    "iso3": "VEN",
    "admin_name": "Guárico",
    "capital": "admin",
    "population": "87739",
    "id": "1862865294"
  },
  {
    "city": "Tucupita",
    "city_ascii": "Tucupita",
    "lat": "9.0575",
    "lng": "-62.0452",
    "country": "Venezuela",
    "iso2": "VE",
    "iso3": "VEN",
    "admin_name": "Delta Amacuro",
    "capital": "admin",
    "population": "86487",
    "id": "1862849758"
  },
  {
    "city": "Puerto Ayacucho",
    "city_ascii": "Puerto Ayacucho",
    "lat": "5.6631",
    "lng": "-67.6264",
    "country": "Venezuela",
    "iso2": "VE",
    "iso3": "VEN",
    "admin_name": "Amazonas",
    "capital": "admin",
    "population": "80000",
    "id": "1862027409"
  },
  {
    "city": "Lecherías",
    "city_ascii": "Lecherias",
    "lat": "10.1889",
    "lng": "-64.6951",
    "country": "Venezuela",
    "iso2": "VE",
    "iso3": "VEN",
    "admin_name": "Anzoátegui",
    "capital": "minor",
    "population": "36450",
    "id": "1862961933"
  },
  {
    "city": "Trujillo",
    "city_ascii": "Trujillo",
    "lat": "9.4170",
    "lng": "-70.5000",
    "country": "Venezuela",
    "iso2": "VE",
    "iso3": "VEN",
    "admin_name": "Trujillo",
    "capital": "admin",
    "population": "38110",
    "id": "1862212549"
  },
  {
    "city": "Rubio",
    "city_ascii": "Rubio",
    "lat": "7.7000",
    "lng": "-72.3500",
    "country": "Venezuela",
    "iso2": "VE",
    "iso3": "VEN",
    "admin_name": "Táchira",
    "capital": "minor",
    "population": "95041",
    "id": "1862078206"
  },
  {
    "city": "Cantaura",
    "city_ascii": "Cantaura",
    "lat": "9.3005",
    "lng": "-64.3564",
    "country": "Venezuela",
    "iso2": "VE",
    "iso3": "VEN",
    "admin_name": "Anzoátegui",
    "capital": "minor",
    "population": "89552",
    "id": "1862715472"
  },
  {
    "city": "La Grita",
    "city_ascii": "La Grita",
    "lat": "8.1333",
    "lng": "-71.9833",
    "country": "Venezuela",
    "iso2": "VE",
    "iso3": "VEN",
    "admin_name": "Táchira",
    "capital": "minor",
    "population": "88450",
    "id": "1862682610"
  },
  {
    "city": "Maiquetía",
    "city_ascii": "Maiquetia",
    "lat": "10.5958",
    "lng": "-66.9772",
    "country": "Venezuela",
    "iso2": "VE",
    "iso3": "VEN",
    "admin_name": "La Guaira",
    "capital": "minor",
    "population": "87909",
    "id": "1862822831"
  },
  {
    "city": "San Carlos del Zulia",
    "city_ascii": "San Carlos del Zulia",
    "lat": "9.0000",
    "lng": "-71.9333",
    "country": "Venezuela",
    "iso2": "VE",
    "iso3": "VEN",
    "admin_name": "Zulia",
    "capital": "minor",
    "population": "80000",
    "id": "1862219492"
  },
  {
    "city": "Cabudare",
    "city_ascii": "Cabudare",
    "lat": "10.0331",
    "lng": "-69.2633",
    "country": "Venezuela",
    "iso2": "VE",
    "iso3": "VEN",
    "admin_name": "Lara",
    "capital": "minor",
    "population": "70578",
    "id": "1862114226"
  },
  {
    "city": "Cedeño",
    "city_ascii": "Cedeno",
    "lat": "6.7100",
    "lng": "-66.1127",
    "country": "Venezuela",
    "iso2": "VE",
    "iso3": "VEN",
    "admin_name": "Bolívar",
    "capital": "",
    "population": "67000",
    "id": "1862036246"
  },
  {
    "city": "Caripito",
    "city_ascii": "Caripito",
    "lat": "10.1124",
    "lng": "-63.1034",
    "country": "Venezuela",
    "iso2": "VE",
    "iso3": "VEN",
    "admin_name": "Monagas",
    "capital": "minor",
    "population": "64955",
    "id": "1862107520"
  },
  {
    "city": "Zaraza",
    "city_ascii": "Zaraza",
    "lat": "9.3394",
    "lng": "-65.3167",
    "country": "Venezuela",
    "iso2": "VE",
    "iso3": "VEN",
    "admin_name": "Guárico",
    "capital": "minor",
    "population": "62027",
    "id": "1862643668"
  },
  {
    "city": "San Antonio del Táchira",
    "city_ascii": "San Antonio del Tachira",
    "lat": "7.8145",
    "lng": "-72.4431",
    "country": "Venezuela",
    "iso2": "VE",
    "iso3": "VEN",
    "admin_name": "Táchira",
    "capital": "minor",
    "population": "61630",
    "id": "1862415614"
  },
  {
    "city": "Upata",
    "city_ascii": "Upata",
    "lat": "8.0204",
    "lng": "-62.4100",
    "country": "Venezuela",
    "iso2": "VE",
    "iso3": "VEN",
    "admin_name": "Bolívar",
    "capital": "minor",
    "population": "53685",
    "id": "1862794619"
  },
  {
    "city": "Caraballeda",
    "city_ascii": "Caraballeda",
    "lat": "10.6167",
    "lng": "-66.8500",
    "country": "Venezuela",
    "iso2": "VE",
    "iso3": "VEN",
    "admin_name": "La Guaira",
    "capital": "minor",
    "population": "48622",
    "id": "1862680237"
  },
  {
    "city": "Sanare",
    "city_ascii": "Sanare",
    "lat": "9.7822",
    "lng": "-69.7931",
    "country": "Venezuela",
    "iso2": "VE",
    "iso3": "VEN",
    "admin_name": "Lara",
    "capital": "minor",
    "population": "48764",
    "id": "1862592324"
  },
  {
    "city": "El Valle del Espíritu Santo",
    "city_ascii": "El Valle del Espiritu Santo",
    "lat": "10.9833",
    "lng": "-63.8833",
    "country": "Venezuela",
    "iso2": "VE",
    "iso3": "VEN",
    "admin_name": "Nueva Esparta",
    "capital": "minor",
    "population": "45606",
    "id": "1862517439"
  },
  {
    "city": "Santa Cruz de Los Taques",
    "city_ascii": "Santa Cruz de Los Taques",
    "lat": "11.8231",
    "lng": "-70.2535",
    "country": "Venezuela",
    "iso2": "VE",
    "iso3": "VEN",
    "admin_name": "Falcón",
    "capital": "minor",
    "population": "41579",
    "id": "1862415425"
  },
  {
    "city": "El Tocuyo",
    "city_ascii": "El Tocuyo",
    "lat": "9.7822",
    "lng": "-69.7931",
    "country": "Venezuela",
    "iso2": "VE",
    "iso3": "VEN",
    "admin_name": "Lara",
    "capital": "minor",
    "population": "41327",
    "id": "1862715800"
  },
  {
    "city": "Ciudad Piar",
    "city_ascii": "Ciudad Piar",
    "lat": "7.4522",
    "lng": "-63.3200",
    "country": "Venezuela",
    "iso2": "VE",
    "iso3": "VEN",
    "admin_name": "Bolívar",
    "capital": "minor",
    "population": "40918",
    "id": "1862507661"
  },
  {
    "city": "Altagracia de Orituco",
    "city_ascii": "Altagracia de Orituco",
    "lat": "9.8504",
    "lng": "-66.3800",
    "country": "Venezuela",
    "iso2": "VE",
    "iso3": "VEN",
    "admin_name": "Guárico",
    "capital": "minor",
    "population": "40052",
    "id": "1862533029"
  },
  {
    "city": "Ospino",
    "city_ascii": "Ospino",
    "lat": "9.3000",
    "lng": "-69.4500",
    "country": "Venezuela",
    "iso2": "VE",
    "iso3": "VEN",
    "admin_name": "Portuguesa",
    "capital": "minor",
    "population": "39215",
    "id": "1862899775"
  },
  {
    "city": "Colón",
    "city_ascii": "Colon",
    "lat": "8.0378",
    "lng": "-72.2519",
    "country": "Venezuela",
    "iso2": "VE",
    "iso3": "VEN",
    "admin_name": "Táchira",
    "capital": "minor",
    "population": "36925",
    "id": "1862928589"
  },
  {
    "city": "Santa Ana",
    "city_ascii": "Santa Ana",
    "lat": "7.6453",
    "lng": "-72.2758",
    "country": "Venezuela",
    "iso2": "VE",
    "iso3": "VEN",
    "admin_name": "Táchira",
    "capital": "minor",
    "population": "36925",
    "id": "1862776224"
  },
  {
    "city": "Caucagua",
    "city_ascii": "Caucagua",
    "lat": "10.2822",
    "lng": "-66.3772",
    "country": "Venezuela",
    "iso2": "VE",
    "iso3": "VEN",
    "admin_name": "Miranda",
    "capital": "minor",
    "population": "35000",
    "id": "1862601608"
  },
  {
    "city": "Santa Ana",
    "city_ascii": "Santa Ana",
    "lat": "11.0680",
    "lng": "-63.9221",
    "country": "Venezuela",
    "iso2": "VE",
    "iso3": "VEN",
    "admin_name": "Nueva Esparta",
    "capital": "minor",
    "population": "33435",
    "id": "1862533518"
  },
  {
    "city": "Macuro",
    "city_ascii": "Macuro",
    "lat": "10.6500",
    "lng": "-61.9333",
    "country": "Venezuela",
    "iso2": "VE",
    "iso3": "VEN",
    "admin_name": "Sucre",
    "capital": "",
    "population": "33621",
    "id": "1862222020"
  },
  {
    "city": "Puerto Cumarebo",
    "city_ascii": "Puerto Cumarebo",
    "lat": "11.4861",
    "lng": "-69.3503",
    "country": "Venezuela",
    "iso2": "VE",
    "iso3": "VEN",
    "admin_name": "Falcón",
    "capital": "minor",
    "population": "33166",
    "id": "1862046151"
  },
  {
    "city": "Las Mercedes",
    "city_ascii": "Las Mercedes",
    "lat": "8.5104",
    "lng": "-66.5030",
    "country": "Venezuela",
    "iso2": "VE",
    "iso3": "VEN",
    "admin_name": "Guárico",
    "capital": "minor",
    "population": "33025",
    "id": "1862558629"
  },
  {
    "city": "Santa Rita",
    "city_ascii": "Santa Rita",
    "lat": "10.5367",
    "lng": "-71.5108",
    "country": "Venezuela",
    "iso2": "VE",
    "iso3": "VEN",
    "admin_name": "Zulia",
    "capital": "minor",
    "population": "31810",
    "id": "1862676200"
  },
  {
    "city": "Santa Cruz",
    "city_ascii": "Santa Cruz",
    "lat": "10.1819",
    "lng": "-67.5025",
    "country": "Venezuela",
    "iso2": "VE",
    "iso3": "VEN",
    "admin_name": "Aragua",
    "capital": "minor",
    "population": "29773",
    "id": "1862293225"
  },
  {
    "city": "Guanta",
    "city_ascii": "Guanta",
    "lat": "10.2383",
    "lng": "-64.5917",
    "country": "Venezuela",
    "iso2": "VE",
    "iso3": "VEN",
    "admin_name": "Anzoátegui",
    "capital": "minor",
    "population": "30891",
    "id": "1862441134"
  },
  {
    "city": "Punceres",
    "city_ascii": "Punceres",
    "lat": "9.9661",
    "lng": "-63.1391",
    "country": "Venezuela",
    "iso2": "VE",
    "iso3": "VEN",
    "admin_name": "Monagas",
    "capital": "",
    "population": "27954",
    "id": "1862883655"
  },
  {
    "city": "Sabaneta",
    "city_ascii": "Sabaneta",
    "lat": "8.7522",
    "lng": "-69.9325",
    "country": "Venezuela",
    "iso2": "VE",
    "iso3": "VEN",
    "admin_name": "Barinas",
    "capital": "minor",
    "population": "27850",
    "id": "1862775956"
  },
  {
    "city": "Aragua de Barcelona",
    "city_ascii": "Aragua de Barcelona",
    "lat": "9.4575",
    "lng": "-64.8261",
    "country": "Venezuela",
    "iso2": "VE",
    "iso3": "VEN",
    "admin_name": "Anzoátegui",
    "capital": "minor",
    "population": "27000",
    "id": "1862505778"
  },
  {
    "city": "Puerto Píritu",
    "city_ascii": "Puerto Piritu",
    "lat": "10.0667",
    "lng": "-65.0500",
    "country": "Venezuela",
    "iso2": "VE",
    "iso3": "VEN",
    "admin_name": "Anzoátegui",
    "capital": "minor",
    "population": "25981",
    "id": "1862843143"
  },
  {
    "city": "Araira",
    "city_ascii": "Araira",
    "lat": "10.4525",
    "lng": "-66.4850",
    "country": "Venezuela",
    "iso2": "VE",
    "iso3": "VEN",
    "admin_name": "Miranda",
    "capital": "",
    "population": "25000",
    "id": "1862607333"
  },
  {
    "city": "Montalbán",
    "city_ascii": "Montalban",
    "lat": "10.2522",
    "lng": "-68.3019",
    "country": "Venezuela",
    "iso2": "VE",
    "iso3": "VEN",
    "admin_name": "Carabobo",
    "capital": "minor",
    "population": "24908",
    "id": "1862131171"
  },
  {
    "city": "Píritu",
    "city_ascii": "Piritu",
    "lat": "9.9178",
    "lng": "-65.0646",
    "country": "Venezuela",
    "iso2": "VE",
    "iso3": "VEN",
    "admin_name": "Anzoátegui",
    "capital": "minor",
    "population": "23248",
    "id": "1862835516"
  },
  {
    "city": "El Callao",
    "city_ascii": "El Callao",
    "lat": "7.3463",
    "lng": "-61.8271",
    "country": "Venezuela",
    "iso2": "VE",
    "iso3": "VEN",
    "admin_name": "Bolívar",
    "capital": "minor",
    "population": "21769",
    "id": "1862703627"
  },
  {
    "city": "La Colonia Tovar",
    "city_ascii": "La Colonia Tovar",
    "lat": "10.4056",
    "lng": "-67.2894",
    "country": "Venezuela",
    "iso2": "VE",
    "iso3": "VEN",
    "admin_name": "Aragua",
    "capital": "minor",
    "population": "21000",
    "id": "1862004978"
  },
  {
    "city": "La Esmeralda",
    "city_ascii": "La Esmeralda",
    "lat": "3.1739",
    "lng": "-65.5467",
    "country": "Venezuela",
    "iso2": "VE",
    "iso3": "VEN",
    "admin_name": "Amazonas",
    "capital": "minor",
    "population": "20030",
    "id": "1862255876"
  },
  {
    "city": "Chichiriviche",
    "city_ascii": "Chichiriviche",
    "lat": "10.9343",
    "lng": "-68.2771",
    "country": "Venezuela",
    "iso2": "VE",
    "iso3": "VEN",
    "admin_name": "Falcón",
    "capital": "minor",
    "population": "18960",
    "id": "1862197989"
  },
  {
    "city": "El Socorro",
    "city_ascii": "El Socorro",
    "lat": "8.9936",
    "lng": "-65.7456",
    "country": "Venezuela",
    "iso2": "VE",
    "iso3": "VEN",
    "admin_name": "Guárico",
    "capital": "minor",
    "population": "17097",
    "id": "1862016030"
  },
  {
    "city": "Barbacoas",
    "city_ascii": "Barbacoas",
    "lat": "9.4833",
    "lng": "-66.9761",
    "country": "Venezuela",
    "iso2": "VE",
    "iso3": "VEN",
    "admin_name": "Aragua",
    "capital": "minor",
    "population": "16469",
    "id": "1862577336"
  },
  {
    "city": "El Palmar",
    "city_ascii": "El Palmar",
    "lat": "8.0244",
    "lng": "-61.8819",
    "country": "Venezuela",
    "iso2": "VE",
    "iso3": "VEN",
    "admin_name": "Bolívar",
    "capital": "minor",
    "population": "15521",
    "id": "1862731321"
  },
  {
    "city": "Clarines",
    "city_ascii": "Clarines",
    "lat": "9.9433",
    "lng": "-65.1661",
    "country": "Venezuela",
    "iso2": "VE",
    "iso3": "VEN",
    "admin_name": "Anzoátegui",
    "capital": "minor",
    "population": "15000",
    "id": "1862292462"
  },
  {
    "city": "Chaguaramas",
    "city_ascii": "Chaguaramas",
    "lat": "9.3333",
    "lng": "-66.2667",
    "country": "Venezuela",
    "iso2": "VE",
    "iso3": "VEN",
    "admin_name": "Guárico",
    "capital": "minor",
    "population": "15000",
    "id": "1862406127"
  },
  {
    "city": "Cojedes",
    "city_ascii": "Cojedes",
    "lat": "9.6167",
    "lng": "-68.9167",
    "country": "Venezuela",
    "iso2": "VE",
    "iso3": "VEN",
    "admin_name": "Cojedes",
    "capital": "minor",
    "population": "14044",
    "id": "1862336998"
  },
  {
    "city": "Tucacas",
    "city_ascii": "Tucacas",
    "lat": "10.7978",
    "lng": "-68.3175",
    "country": "Venezuela",
    "iso2": "VE",
    "iso3": "VEN",
    "admin_name": "Falcón",
    "capital": "minor",
    "population": "13901",
    "id": "1862663213"
  },
  {
    "city": "Río Caribe",
    "city_ascii": "Rio Caribe",
    "lat": "10.7008",
    "lng": "-63.1086",
    "country": "Venezuela",
    "iso2": "VE",
    "iso3": "VEN",
    "admin_name": "Sucre",
    "capital": "minor",
    "population": "13667",
    "id": "1862329516"
  },
  {
    "city": "Santa María de Ipire",
    "city_ascii": "Santa Maria de Ipire",
    "lat": "8.6638",
    "lng": "-65.3563",
    "country": "Venezuela",
    "iso2": "VE",
    "iso3": "VEN",
    "admin_name": "Guárico",
    "capital": "minor",
    "population": "13161",
    "id": "1862961193"
  },
  {
    "city": "San Mateo",
    "city_ascii": "San Mateo",
    "lat": "9.7400",
    "lng": "-64.5531",
    "country": "Venezuela",
    "iso2": "VE",
    "iso3": "VEN",
    "admin_name": "Anzoátegui",
    "capital": "minor",
    "population": "12905",
    "id": "1862621121"
  },
  {
    "city": "Isla Ratón",
    "city_ascii": "Isla Raton",
    "lat": "5.1311",
    "lng": "-67.8106",
    "country": "Venezuela",
    "iso2": "VE",
    "iso3": "VEN",
    "admin_name": "Amazonas",
    "capital": "minor",
    "population": "12612",
    "id": "1862486831"
  },
  {
    "city": "Sarare",
    "city_ascii": "Sarare",
    "lat": "9.7839",
    "lng": "-69.1611",
    "country": "Venezuela",
    "iso2": "VE",
    "iso3": "VEN",
    "admin_name": "Lara",
    "capital": "minor",
    "population": "12535",
    "id": "1862461339"
  },
  {
    "city": "Aguasay",
    "city_ascii": "Aguasay",
    "lat": "9.3203",
    "lng": "-63.6411",
    "country": "Venezuela",
    "iso2": "VE",
    "iso3": "VEN",
    "admin_name": "Monagas",
    "capital": "minor",
    "population": "11856",
    "id": "1862003602"
  },
  {
    "city": "San José de Guaribe",
    "city_ascii": "San Jose de Guaribe",
    "lat": "9.7930",
    "lng": "-65.8418",
    "country": "Venezuela",
    "iso2": "VE",
    "iso3": "VEN",
    "admin_name": "Guárico",
    "capital": "minor",
    "population": "11426",
    "id": "1862268251"
  },
  {
    "city": "Onoto",
    "city_ascii": "Onoto",
    "lat": "9.5958",
    "lng": "-65.1897",
    "country": "Venezuela",
    "iso2": "VE",
    "iso3": "VEN",
    "admin_name": "Anzoátegui",
    "capital": "minor",
    "population": "11378",
    "id": "1862162566"
  },
  {
    "city": "San José de Aerocuar",
    "city_ascii": "San Jose de Aerocuar",
    "lat": "10.6027",
    "lng": "-63.3273",
    "country": "Venezuela",
    "iso2": "VE",
    "iso3": "VEN",
    "admin_name": "Sucre",
    "capital": "minor",
    "population": "11162",
    "id": "1862054804"
  },
  {
    "city": "Santa Bárbara",
    "city_ascii": "Santa Barbara",
    "lat": "9.6000",
    "lng": "-63.6000",
    "country": "Venezuela",
    "iso2": "VE",
    "iso3": "VEN",
    "admin_name": "Monagas",
    "capital": "minor",
    "population": "9809",
    "id": "1862125040"
  },
  {
    "city": "Santa Ana",
    "city_ascii": "Santa Ana",
    "lat": "9.2444",
    "lng": "-64.6353",
    "country": "Venezuela",
    "iso2": "VE",
    "iso3": "VEN",
    "admin_name": "Anzoátegui",
    "capital": "minor",
    "population": "9636",
    "id": "1862862698"
  },
  {
    "city": "Uracoa",
    "city_ascii": "Uracoa",
    "lat": "8.9129",
    "lng": "-62.3508",
    "country": "Venezuela",
    "iso2": "VE",
    "iso3": "VEN",
    "admin_name": "Monagas",
    "capital": "minor",
    "population": "9625",
    "id": "1862113376"
  },
  {
    "city": "El Dorado",
    "city_ascii": "El Dorado",
    "lat": "6.7167",
    "lng": "-61.6167",
    "country": "Venezuela",
    "iso2": "VE",
    "iso3": "VEN",
    "admin_name": "Bolívar",
    "capital": "",
    "population": "2383",
    "id": "1862242782"
  },
  {
    "city": "El Manteco",
    "city_ascii": "El Manteco",
    "lat": "7.3483",
    "lng": "-62.5395",
    "country": "Venezuela",
    "iso2": "VE",
    "iso3": "VEN",
    "admin_name": "Bolívar",
    "capital": "",
    "population": "2215",
    "id": "1862113510"
  }
]