[
  {
    "city": "Tegucigalpa",
    "city_ascii": "Tegucigalpa",
    "lat": "14.1000",
    "lng": "-87.2167",
    "country": "Honduras",
    "iso2": "HN",
    "iso3": "HND",
    "admin_name": "Francisco Morazán",
    "capital": "primary",
    "population": "1682725",
    "id": "1340344059"
  },
  {
    "city": "Comayagüela",
    "city_ascii": "Comayaguela",
    "lat": "14.0981",
    "lng": "-87.2097",
    "country": "Honduras",
    "iso2": "HN",
    "iso3": "HND",
    "admin_name": "Francisco Morazán",
    "capital": "",
    "population": "1250000",
    "id": "1340762485"
  },
  {
    "city": "San Pedro Sula",
    "city_ascii": "San Pedro Sula",
    "lat": "15.5000",
    "lng": "-88.0333",
    "country": "Honduras",
    "iso2": "HN",
    "iso3": "HND",
    "admin_name": "Cortés",
    "capital": "admin",
    "population": "760182",
    "id": "1340568412"
  },
  {
    "city": "Choloma",
    "city_ascii": "Choloma",
    "lat": "15.6136",
    "lng": "-87.9511",
    "country": "Honduras",
    "iso2": "HN",
    "iso3": "HND",
    "admin_name": "Cortés",
    "capital": "",
    "population": "227535",
    "id": "1340125981"
  },
  {
    "city": "La Ceiba",
    "city_ascii": "La Ceiba",
    "lat": "15.7792",
    "lng": "-86.7931",
    "country": "Honduras",
    "iso2": "HN",
    "iso3": "HND",
    "admin_name": "Atlántida",
    "capital": "admin",
    "population": "205775",
    "id": "1340870189"
  },
  {
    "city": "El Progreso",
    "city_ascii": "El Progreso",
    "lat": "15.4000",
    "lng": "-87.8000",
    "country": "Honduras",
    "iso2": "HN",
    "iso3": "HND",
    "admin_name": "Yoro",
    "capital": "",
    "population": "188366",
    "id": "1340231948"
  },
  {
    "city": "Villanueva",
    "city_ascii": "Villanueva",
    "lat": "15.3167",
    "lng": "-88.0167",
    "country": "Honduras",
    "iso2": "HN",
    "iso3": "HND",
    "admin_name": "Cortés",
    "capital": "",
    "population": "153733",
    "id": "1340079427"
  },
  {
    "city": "Ciudad Choluteca",
    "city_ascii": "Ciudad Choluteca",
    "lat": "13.3011",
    "lng": "-87.1842",
    "country": "Honduras",
    "iso2": "HN",
    "iso3": "HND",
    "admin_name": "Choluteca",
    "capital": "admin",
    "population": "152519",
    "id": "1340256619"
  },
  {
    "city": "Comayagua",
    "city_ascii": "Comayagua",
    "lat": "14.4522",
    "lng": "-87.6383",
    "country": "Honduras",
    "iso2": "HN",
    "iso3": "HND",
    "admin_name": "Comayagua",
    "capital": "admin",
    "population": "144785",
    "id": "1340015594"
  },
  {
    "city": "Juticalpa",
    "city_ascii": "Juticalpa",
    "lat": "14.6664",
    "lng": "-86.2186",
    "country": "Honduras",
    "iso2": "HN",
    "iso3": "HND",
    "admin_name": "Olancho",
    "capital": "admin",
    "population": "124828",
    "id": "1340411203"
  },
  {
    "city": "Puerto Cortés",
    "city_ascii": "Puerto Cortes",
    "lat": "15.8833",
    "lng": "-87.9500",
    "country": "Honduras",
    "iso2": "HN",
    "iso3": "HND",
    "admin_name": "Cortés",
    "capital": "",
    "population": "122426",
    "id": "1340000062"
  },
  {
    "city": "Catacamas",
    "city_ascii": "Catacamas",
    "lat": "14.8486",
    "lng": "-85.8942",
    "country": "Honduras",
    "iso2": "HN",
    "iso3": "HND",
    "admin_name": "Olancho",
    "capital": "",
    "population": "117493",
    "id": "1340898308"
  },
  {
    "city": "Olanchito",
    "city_ascii": "Olanchito",
    "lat": "15.4833",
    "lng": "-86.5833",
    "country": "Honduras",
    "iso2": "HN",
    "iso3": "HND",
    "admin_name": "Yoro",
    "capital": "",
    "population": "104609",
    "id": "1340362964"
  },
  {
    "city": "Yoro",
    "city_ascii": "Yoro",
    "lat": "15.1333",
    "lng": "-87.1333",
    "country": "Honduras",
    "iso2": "HN",
    "iso3": "HND",
    "admin_name": "Yoro",
    "capital": "admin",
    "population": "86665",
    "id": "1340638121"
  },
  {
    "city": "Santa Rosa de Copán",
    "city_ascii": "Santa Rosa de Copan",
    "lat": "14.7667",
    "lng": "-88.7833",
    "country": "Honduras",
    "iso2": "HN",
    "iso3": "HND",
    "admin_name": "Copán",
    "capital": "admin",
    "population": "61083",
    "id": "1340050563"
  },
  {
    "city": "Trujillo",
    "city_ascii": "Trujillo",
    "lat": "15.9186",
    "lng": "-85.9533",
    "country": "Honduras",
    "iso2": "HN",
    "iso3": "HND",
    "admin_name": "Colón",
    "capital": "admin",
    "population": "60558",
    "id": "1340756106"
  },
  {
    "city": "Nacaome",
    "city_ascii": "Nacaome",
    "lat": "13.5333",
    "lng": "-87.4833",
    "country": "Honduras",
    "iso2": "HN",
    "iso3": "HND",
    "admin_name": "Valle",
    "capital": "admin",
    "population": "57345",
    "id": "1340964186"
  },
  {
    "city": "Gracias",
    "city_ascii": "Gracias",
    "lat": "14.5833",
    "lng": "-88.5833",
    "country": "Honduras",
    "iso2": "HN",
    "iso3": "HND",
    "admin_name": "Lempira",
    "capital": "admin",
    "population": "50256",
    "id": "1340141391"
  },
  {
    "city": "Puerto Lempira",
    "city_ascii": "Puerto Lempira",
    "lat": "15.2653",
    "lng": "-83.7744",
    "country": "Honduras",
    "iso2": "HN",
    "iso3": "HND",
    "admin_name": "Gracias a Dios",
    "capital": "admin",
    "population": "47528",
    "id": "1340110055"
  },
  {
    "city": "La Paz",
    "city_ascii": "La Paz",
    "lat": "14.3169",
    "lng": "-87.6831",
    "country": "Honduras",
    "iso2": "HN",
    "iso3": "HND",
    "admin_name": "La Paz",
    "capital": "admin",
    "population": "43980",
    "id": "1340290947"
  },
  {
    "city": "Santa Bárbara",
    "city_ascii": "Santa Barbara",
    "lat": "14.9167",
    "lng": "-88.2333",
    "country": "Honduras",
    "iso2": "HN",
    "iso3": "HND",
    "admin_name": "Santa Bárbara",
    "capital": "admin",
    "population": "41736",
    "id": "1340312026"
  },
  {
    "city": "La Esperanza",
    "city_ascii": "La Esperanza",
    "lat": "14.3000",
    "lng": "-88.1833",
    "country": "Honduras",
    "iso2": "HN",
    "iso3": "HND",
    "admin_name": "Intibucá",
    "capital": "admin",
    "population": "21000",
    "id": "1340614286"
  },
  {
    "city": "Yuscarán",
    "city_ascii": "Yuscaran",
    "lat": "13.9417",
    "lng": "-86.8519",
    "country": "Honduras",
    "iso2": "HN",
    "iso3": "HND",
    "admin_name": "El Paraíso",
    "capital": "admin",
    "population": "14144",
    "id": "1340315181"
  },
  {
    "city": "Roatán",
    "city_ascii": "Roatan",
    "lat": "16.3230",
    "lng": "-86.5370",
    "country": "Honduras",
    "iso2": "HN",
    "iso3": "HND",
    "admin_name": "Islas de la Bahía",
    "capital": "admin",
    "population": "7514",
    "id": "1340163370"
  },
  {
    "city": "Nueva Ocotepeque",
    "city_ascii": "Nueva Ocotepeque",
    "lat": "14.4333",
    "lng": "-89.1833",
    "country": "Honduras",
    "iso2": "HN",
    "iso3": "HND",
    "admin_name": "Ocotepeque",
    "capital": "admin",
    "population": "8780",
    "id": "1340380637"
  },
  {
    "city": "Tela",
    "city_ascii": "Tela",
    "lat": "15.7833",
    "lng": "-87.4667",
    "country": "Honduras",
    "iso2": "HN",
    "iso3": "HND",
    "admin_name": "Atlántida",
    "capital": "",
    "population": "96758",
    "id": "1340789148"
  },
  {
    "city": "Siguatepeque",
    "city_ascii": "Siguatepeque",
    "lat": "14.6000",
    "lng": "-87.8333",
    "country": "Honduras",
    "iso2": "HN",
    "iso3": "HND",
    "admin_name": "Comayagua",
    "capital": "",
    "population": "95121",
    "id": "1340354793"
  },
  {
    "city": "Danlí",
    "city_ascii": "Danli",
    "lat": "14.0328",
    "lng": "-86.5669",
    "country": "Honduras",
    "iso2": "HN",
    "iso3": "HND",
    "admin_name": "El Paraíso",
    "capital": "",
    "population": "88722",
    "id": "1340108771"
  },
  {
    "city": "Tocoa",
    "city_ascii": "Tocoa",
    "lat": "15.6833",
    "lng": "-86.0000",
    "country": "Honduras",
    "iso2": "HN",
    "iso3": "HND",
    "admin_name": "Colón",
    "capital": "",
    "population": "72847",
    "id": "1340024758"
  },
  {
    "city": "La Lima",
    "city_ascii": "La Lima",
    "lat": "15.4330",
    "lng": "-87.9170",
    "country": "Honduras",
    "iso2": "HN",
    "iso3": "HND",
    "admin_name": "Cortés",
    "capital": "",
    "population": "71910",
    "id": "1340766612"
  },
  {
    "city": "Intibucá",
    "city_ascii": "Intibuca",
    "lat": "14.3167",
    "lng": "-88.1667",
    "country": "Honduras",
    "iso2": "HN",
    "iso3": "HND",
    "admin_name": "Intibucá",
    "capital": "",
    "population": "56017",
    "id": "1340620843"
  },
  {
    "city": "San Manuel",
    "city_ascii": "San Manuel",
    "lat": "15.3333",
    "lng": "-87.9167",
    "country": "Honduras",
    "iso2": "HN",
    "iso3": "HND",
    "admin_name": "Cortés",
    "capital": "",
    "population": "53083",
    "id": "1340778630"
  },
  {
    "city": "San Lorenzo",
    "city_ascii": "San Lorenzo",
    "lat": "13.4217",
    "lng": "-87.4469",
    "country": "Honduras",
    "iso2": "HN",
    "iso3": "HND",
    "admin_name": "Valle",
    "capital": "",
    "population": "43042",
    "id": "1340596273"
  },
  {
    "city": "Copán",
    "city_ascii": "Copan",
    "lat": "14.8375",
    "lng": "-89.1425",
    "country": "Honduras",
    "iso2": "HN",
    "iso3": "HND",
    "admin_name": "Copán",
    "capital": "",
    "population": "41542",
    "id": "1340766034"
  },
  {
    "city": "Talanga",
    "city_ascii": "Talanga",
    "lat": "14.4047",
    "lng": "-87.0817",
    "country": "Honduras",
    "iso2": "HN",
    "iso3": "HND",
    "admin_name": "Francisco Morazán",
    "capital": "",
    "population": "34997",
    "id": "1340622146"
  },
  {
    "city": "Santa Rita",
    "city_ascii": "Santa Rita",
    "lat": "14.8667",
    "lng": "-89.1000",
    "country": "Honduras",
    "iso2": "HN",
    "iso3": "HND",
    "admin_name": "Copán",
    "capital": "",
    "population": "29927",
    "id": "1340516072"
  },
  {
    "city": "Bonito Oriental",
    "city_ascii": "Bonito Oriental",
    "lat": "15.7333",
    "lng": "-85.7333",
    "country": "Honduras",
    "iso2": "HN",
    "iso3": "HND",
    "admin_name": "Colón",
    "capital": "",
    "population": "28427",
    "id": "1340343332"
  },
  {
    "city": "Guaimaca",
    "city_ascii": "Guaimaca",
    "lat": "14.5333",
    "lng": "-86.8167",
    "country": "Honduras",
    "iso2": "HN",
    "iso3": "HND",
    "admin_name": "Francisco Morazán",
    "capital": "",
    "population": "28076",
    "id": "1340628932"
  },
  {
    "city": "Potrerillos",
    "city_ascii": "Potrerillos",
    "lat": "15.2167",
    "lng": "-87.9500",
    "country": "Honduras",
    "iso2": "HN",
    "iso3": "HND",
    "admin_name": "Cortés",
    "capital": "",
    "population": "25960",
    "id": "1340725749"
  },
  {
    "city": "Cedros",
    "city_ascii": "Cedros",
    "lat": "14.6000",
    "lng": "-87.1167",
    "country": "Honduras",
    "iso2": "HN",
    "iso3": "HND",
    "admin_name": "Francisco Morazán",
    "capital": "",
    "population": "24305",
    "id": "1340514859"
  },
  {
    "city": "Iriona",
    "city_ascii": "Iriona",
    "lat": "15.9694",
    "lng": "-85.0933",
    "country": "Honduras",
    "iso2": "HN",
    "iso3": "HND",
    "admin_name": "Colón",
    "capital": "",
    "population": "20730",
    "id": "1340981910"
  },
  {
    "city": "Santa Rita",
    "city_ascii": "Santa Rita",
    "lat": "15.2000",
    "lng": "-87.8833",
    "country": "Honduras",
    "iso2": "HN",
    "iso3": "HND",
    "admin_name": "Yoro",
    "capital": "",
    "population": "20301",
    "id": "1340894551"
  },
  {
    "city": "Azacualpa",
    "city_ascii": "Azacualpa",
    "lat": "15.3667",
    "lng": "-88.5500",
    "country": "Honduras",
    "iso2": "HN",
    "iso3": "HND",
    "admin_name": "Santa Bárbara",
    "capital": "",
    "population": "20210",
    "id": "1340612681"
  },
  {
    "city": "San Marcos",
    "city_ascii": "San Marcos",
    "lat": "14.4000",
    "lng": "-88.9500",
    "country": "Honduras",
    "iso2": "HN",
    "iso3": "HND",
    "admin_name": "Ocotepeque",
    "capital": "",
    "population": "19978",
    "id": "1340516781"
  },
  {
    "city": "El Paraíso",
    "city_ascii": "El Paraiso",
    "lat": "15.0167",
    "lng": "-88.9833",
    "country": "Honduras",
    "iso2": "HN",
    "iso3": "HND",
    "admin_name": "Copán",
    "capital": "",
    "population": "19882",
    "id": "1340000059"
  },
  {
    "city": "Campamento",
    "city_ascii": "Campamento",
    "lat": "14.5500",
    "lng": "-86.6500",
    "country": "Honduras",
    "iso2": "HN",
    "iso3": "HND",
    "admin_name": "Olancho",
    "capital": "",
    "population": "19832",
    "id": "1340615985"
  },
  {
    "city": "Cofradía",
    "city_ascii": "Cofradia",
    "lat": "15.4168",
    "lng": "-88.1603",
    "country": "Honduras",
    "iso2": "HN",
    "iso3": "HND",
    "admin_name": "Cortés",
    "capital": "",
    "population": "18100",
    "id": "1340899741"
  },
  {
    "city": "Sulaco",
    "city_ascii": "Sulaco",
    "lat": "14.9167",
    "lng": "-87.2667",
    "country": "Honduras",
    "iso2": "HN",
    "iso3": "HND",
    "admin_name": "Yoro",
    "capital": "",
    "population": "17509",
    "id": "1340801499"
  },
  {
    "city": "Santa Ana",
    "city_ascii": "Santa Ana",
    "lat": "13.9333",
    "lng": "-87.2667",
    "country": "Honduras",
    "iso2": "HN",
    "iso3": "HND",
    "admin_name": "Francisco Morazán",
    "capital": "",
    "population": "16009",
    "id": "1340709645"
  },
  {
    "city": "Yorito",
    "city_ascii": "Yorito",
    "lat": "15.0600",
    "lng": "-87.2900",
    "country": "Honduras",
    "iso2": "HN",
    "iso3": "HND",
    "admin_name": "Yoro",
    "capital": "",
    "population": "15774",
    "id": "1340550354"
  },
  {
    "city": "Guajiquiro",
    "city_ascii": "Guajiquiro",
    "lat": "14.1000",
    "lng": "-87.8333",
    "country": "Honduras",
    "iso2": "HN",
    "iso3": "HND",
    "admin_name": "La Paz",
    "capital": "",
    "population": "14616",
    "id": "1340570749"
  },
  {
    "city": "San Francisco",
    "city_ascii": "San Francisco",
    "lat": "15.6667",
    "lng": "-87.0333",
    "country": "Honduras",
    "iso2": "HN",
    "iso3": "HND",
    "admin_name": "Atlántida",
    "capital": "",
    "population": "14559",
    "id": "1340403835"
  },
  {
    "city": "La Entrada",
    "city_ascii": "La Entrada",
    "lat": "15.0500",
    "lng": "-88.7333",
    "country": "Honduras",
    "iso2": "HN",
    "iso3": "HND",
    "admin_name": "Copán",
    "capital": "",
    "population": "13949",
    "id": "1340911070"
  },
  {
    "city": "San Rafael",
    "city_ascii": "San Rafael",
    "lat": "14.7333",
    "lng": "-88.4167",
    "country": "Honduras",
    "iso2": "HN",
    "iso3": "HND",
    "admin_name": "Lempira",
    "capital": "",
    "population": "13410",
    "id": "1340725432"
  },
  {
    "city": "San Juan",
    "city_ascii": "San Juan",
    "lat": "14.4167",
    "lng": "-88.4333",
    "country": "Honduras",
    "iso2": "HN",
    "iso3": "HND",
    "admin_name": "Intibucá",
    "capital": "",
    "population": "13405",
    "id": "1340811694"
  },
  {
    "city": "Brus Laguna",
    "city_ascii": "Brus Laguna",
    "lat": "15.7500",
    "lng": "-84.4833",
    "country": "Honduras",
    "iso2": "HN",
    "iso3": "HND",
    "admin_name": "Gracias a Dios",
    "capital": "",
    "population": "12720",
    "id": "1340003428"
  },
  {
    "city": "Santa Elena",
    "city_ascii": "Santa Elena",
    "lat": "14.0833",
    "lng": "-88.1167",
    "country": "Honduras",
    "iso2": "HN",
    "iso3": "HND",
    "admin_name": "La Paz",
    "capital": "",
    "population": "12162",
    "id": "1340947975"
  },
  {
    "city": "Santa Ana",
    "city_ascii": "Santa Ana",
    "lat": "14.0667",
    "lng": "-87.9500",
    "country": "Honduras",
    "iso2": "HN",
    "iso3": "HND",
    "admin_name": "La Paz",
    "capital": "",
    "population": "11777",
    "id": "1340290490"
  },
  {
    "city": "Gualcince",
    "city_ascii": "Gualcince",
    "lat": "14.1167",
    "lng": "-88.5500",
    "country": "Honduras",
    "iso2": "HN",
    "iso3": "HND",
    "admin_name": "Lempira",
    "capital": "",
    "population": "11295",
    "id": "1340233884"
  },
  {
    "city": "La Jigua",
    "city_ascii": "La Jigua",
    "lat": "15.0333",
    "lng": "-88.8000",
    "country": "Honduras",
    "iso2": "HN",
    "iso3": "HND",
    "admin_name": "Copán",
    "capital": "",
    "population": "9288",
    "id": "1340297828"
  },
  {
    "city": "San Francisco",
    "city_ascii": "San Francisco",
    "lat": "14.1167",
    "lng": "-88.3667",
    "country": "Honduras",
    "iso2": "HN",
    "iso3": "HND",
    "admin_name": "Lempira",
    "capital": "",
    "population": "9017",
    "id": "1340590673"
  },
  {
    "city": "San Ignacio",
    "city_ascii": "San Ignacio",
    "lat": "14.6500",
    "lng": "-87.0333",
    "country": "Honduras",
    "iso2": "HN",
    "iso3": "HND",
    "admin_name": "Francisco Morazán",
    "capital": "",
    "population": "8796",
    "id": "1340809113"
  },
  {
    "city": "Marale",
    "city_ascii": "Marale",
    "lat": "14.9167",
    "lng": "-87.0350",
    "country": "Honduras",
    "iso2": "HN",
    "iso3": "HND",
    "admin_name": "Francisco Morazán",
    "capital": "",
    "population": "9170",
    "id": "1340172200"
  }
]