[
  {
    "city": "Dar es Salaam",
    "city_ascii": "Dar es Salaam",
    "lat": "-6.8161",
    "lng": "39.2803",
    "country": "Tanzania",
    "iso2": "TZ",
    "iso3": "TZA",
    "admin_name": "Dar es Salaam",
    "capital": "primary",
    "population": "7962000",
    "id": "1834843853"
  },
  {
    "city": "Dodoma",
    "city_ascii": "Dodoma",
    "lat": "-6.1731",
    "lng": "35.7419",
    "country": "Tanzania",
    "iso2": "TZ",
    "iso3": "TZA",
    "admin_name": "Dodoma",
    "capital": "primary",
    "population": "213636",
    "id": "1834288497"
  },
  {
    "city": "Mwanza",
    "city_ascii": "Mwanza",
    "lat": "-2.5167",
    "lng": "32.9000",
    "country": "Tanzania",
    "iso2": "TZ",
    "iso3": "TZA",
    "admin_name": "Mwanza",
    "capital": "admin",
    "population": "706453",
    "id": "1834011288"
  },
  {
    "city": "Mbeya",
    "city_ascii": "Mbeya",
    "lat": "-8.9000",
    "lng": "33.4500",
    "country": "Tanzania",
    "iso2": "TZ",
    "iso3": "TZA",
    "admin_name": "Mbeya",
    "capital": "admin",
    "population": "467000",
    "id": "1834396594"
  },
  {
    "city": "Arusha",
    "city_ascii": "Arusha",
    "lat": "-3.3667",
    "lng": "36.6833",
    "country": "Tanzania",
    "iso2": "TZ",
    "iso3": "TZA",
    "admin_name": "Arusha",
    "capital": "admin",
    "population": "416442",
    "id": "1834484937"
  },
  {
    "city": "Tanga",
    "city_ascii": "Tanga",
    "lat": "-5.0667",
    "lng": "39.1000",
    "country": "Tanzania",
    "iso2": "TZ",
    "iso3": "TZA",
    "admin_name": "Tanga",
    "capital": "admin",
    "population": "243580",
    "id": "1834004568"
  },
  {
    "city": "Kasulu",
    "city_ascii": "Kasulu",
    "lat": "-4.5800",
    "lng": "30.1000",
    "country": "Tanzania",
    "iso2": "TZ",
    "iso3": "TZA",
    "admin_name": "Kigoma",
    "capital": "",
    "population": "234452",
    "id": "1834918111"
  },
  {
    "city": "Morogoro",
    "city_ascii": "Morogoro",
    "lat": "-6.8242",
    "lng": "37.6633",
    "country": "Tanzania",
    "iso2": "TZ",
    "iso3": "TZA",
    "admin_name": "Morogoro",
    "capital": "admin",
    "population": "207000",
    "id": "1834185429"
  },
  {
    "city": "Zanzibar",
    "city_ascii": "Zanzibar",
    "lat": "-6.1650",
    "lng": "39.1990",
    "country": "Tanzania",
    "iso2": "TZ",
    "iso3": "TZA",
    "admin_name": "Zanzibar Urban/West",
    "capital": "admin",
    "population": "205870",
    "id": "1834823848"
  },
  {
    "city": "Tabora",
    "city_ascii": "Tabora",
    "lat": "-5.0167",
    "lng": "32.8000",
    "country": "Tanzania",
    "iso2": "TZ",
    "iso3": "TZA",
    "admin_name": "Tabora",
    "capital": "admin",
    "population": "160608",
    "id": "1834712235"
  },
  {
    "city": "Bariadi",
    "city_ascii": "Bariadi",
    "lat": "-2.7919",
    "lng": "33.9894",
    "country": "Tanzania",
    "iso2": "TZ",
    "iso3": "TZA",
    "admin_name": "Simiyu",
    "capital": "admin",
    "population": "155620",
    "id": "1834546025"
  },
  {
    "city": "Iringa",
    "city_ascii": "Iringa",
    "lat": "-7.7700",
    "lng": "35.6900",
    "country": "Tanzania",
    "iso2": "TZ",
    "iso3": "TZA",
    "admin_name": "Iringa",
    "capital": "admin",
    "population": "151345",
    "id": "1834453478"
  },
  {
    "city": "Singida",
    "city_ascii": "Singida",
    "lat": "-4.8167",
    "lng": "34.7500",
    "country": "Tanzania",
    "iso2": "TZ",
    "iso3": "TZA",
    "admin_name": "Singida",
    "capital": "admin",
    "population": "150379",
    "id": "1834418526"
  },
  {
    "city": "Sumbawanga",
    "city_ascii": "Sumbawanga",
    "lat": "-7.9667",
    "lng": "31.6167",
    "country": "Tanzania",
    "iso2": "TZ",
    "iso3": "TZA",
    "admin_name": "Rukwa",
    "capital": "admin",
    "population": "147483",
    "id": "1834684278"
  },
  {
    "city": "Moshi",
    "city_ascii": "Moshi",
    "lat": "-3.3349",
    "lng": "37.3404",
    "country": "Tanzania",
    "iso2": "TZ",
    "iso3": "TZA",
    "admin_name": "Kilimanjaro",
    "capital": "admin",
    "population": "144739",
    "id": "1834217168"
  },
  {
    "city": "Bukoba",
    "city_ascii": "Bukoba",
    "lat": "-1.3333",
    "lng": "31.8167",
    "country": "Tanzania",
    "iso2": "TZ",
    "iso3": "TZA",
    "admin_name": "Kagera",
    "capital": "admin",
    "population": "128796",
    "id": "1834433264"
  },
  {
    "city": "Kigoma",
    "city_ascii": "Kigoma",
    "lat": "-4.8833",
    "lng": "29.6333",
    "country": "Tanzania",
    "iso2": "TZ",
    "iso3": "TZA",
    "admin_name": "Kigoma",
    "capital": "admin",
    "population": "135234",
    "id": "1834583327"
  },
  {
    "city": "Kibaha",
    "city_ascii": "Kibaha",
    "lat": "-6.7667",
    "lng": "38.9167",
    "country": "Tanzania",
    "iso2": "TZ",
    "iso3": "TZA",
    "admin_name": "Coast",
    "capital": "admin",
    "population": "128488",
    "id": "1834065400"
  },
  {
    "city": "Tukuyu",
    "city_ascii": "Tukuyu",
    "lat": "-9.2500",
    "lng": "33.6500",
    "country": "Tanzania",
    "iso2": "TZ",
    "iso3": "TZA",
    "admin_name": "Mbeya",
    "capital": "",
    "population": "127570",
    "id": "1834960117"
  },
  {
    "city": "Shinyanga",
    "city_ascii": "Shinyanga",
    "lat": "-3.6619",
    "lng": "33.4231",
    "country": "Tanzania",
    "iso2": "TZ",
    "iso3": "TZA",
    "admin_name": "Shinyanga",
    "capital": "admin",
    "population": "107362",
    "id": "1834972707"
  },
  {
    "city": "Musoma",
    "city_ascii": "Musoma",
    "lat": "-1.5000",
    "lng": "33.8000",
    "country": "Tanzania",
    "iso2": "TZ",
    "iso3": "TZA",
    "admin_name": "Mara",
    "capital": "admin",
    "population": "103497",
    "id": "1834100025"
  },
  {
    "city": "Songea",
    "city_ascii": "Songea",
    "lat": "-10.6833",
    "lng": "35.6500",
    "country": "Tanzania",
    "iso2": "TZ",
    "iso3": "TZA",
    "admin_name": "Ruvuma",
    "capital": "admin",
    "population": "99961",
    "id": "1834461509"
  },
  {
    "city": "Geita",
    "city_ascii": "Geita",
    "lat": "-2.8714",
    "lng": "32.2294",
    "country": "Tanzania",
    "iso2": "TZ",
    "iso3": "TZA",
    "admin_name": "Geita",
    "capital": "admin",
    "population": "99795",
    "id": "1834469543"
  },
  {
    "city": "Mtwara",
    "city_ascii": "Mtwara",
    "lat": "-10.2736",
    "lng": "40.1828",
    "country": "Tanzania",
    "iso2": "TZ",
    "iso3": "TZA",
    "admin_name": "Mtwara",
    "capital": "admin",
    "population": "92602",
    "id": "1834044142"
  },
  {
    "city": "Mpanda",
    "city_ascii": "Mpanda",
    "lat": "-6.3500",
    "lng": "31.0667",
    "country": "Tanzania",
    "iso2": "TZ",
    "iso3": "TZA",
    "admin_name": "Katavi",
    "capital": "admin",
    "population": "81540",
    "id": "1834127573"
  },
  {
    "city": "Handeni",
    "city_ascii": "Handeni",
    "lat": "-5.4242",
    "lng": "38.0194",
    "country": "Tanzania",
    "iso2": "TZ",
    "iso3": "TZA",
    "admin_name": "Tanga",
    "capital": "",
    "population": "79056",
    "id": "1834479617"
  },
  {
    "city": "Chake Chake",
    "city_ascii": "Chake Chake",
    "lat": "-5.2395",
    "lng": "39.7700",
    "country": "Tanzania",
    "iso2": "TZ",
    "iso3": "TZA",
    "admin_name": "Pemba South",
    "capital": "admin",
    "population": "49959",
    "id": "1834409018"
  },
  {
    "city": "Njombe",
    "city_ascii": "Njombe",
    "lat": "-9.3333",
    "lng": "34.7667",
    "country": "Tanzania",
    "iso2": "TZ",
    "iso3": "TZA",
    "admin_name": "Njombe",
    "capital": "admin",
    "population": "46724",
    "id": "1834328362"
  },
  {
    "city": "Lindi",
    "city_ascii": "Lindi",
    "lat": "-9.9969",
    "lng": "39.7144",
    "country": "Tanzania",
    "iso2": "TZ",
    "iso3": "TZA",
    "admin_name": "Lindi",
    "capital": "admin",
    "population": "41549",
    "id": "1834550750"
  },
  {
    "city": "Kahama",
    "city_ascii": "Kahama",
    "lat": "-3.8375",
    "lng": "32.6000",
    "country": "Tanzania",
    "iso2": "TZ",
    "iso3": "TZA",
    "admin_name": "Shinyanga",
    "capital": "",
    "population": "36014",
    "id": "1834043034"
  },
  {
    "city": "Nzega",
    "city_ascii": "Nzega",
    "lat": "-4.2169",
    "lng": "33.1864",
    "country": "Tanzania",
    "iso2": "TZ",
    "iso3": "TZA",
    "admin_name": "Tabora",
    "capital": "",
    "population": "34744",
    "id": "1834034762"
  },
  {
    "city": "Babati",
    "city_ascii": "Babati",
    "lat": "-4.2167",
    "lng": "35.7500",
    "country": "Tanzania",
    "iso2": "TZ",
    "iso3": "TZA",
    "admin_name": "Manyara",
    "capital": "admin",
    "population": "30975",
    "id": "1834081851"
  },
  {
    "city": "Chato",
    "city_ascii": "Chato",
    "lat": "-2.6378",
    "lng": "31.7669",
    "country": "Tanzania",
    "iso2": "TZ",
    "iso3": "TZA",
    "admin_name": "Geita",
    "capital": "",
    "population": "27776",
    "id": "1834766071"
  },
  {
    "city": "Wete",
    "city_ascii": "Wete",
    "lat": "-5.0567",
    "lng": "39.7281",
    "country": "Tanzania",
    "iso2": "TZ",
    "iso3": "TZA",
    "admin_name": "Pemba North",
    "capital": "admin",
    "population": "26450",
    "id": "1834217491"
  },
  {
    "city": "Bububu",
    "city_ascii": "Bububu",
    "lat": "-6.1658",
    "lng": "39.1992",
    "country": "Tanzania",
    "iso2": "TZ",
    "iso3": "TZA",
    "admin_name": "Zanzibar Urban/West",
    "capital": "",
    "population": "15666",
    "id": "1834932235"
  },
  {
    "city": "Mahonda",
    "city_ascii": "Mahonda",
    "lat": "-5.9897",
    "lng": "39.2519",
    "country": "Tanzania",
    "iso2": "TZ",
    "iso3": "TZA",
    "admin_name": "Zanzibar North",
    "capital": "admin",
    "population": "",
    "id": "1834907448"
  },
  {
    "city": "Vwawa",
    "city_ascii": "Vwawa",
    "lat": "-9.1081",
    "lng": "32.9347",
    "country": "Tanzania",
    "iso2": "TZ",
    "iso3": "TZA",
    "admin_name": "Songwe",
    "capital": "admin",
    "population": "",
    "id": "1834695780"
  },
  {
    "city": "Koani",
    "city_ascii": "Koani",
    "lat": "-6.1333",
    "lng": "39.2833",
    "country": "Tanzania",
    "iso2": "TZ",
    "iso3": "TZA",
    "admin_name": "Zanzibar Central/South",
    "capital": "admin",
    "population": "",
    "id": "1834376215"
  },
  {
    "city": "Ifakara",
    "city_ascii": "Ifakara",
    "lat": "-8.1000",
    "lng": "36.6833",
    "country": "Tanzania",
    "iso2": "TZ",
    "iso3": "TZA",
    "admin_name": "Morogoro",
    "capital": "",
    "population": "99000",
    "id": "1834456222"
  },
  {
    "city": "Kilosa",
    "city_ascii": "Kilosa",
    "lat": "-6.8300",
    "lng": "36.9875",
    "country": "Tanzania",
    "iso2": "TZ",
    "iso3": "TZA",
    "admin_name": "Morogoro",
    "capital": "",
    "population": "91889",
    "id": "1834242035"
  },
  {
    "city": "Uvinza",
    "city_ascii": "Uvinza",
    "lat": "-5.1036",
    "lng": "30.3911",
    "country": "Tanzania",
    "iso2": "TZ",
    "iso3": "TZA",
    "admin_name": "Kigoma",
    "capital": "",
    "population": "80350",
    "id": "1834561245"
  },
  {
    "city": "Korogwe",
    "city_ascii": "Korogwe",
    "lat": "-5.1558",
    "lng": "38.4503",
    "country": "Tanzania",
    "iso2": "TZ",
    "iso3": "TZA",
    "admin_name": "Tanga",
    "capital": "",
    "population": "44000",
    "id": "1834605335"
  },
  {
    "city": "Tunduma",
    "city_ascii": "Tunduma",
    "lat": "-9.3000",
    "lng": "32.7667",
    "country": "Tanzania",
    "iso2": "TZ",
    "iso3": "TZA",
    "admin_name": "Mbeya",
    "capital": "",
    "population": "36556",
    "id": "1834094894"
  },
  {
    "city": "Mbulu",
    "city_ascii": "Mbulu",
    "lat": "-3.8500",
    "lng": "35.5500",
    "country": "Tanzania",
    "iso2": "TZ",
    "iso3": "TZA",
    "admin_name": "Manyara",
    "capital": "",
    "population": "36408",
    "id": "1834497748"
  },
  {
    "city": "Masasi",
    "city_ascii": "Masasi",
    "lat": "-10.7296",
    "lng": "38.7999",
    "country": "Tanzania",
    "iso2": "TZ",
    "iso3": "TZA",
    "admin_name": "Mtwara",
    "capital": "",
    "population": "36032",
    "id": "1834414126"
  },
  {
    "city": "Geiro",
    "city_ascii": "Geiro",
    "lat": "-6.1428",
    "lng": "36.8694",
    "country": "Tanzania",
    "iso2": "TZ",
    "iso3": "TZA",
    "admin_name": "Morogoro",
    "capital": "",
    "population": "35638",
    "id": "1834543579"
  },
  {
    "city": "Bagamoyo",
    "city_ascii": "Bagamoyo",
    "lat": "-6.4444",
    "lng": "38.9028",
    "country": "Tanzania",
    "iso2": "TZ",
    "iso3": "TZA",
    "admin_name": "Coast",
    "capital": "",
    "population": "35000",
    "id": "1834546518"
  },
  {
    "city": "Mlimba",
    "city_ascii": "Mlimba",
    "lat": "-8.7786",
    "lng": "35.8111",
    "country": "Tanzania",
    "iso2": "TZ",
    "iso3": "TZA",
    "admin_name": "Morogoro",
    "capital": "",
    "population": "34970",
    "id": "1834564958"
  },
  {
    "city": "Misungwi",
    "city_ascii": "Misungwi",
    "lat": "-2.8500",
    "lng": "33.0833",
    "country": "Tanzania",
    "iso2": "TZ",
    "iso3": "TZA",
    "admin_name": "Mwanza",
    "capital": "",
    "population": "34612",
    "id": "1834354110"
  },
  {
    "city": "Biharamulo",
    "city_ascii": "Biharamulo",
    "lat": "-2.6333",
    "lng": "31.3167",
    "country": "Tanzania",
    "iso2": "TZ",
    "iso3": "TZA",
    "admin_name": "Kagera",
    "capital": "",
    "population": "34038",
    "id": "1834491817"
  },
  {
    "city": "Ngudu",
    "city_ascii": "Ngudu",
    "lat": "-2.9667",
    "lng": "33.3333",
    "country": "Tanzania",
    "iso2": "TZ",
    "iso3": "TZA",
    "admin_name": "Mwanza",
    "capital": "",
    "population": "31123",
    "id": "1834250706"
  },
  {
    "city": "Tunduru",
    "city_ascii": "Tunduru",
    "lat": "-11.0667",
    "lng": "37.3500",
    "country": "Tanzania",
    "iso2": "TZ",
    "iso3": "TZA",
    "admin_name": "Ruvuma",
    "capital": "",
    "population": "30761",
    "id": "1834030694"
  },
  {
    "city": "Kibiti",
    "city_ascii": "Kibiti",
    "lat": "-7.7296",
    "lng": "38.9500",
    "country": "Tanzania",
    "iso2": "TZ",
    "iso3": "TZA",
    "admin_name": "Coast",
    "capital": "",
    "population": "30163",
    "id": "1834522080"
  },
  {
    "city": "Lushoto",
    "city_ascii": "Lushoto",
    "lat": "-4.7928",
    "lng": "38.2911",
    "country": "Tanzania",
    "iso2": "TZ",
    "iso3": "TZA",
    "admin_name": "Tanga",
    "capital": "",
    "population": "28190",
    "id": "1834431227"
  },
  {
    "city": "Sikonge",
    "city_ascii": "Sikonge",
    "lat": "-5.6333",
    "lng": "32.7667",
    "country": "Tanzania",
    "iso2": "TZ",
    "iso3": "TZA",
    "admin_name": "Tabora",
    "capital": "",
    "population": "27113",
    "id": "1834313836"
  },
  {
    "city": "Masanwa",
    "city_ascii": "Masanwa",
    "lat": "-3.1833",
    "lng": "33.7833",
    "country": "Tanzania",
    "iso2": "TZ",
    "iso3": "TZA",
    "admin_name": "Simiyu",
    "capital": "",
    "population": "26597",
    "id": "1834929930"
  },
  {
    "city": "Manyoni",
    "city_ascii": "Manyoni",
    "lat": "-5.7500",
    "lng": "34.8333",
    "country": "Tanzania",
    "iso2": "TZ",
    "iso3": "TZA",
    "admin_name": "Singida",
    "capital": "",
    "population": "25505",
    "id": "1834963293"
  },
  {
    "city": "Kabanga",
    "city_ascii": "Kabanga",
    "lat": "-2.9022",
    "lng": "30.4986",
    "country": "Tanzania",
    "iso2": "TZ",
    "iso3": "TZA",
    "admin_name": "Kigoma",
    "capital": "",
    "population": "24979",
    "id": "1834808900"
  },
  {
    "city": "Kakonko",
    "city_ascii": "Kakonko",
    "lat": "-3.2796",
    "lng": "30.9600",
    "country": "Tanzania",
    "iso2": "TZ",
    "iso3": "TZA",
    "admin_name": "Kigoma",
    "capital": "",
    "population": "24688",
    "id": "1834778373"
  },
  {
    "city": "Itigi",
    "city_ascii": "Itigi",
    "lat": "-5.7000",
    "lng": "34.4833",
    "country": "Tanzania",
    "iso2": "TZ",
    "iso3": "TZA",
    "admin_name": "Singida",
    "capital": "",
    "population": "21777",
    "id": "1834524806"
  },
  {
    "city": "Mpwapwa",
    "city_ascii": "Mpwapwa",
    "lat": "-6.3500",
    "lng": "36.4833",
    "country": "Tanzania",
    "iso2": "TZ",
    "iso3": "TZA",
    "admin_name": "Dodoma",
    "capital": "",
    "population": "21337",
    "id": "1834235223"
  },
  {
    "city": "Mazinde",
    "city_ascii": "Mazinde",
    "lat": "-4.8073",
    "lng": "38.2118",
    "country": "Tanzania",
    "iso2": "TZ",
    "iso3": "TZA",
    "admin_name": "Tanga",
    "capital": "",
    "population": "20534",
    "id": "1834830165"
  },
  {
    "city": "Ngara",
    "city_ascii": "Ngara",
    "lat": "-2.5122",
    "lng": "30.6558",
    "country": "Tanzania",
    "iso2": "TZ",
    "iso3": "TZA",
    "admin_name": "Kagera",
    "capital": "",
    "population": "16890",
    "id": "1834067520"
  },
  {
    "city": "Sirari",
    "city_ascii": "Sirari",
    "lat": "-1.2244",
    "lng": "34.4383",
    "country": "Tanzania",
    "iso2": "TZ",
    "iso3": "TZA",
    "admin_name": "Mara",
    "capital": "",
    "population": "17564",
    "id": "1834994899"
  },
  {
    "city": "Same",
    "city_ascii": "Same",
    "lat": "-4.0667",
    "lng": "37.7833",
    "country": "Tanzania",
    "iso2": "TZ",
    "iso3": "TZA",
    "admin_name": "Kilimanjaro",
    "capital": "",
    "population": "17455",
    "id": "1834888088"
  },
  {
    "city": "Rubeho",
    "city_ascii": "Rubeho",
    "lat": "-6.2578",
    "lng": "36.8653",
    "country": "Tanzania",
    "iso2": "TZ",
    "iso3": "TZA",
    "admin_name": "Morogoro",
    "capital": "",
    "population": "17020",
    "id": "1834075405"
  },
  {
    "city": "Mugumu",
    "city_ascii": "Mugumu",
    "lat": "-1.8333",
    "lng": "34.6667",
    "country": "Tanzania",
    "iso2": "TZ",
    "iso3": "TZA",
    "admin_name": "Mara",
    "capital": "",
    "population": "16851",
    "id": "1834097845"
  },
  {
    "city": "Mikumi",
    "city_ascii": "Mikumi",
    "lat": "-7.4072",
    "lng": "36.9722",
    "country": "Tanzania",
    "iso2": "TZ",
    "iso3": "TZA",
    "admin_name": "Morogoro",
    "capital": "",
    "population": "16780",
    "id": "1834405632"
  },
  {
    "city": "Karema",
    "city_ascii": "Karema",
    "lat": "-6.8205",
    "lng": "30.4389",
    "country": "Tanzania",
    "iso2": "TZ",
    "iso3": "TZA",
    "admin_name": "Katavi",
    "capital": "",
    "population": "16385",
    "id": "1834711465"
  },
  {
    "city": "Nyahanga",
    "city_ascii": "Nyahanga",
    "lat": "-2.3829",
    "lng": "33.5500",
    "country": "Tanzania",
    "iso2": "TZ",
    "iso3": "TZA",
    "admin_name": "Simiyu",
    "capital": "",
    "population": "16092",
    "id": "1834609339"
  },
  {
    "city": "Butiama",
    "city_ascii": "Butiama",
    "lat": "-1.7667",
    "lng": "33.9667",
    "country": "Tanzania",
    "iso2": "TZ",
    "iso3": "TZA",
    "admin_name": "Mara",
    "capital": "",
    "population": "15383",
    "id": "1834201635"
  },
  {
    "city": "Msata",
    "city_ascii": "Msata",
    "lat": "-6.3362",
    "lng": "38.3850",
    "country": "Tanzania",
    "iso2": "TZ",
    "iso3": "TZA",
    "admin_name": "Coast",
    "capital": "",
    "population": "13740",
    "id": "1834058417"
  },
  {
    "city": "Kashasha",
    "city_ascii": "Kashasha",
    "lat": "-1.7578",
    "lng": "31.6158",
    "country": "Tanzania",
    "iso2": "TZ",
    "iso3": "TZA",
    "admin_name": "Kagera",
    "capital": "",
    "population": "12508",
    "id": "1834270082"
  },
  {
    "city": "Kilindoni",
    "city_ascii": "Kilindoni",
    "lat": "-7.9167",
    "lng": "39.6500",
    "country": "Tanzania",
    "iso2": "TZ",
    "iso3": "TZA",
    "admin_name": "Coast",
    "capital": "",
    "population": "12409",
    "id": "1834982666"
  },
  {
    "city": "Ngerengere",
    "city_ascii": "Ngerengere",
    "lat": "-6.7500",
    "lng": "38.1167",
    "country": "Tanzania",
    "iso2": "TZ",
    "iso3": "TZA",
    "admin_name": "Morogoro",
    "capital": "",
    "population": "11780",
    "id": "1834593902"
  },
  {
    "city": "Ihumwa",
    "city_ascii": "Ihumwa",
    "lat": "-6.1667",
    "lng": "35.8833",
    "country": "Tanzania",
    "iso2": "TZ",
    "iso3": "TZA",
    "admin_name": "Dodoma",
    "capital": "",
    "population": "11490",
    "id": "1834975730"
  },
  {
    "city": "Keza",
    "city_ascii": "Keza",
    "lat": "-2.7540",
    "lng": "30.6820",
    "country": "Tanzania",
    "iso2": "TZ",
    "iso3": "TZA",
    "admin_name": "Kagera",
    "capital": "",
    "population": "10810",
    "id": "1834729432"
  },
  {
    "city": "Ngorongoro",
    "city_ascii": "Ngorongoro",
    "lat": "-3.2496",
    "lng": "35.5200",
    "country": "Tanzania",
    "iso2": "TZ",
    "iso3": "TZA",
    "admin_name": "Arusha",
    "capital": "",
    "population": "10836",
    "id": "1834381549"
  },
  {
    "city": "Msoga",
    "city_ascii": "Msoga",
    "lat": "-6.5667",
    "lng": "38.3000",
    "country": "Tanzania",
    "iso2": "TZ",
    "iso3": "TZA",
    "admin_name": "Coast",
    "capital": "",
    "population": "10144",
    "id": "1834863543"
  },
  {
    "city": "Kibaya",
    "city_ascii": "Kibaya",
    "lat": "-5.3014",
    "lng": "36.5825",
    "country": "Tanzania",
    "iso2": "TZ",
    "iso3": "TZA",
    "admin_name": "Manyara",
    "capital": "",
    "population": "8759",
    "id": "1834442033"
  },
  {
    "city": "Nansio",
    "city_ascii": "Nansio",
    "lat": "-2.1078",
    "lng": "33.0864",
    "country": "Tanzania",
    "iso2": "TZ",
    "iso3": "TZA",
    "admin_name": "Mara",
    "capital": "",
    "population": "8644",
    "id": "1834001196"
  },
  {
    "city": "Mbamba Bay",
    "city_ascii": "Mbamba Bay",
    "lat": "-11.2833",
    "lng": "34.7717",
    "country": "Tanzania",
    "iso2": "TZ",
    "iso3": "TZA",
    "admin_name": "Ruvuma",
    "capital": "",
    "population": "8997",
    "id": "1834067294"
  },
  {
    "city": "Mkokotoni",
    "city_ascii": "Mkokotoni",
    "lat": "-5.8800",
    "lng": "39.2731",
    "country": "Tanzania",
    "iso2": "TZ",
    "iso3": "TZA",
    "admin_name": "Zanzibar North",
    "capital": "minor",
    "population": "2572",
    "id": "1834206004"
  },
  {
    "city": "Rudewa",
    "city_ascii": "Rudewa",
    "lat": "-10.1008",
    "lng": "34.6836",
    "country": "Tanzania",
    "iso2": "TZ",
    "iso3": "TZA",
    "admin_name": "Njombe",
    "capital": "",
    "population": "8747",
    "id": "1834986304"
  },
  {
    "city": "Oldeani",
    "city_ascii": "Oldeani",
    "lat": "-3.3500",
    "lng": "35.5500",
    "country": "Tanzania",
    "iso2": "TZ",
    "iso3": "TZA",
    "admin_name": "Arusha",
    "capital": "",
    "population": "8000",
    "id": "1834474820"
  },
  {
    "city": "Kipili",
    "city_ascii": "Kipili",
    "lat": "-7.4329",
    "lng": "30.6000",
    "country": "Tanzania",
    "iso2": "TZ",
    "iso3": "TZA",
    "admin_name": "Rukwa",
    "capital": "",
    "population": "1533",
    "id": "1834589411"
  },
  {
    "city": "Kanyato",
    "city_ascii": "Kanyato",
    "lat": "-4.4565",
    "lng": "30.2614",
    "country": "Tanzania",
    "iso2": "TZ",
    "iso3": "TZA",
    "admin_name": "Kigoma",
    "capital": "",
    "population": "232",
    "id": "1834158031"
  }
]