[
  {
    "city": "Athens",
    "city_ascii": "Athens",
    "lat": "37.9842",
    "lng": "23.7281",
    "country": "Greece",
    "iso2": "GR",
    "iso3": "GRC",
    "admin_name": "Attikí",
    "capital": "primary",
    "population": "3041131",
    "id": "1300715560"
  },
  {
    "city": "Thessaloníki",
    "city_ascii": "Thessaloniki",
    "lat": "40.6403",
    "lng": "22.9347",
    "country": "Greece",
    "iso2": "GR",
    "iso3": "GRC",
    "admin_name": "Kentrikí Makedonía",
    "capital": "admin",
    "population": "824676",
    "id": "1300397999"
  },
  {
    "city": "Piraeus",
    "city_ascii": "Piraeus",
    "lat": "37.9430",
    "lng": "23.6469",
    "country": "Greece",
    "iso2": "GR",
    "iso3": "GRC",
    "admin_name": "Attikí",
    "capital": "minor",
    "population": "448997",
    "id": "1300458367"
  },
  {
    "city": "Irákleio",
    "city_ascii": "Irakleio",
    "lat": "35.3403",
    "lng": "25.1344",
    "country": "Greece",
    "iso2": "GR",
    "iso3": "GRC",
    "admin_name": "Kríti",
    "capital": "admin",
    "population": "211370",
    "id": "1300777854"
  },
  {
    "city": "Pátra",
    "city_ascii": "Patra",
    "lat": "38.2500",
    "lng": "21.7333",
    "country": "Greece",
    "iso2": "GR",
    "iso3": "GRC",
    "admin_name": "Dytikí Elláda",
    "capital": "admin",
    "population": "167446",
    "id": "1300201099"
  },
  {
    "city": "Peristéri",
    "city_ascii": "Peristeri",
    "lat": "38.0167",
    "lng": "23.6833",
    "country": "Greece",
    "iso2": "GR",
    "iso3": "GRC",
    "admin_name": "Attikí",
    "capital": "minor",
    "population": "139981",
    "id": "1300302779"
  },
  {
    "city": "Vólos",
    "city_ascii": "Volos",
    "lat": "39.3667",
    "lng": "22.9333",
    "country": "Greece",
    "iso2": "GR",
    "iso3": "GRC",
    "admin_name": "Thessalía",
    "capital": "minor",
    "population": "144449",
    "id": "1300109851"
  },
  {
    "city": "Lárisa",
    "city_ascii": "Larisa",
    "lat": "39.6417",
    "lng": "22.4167",
    "country": "Greece",
    "iso2": "GR",
    "iso3": "GRC",
    "admin_name": "Thessalía",
    "capital": "admin",
    "population": "144651",
    "id": "1300003141"
  },
  {
    "city": "Kallithéa",
    "city_ascii": "Kallithea",
    "lat": "37.9500",
    "lng": "23.7000",
    "country": "Greece",
    "iso2": "GR",
    "iso3": "GRC",
    "admin_name": "Attikí",
    "capital": "minor",
    "population": "100641",
    "id": "1300675902"
  },
  {
    "city": "Ioánnina",
    "city_ascii": "Ioannina",
    "lat": "39.6636",
    "lng": "20.8522",
    "country": "Greece",
    "iso2": "GR",
    "iso3": "GRC",
    "admin_name": "Ípeiros",
    "capital": "admin",
    "population": "113094",
    "id": "1300317204"
  },
  {
    "city": "Acharnés",
    "city_ascii": "Acharnes",
    "lat": "38.0833",
    "lng": "23.7333",
    "country": "Greece",
    "iso2": "GR",
    "iso3": "GRC",
    "admin_name": "Attikí",
    "capital": "minor",
    "population": "108130",
    "id": "1300526257"
  },
  {
    "city": "Kalamariá",
    "city_ascii": "Kalamaria",
    "lat": "40.5833",
    "lng": "22.9500",
    "country": "Greece",
    "iso2": "GR",
    "iso3": "GRC",
    "admin_name": "Kentrikí Makedonía",
    "capital": "minor",
    "population": "91279",
    "id": "1300268108"
  },
  {
    "city": "Níkaia",
    "city_ascii": "Nikaia",
    "lat": "37.9667",
    "lng": "23.6333",
    "country": "Greece",
    "iso2": "GR",
    "iso3": "GRC",
    "admin_name": "Attikí",
    "capital": "minor",
    "population": "89380",
    "id": "1300155901"
  },
  {
    "city": "Ílion",
    "city_ascii": "Ilion",
    "lat": "38.0333",
    "lng": "23.7000",
    "country": "Greece",
    "iso2": "GR",
    "iso3": "GRC",
    "admin_name": "Attikí",
    "capital": "minor",
    "population": "84793",
    "id": "1300000001"
  },
  {
    "city": "Néa Smýrni",
    "city_ascii": "Nea Smyrni",
    "lat": "37.9500",
    "lng": "23.7167",
    "country": "Greece",
    "iso2": "GR",
    "iso3": "GRC",
    "admin_name": "Attikí",
    "capital": "minor",
    "population": "73076",
    "id": "1300609999"
  },
  {
    "city": "Glyfáda",
    "city_ascii": "Glyfada",
    "lat": "37.8667",
    "lng": "23.7500",
    "country": "Greece",
    "iso2": "GR",
    "iso3": "GRC",
    "admin_name": "Attikí",
    "capital": "minor",
    "population": "87305",
    "id": "1300003373"
  },
  {
    "city": "Keratsíni",
    "city_ascii": "Keratsini",
    "lat": "37.9667",
    "lng": "23.6167",
    "country": "Greece",
    "iso2": "GR",
    "iso3": "GRC",
    "admin_name": "Attikí",
    "capital": "minor",
    "population": "77077",
    "id": "1300341321"
  },
  {
    "city": "Ágios Dimítrios",
    "city_ascii": "Agios Dimitrios",
    "lat": "37.9333",
    "lng": "23.7333",
    "country": "Greece",
    "iso2": "GR",
    "iso3": "GRC",
    "admin_name": "Attikí",
    "capital": "minor",
    "population": "71294",
    "id": "1300159419"
  },
  {
    "city": "Ilioúpoli",
    "city_ascii": "Ilioupoli",
    "lat": "37.9333",
    "lng": "23.7500",
    "country": "Greece",
    "iso2": "GR",
    "iso3": "GRC",
    "admin_name": "Attikí",
    "capital": "minor",
    "population": "78153",
    "id": "1300079206"
  },
  {
    "city": "Évosmos",
    "city_ascii": "Evosmos",
    "lat": "40.6689",
    "lng": "22.9083",
    "country": "Greece",
    "iso2": "GR",
    "iso3": "GRC",
    "admin_name": "Kentrikí Makedonía",
    "capital": "minor",
    "population": "74686",
    "id": "1300891029"
  },
  {
    "city": "Néa Ionía",
    "city_ascii": "Nea Ionia",
    "lat": "38.0333",
    "lng": "23.7500",
    "country": "Greece",
    "iso2": "GR",
    "iso3": "GRC",
    "admin_name": "Attikí",
    "capital": "minor",
    "population": "67134",
    "id": "1300842760"
  },
  {
    "city": "Chalándri",
    "city_ascii": "Chalandri",
    "lat": "38.0167",
    "lng": "23.8000",
    "country": "Greece",
    "iso2": "GR",
    "iso3": "GRC",
    "admin_name": "Attikí",
    "capital": "minor",
    "population": "74192",
    "id": "1300443208"
  },
  {
    "city": "Aigáleo",
    "city_ascii": "Aigaleo",
    "lat": "37.9920",
    "lng": "23.6780",
    "country": "Greece",
    "iso2": "GR",
    "iso3": "GRC",
    "admin_name": "Attikí",
    "capital": "minor",
    "population": "69946",
    "id": "1300067899"
  },
  {
    "city": "Zográfos",
    "city_ascii": "Zografos",
    "lat": "37.9783",
    "lng": "23.7717",
    "country": "Greece",
    "iso2": "GR",
    "iso3": "GRC",
    "admin_name": "Attikí",
    "capital": "minor",
    "population": "71026",
    "id": "1300851737"
  },
  {
    "city": "Maroúsi",
    "city_ascii": "Marousi",
    "lat": "38.0500",
    "lng": "23.8000",
    "country": "Greece",
    "iso2": "GR",
    "iso3": "GRC",
    "admin_name": "Attikí",
    "capital": "minor",
    "population": "72333",
    "id": "1300017523"
  },
  {
    "city": "Korydallós",
    "city_ascii": "Korydallos",
    "lat": "37.9833",
    "lng": "23.6500",
    "country": "Greece",
    "iso2": "GR",
    "iso3": "GRC",
    "admin_name": "Attikí",
    "capital": "minor",
    "population": "63445",
    "id": "1300198192"
  },
  {
    "city": "Palaió Fáliro",
    "city_ascii": "Palaio Faliro",
    "lat": "37.9333",
    "lng": "23.7000",
    "country": "Greece",
    "iso2": "GR",
    "iso3": "GRC",
    "admin_name": "Attikí",
    "capital": "minor",
    "population": "64021",
    "id": "1300258604"
  },
  {
    "city": "Galátsi",
    "city_ascii": "Galatsi",
    "lat": "38.0167",
    "lng": "23.7500",
    "country": "Greece",
    "iso2": "GR",
    "iso3": "GRC",
    "admin_name": "Attikí",
    "capital": "minor",
    "population": "59345",
    "id": "1300322310"
  },
  {
    "city": "Agía Paraskeví",
    "city_ascii": "Agia Paraskevi",
    "lat": "38.0117",
    "lng": "23.8200",
    "country": "Greece",
    "iso2": "GR",
    "iso3": "GRC",
    "admin_name": "Attikí",
    "capital": "minor",
    "population": "62717",
    "id": "1300253630"
  },
  {
    "city": "Výronas",
    "city_ascii": "Vyronas",
    "lat": "37.9617",
    "lng": "23.7533",
    "country": "Greece",
    "iso2": "GR",
    "iso3": "GRC",
    "admin_name": "Attikí",
    "capital": "minor",
    "population": "61535",
    "id": "1300508500"
  },
  {
    "city": "Kozáni",
    "city_ascii": "Kozani",
    "lat": "40.3000",
    "lng": "21.7833",
    "country": "Greece",
    "iso2": "GR",
    "iso3": "GRC",
    "admin_name": "Dytikí Makedonía",
    "capital": "admin",
    "population": "67161",
    "id": "1300407295"
  },
  {
    "city": "Petroúpoli",
    "city_ascii": "Petroupoli",
    "lat": "38.0333",
    "lng": "23.6833",
    "country": "Greece",
    "iso2": "GR",
    "iso3": "GRC",
    "admin_name": "Attikí",
    "capital": "minor",
    "population": "58979",
    "id": "1300960002"
  },
  {
    "city": "Irákleio",
    "city_ascii": "Irakleio",
    "lat": "38.0500",
    "lng": "23.7667",
    "country": "Greece",
    "iso2": "GR",
    "iso3": "GRC",
    "admin_name": "Attikí",
    "capital": "minor",
    "population": "49642",
    "id": "1300476566"
  },
  {
    "city": "Ródos",
    "city_ascii": "Rodos",
    "lat": "36.4412",
    "lng": "28.2225",
    "country": "Greece",
    "iso2": "GR",
    "iso3": "GRC",
    "admin_name": "Nótio Aigaío",
    "capital": "minor",
    "population": "56969",
    "id": "1300944675"
  },
  {
    "city": "Stavroúpoli",
    "city_ascii": "Stavroupoli",
    "lat": "40.6667",
    "lng": "22.9333",
    "country": "Greece",
    "iso2": "GR",
    "iso3": "GRC",
    "admin_name": "Kentrikí Makedonía",
    "capital": "minor",
    "population": "46008",
    "id": "1300659280"
  },
  {
    "city": "Chaniá",
    "city_ascii": "Chania",
    "lat": "35.5167",
    "lng": "24.0167",
    "country": "Greece",
    "iso2": "GR",
    "iso3": "GRC",
    "admin_name": "Kríti",
    "capital": "minor",
    "population": "53910",
    "id": "1300233408"
  },
  {
    "city": "Ampelókipoi",
    "city_ascii": "Ampelokipoi",
    "lat": "40.6500",
    "lng": "22.9167",
    "country": "Greece",
    "iso2": "GR",
    "iso3": "GRC",
    "admin_name": "Kentrikí Makedonía",
    "capital": "minor",
    "population": "37381",
    "id": "1300184728"
  },
  {
    "city": "Lamía",
    "city_ascii": "Lamia",
    "lat": "38.9000",
    "lng": "22.4333",
    "country": "Greece",
    "iso2": "GR",
    "iso3": "GRC",
    "admin_name": "Stereá Elláda",
    "capital": "admin",
    "population": "52006",
    "id": "1300400935"
  },
  {
    "city": "Komotiní",
    "city_ascii": "Komotini",
    "lat": "41.1000",
    "lng": "25.4167",
    "country": "Greece",
    "iso2": "GR",
    "iso3": "GRC",
    "admin_name": "Anatolikí Makedonía kai Thráki",
    "capital": "admin",
    "population": "50990",
    "id": "1300373048"
  },
  {
    "city": "Álimos",
    "city_ascii": "Alimos",
    "lat": "37.9167",
    "lng": "23.7167",
    "country": "Greece",
    "iso2": "GR",
    "iso3": "GRC",
    "admin_name": "Attikí",
    "capital": "minor",
    "population": "41720",
    "id": "1300088630"
  },
  {
    "city": "Sykiés",
    "city_ascii": "Sykies",
    "lat": "40.6500",
    "lng": "22.9500",
    "country": "Greece",
    "iso2": "GR",
    "iso3": "GRC",
    "admin_name": "Kentrikí Makedonía",
    "capital": "minor",
    "population": "37753",
    "id": "1300810764"
  },
  {
    "city": "Ágioi Anárgyroi",
    "city_ascii": "Agioi Anargyroi",
    "lat": "38.0267",
    "lng": "23.7183",
    "country": "Greece",
    "iso2": "GR",
    "iso3": "GRC",
    "admin_name": "Attikí",
    "capital": "minor",
    "population": "34168",
    "id": "1300220121"
  },
  {
    "city": "Dáfni",
    "city_ascii": "Dafni",
    "lat": "37.9500",
    "lng": "23.7333",
    "country": "Greece",
    "iso2": "GR",
    "iso3": "GRC",
    "admin_name": "Attikí",
    "capital": "minor",
    "population": "22913",
    "id": "1300695604"
  },
  {
    "city": "Vrilíssia",
    "city_ascii": "Vrilissia",
    "lat": "38.0333",
    "lng": "23.8333",
    "country": "Greece",
    "iso2": "GR",
    "iso3": "GRC",
    "admin_name": "Attikí",
    "capital": "minor",
    "population": "30741",
    "id": "1300600750"
  },
  {
    "city": "Cholargós",
    "city_ascii": "Cholargos",
    "lat": "38.0000",
    "lng": "23.8000",
    "country": "Greece",
    "iso2": "GR",
    "iso3": "GRC",
    "admin_name": "Attikí",
    "capital": "minor",
    "population": "30840",
    "id": "1300207995"
  },
  {
    "city": "Agía Varvára",
    "city_ascii": "Agia Varvara",
    "lat": "38.0000",
    "lng": "23.6500",
    "country": "Greece",
    "iso2": "GR",
    "iso3": "GRC",
    "admin_name": "Attikí",
    "capital": "minor",
    "population": "26550",
    "id": "1300465012"
  },
  {
    "city": "Argyroúpoli",
    "city_ascii": "Argyroupoli",
    "lat": "37.9000",
    "lng": "23.7500",
    "country": "Greece",
    "iso2": "GR",
    "iso3": "GRC",
    "admin_name": "Attikí",
    "capital": "minor",
    "population": "34097",
    "id": "1300735599"
  },
  {
    "city": "Metamórfosi",
    "city_ascii": "Metamorfosi",
    "lat": "38.0500",
    "lng": "23.7500",
    "country": "Greece",
    "iso2": "GR",
    "iso3": "GRC",
    "admin_name": "Attikí",
    "capital": "minor",
    "population": "29891",
    "id": "1300945079"
  },
  {
    "city": "Kaisarianí",
    "city_ascii": "Kaisariani",
    "lat": "37.9683",
    "lng": "23.7583",
    "country": "Greece",
    "iso2": "GR",
    "iso3": "GRC",
    "admin_name": "Attikí",
    "capital": "minor",
    "population": "26458",
    "id": "1300742537"
  },
  {
    "city": "Néa Filadélfeia",
    "city_ascii": "Nea Filadelfeia",
    "lat": "38.0367",
    "lng": "23.7367",
    "country": "Greece",
    "iso2": "GR",
    "iso3": "GRC",
    "admin_name": "Attikí",
    "capital": "minor",
    "population": "25734",
    "id": "1300810075"
  },
  {
    "city": "Moscháto",
    "city_ascii": "Moschato",
    "lat": "37.9500",
    "lng": "23.6667",
    "country": "Greece",
    "iso2": "GR",
    "iso3": "GRC",
    "admin_name": "Attikí",
    "capital": "minor",
    "population": "25441",
    "id": "1300869464"
  },
  {
    "city": "Gérakas",
    "city_ascii": "Gerakas",
    "lat": "38.0333",
    "lng": "23.8500",
    "country": "Greece",
    "iso2": "GR",
    "iso3": "GRC",
    "admin_name": "Attikí",
    "capital": "minor",
    "population": "29939",
    "id": "1300462849"
  },
  {
    "city": "Kamateró",
    "city_ascii": "Kamatero",
    "lat": "38.0597",
    "lng": "23.7120",
    "country": "Greece",
    "iso2": "GR",
    "iso3": "GRC",
    "admin_name": "Attikí",
    "capital": "",
    "population": "28361",
    "id": "1300483452"
  },
  {
    "city": "Voúla",
    "city_ascii": "Voula",
    "lat": "37.8500",
    "lng": "23.7500",
    "country": "Greece",
    "iso2": "GR",
    "iso3": "GRC",
    "admin_name": "Attikí",
    "capital": "minor",
    "population": "28364",
    "id": "1300243686"
  },
  {
    "city": "Péfki",
    "city_ascii": "Pefki",
    "lat": "38.0667",
    "lng": "23.8000",
    "country": "Greece",
    "iso2": "GR",
    "iso3": "GRC",
    "admin_name": "Attikí",
    "capital": "minor",
    "population": "21415",
    "id": "1300609636"
  },
  {
    "city": "Trípoli",
    "city_ascii": "Tripoli",
    "lat": "37.5167",
    "lng": "22.3833",
    "country": "Greece",
    "iso2": "GR",
    "iso3": "GRC",
    "admin_name": "Pelopónnisos",
    "capital": "admin",
    "population": "30866",
    "id": "1300131630"
  },
  {
    "city": "Melíssia",
    "city_ascii": "Melissia",
    "lat": "38.0500",
    "lng": "23.8333",
    "country": "Greece",
    "iso2": "GR",
    "iso3": "GRC",
    "admin_name": "Attikí",
    "capital": "minor",
    "population": "22741",
    "id": "1300481194"
  },
  {
    "city": "Mytilíni",
    "city_ascii": "Mytilini",
    "lat": "39.1000",
    "lng": "26.5500",
    "country": "Greece",
    "iso2": "GR",
    "iso3": "GRC",
    "admin_name": "Vóreio Aigaío",
    "capital": "admin",
    "population": "27871",
    "id": "1300101706"
  },
  {
    "city": "Kérkyra",
    "city_ascii": "Kerkyra",
    "lat": "39.6239",
    "lng": "19.9214",
    "country": "Greece",
    "iso2": "GR",
    "iso3": "GRC",
    "admin_name": "Ionía Nísia",
    "capital": "admin",
    "population": "24838",
    "id": "1300093403"
  },
  {
    "city": "Drapetsóna",
    "city_ascii": "Drapetsona",
    "lat": "37.9467",
    "lng": "23.6250",
    "country": "Greece",
    "iso2": "GR",
    "iso3": "GRC",
    "admin_name": "Attikí",
    "capital": "",
    "population": "13968",
    "id": "1300537061"
  },
  {
    "city": "Ymittós",
    "city_ascii": "Ymittos",
    "lat": "37.9500",
    "lng": "23.7333",
    "country": "Greece",
    "iso2": "GR",
    "iso3": "GRC",
    "admin_name": "Attikí",
    "capital": "",
    "population": "10715",
    "id": "1300545458"
  },
  {
    "city": "Távros",
    "city_ascii": "Tavros",
    "lat": "37.9667",
    "lng": "23.6950",
    "country": "Greece",
    "iso2": "GR",
    "iso3": "GRC",
    "admin_name": "Attikí",
    "capital": "",
    "population": "14972",
    "id": "1300889563"
  },
  {
    "city": "Néa Erythraía",
    "city_ascii": "Nea Erythraia",
    "lat": "38.0833",
    "lng": "23.8167",
    "country": "Greece",
    "iso2": "GR",
    "iso3": "GRC",
    "admin_name": "Attikí",
    "capital": "",
    "population": "17379",
    "id": "1300372430"
  },
  {
    "city": "Peraía",
    "city_ascii": "Peraia",
    "lat": "40.5000",
    "lng": "22.9250",
    "country": "Greece",
    "iso2": "GR",
    "iso3": "GRC",
    "admin_name": "Kentrikí Makedonía",
    "capital": "minor",
    "population": "18546",
    "id": "1300107891"
  },
  {
    "city": "Néo Psychikó",
    "city_ascii": "Neo Psychiko",
    "lat": "38.0000",
    "lng": "23.7833",
    "country": "Greece",
    "iso2": "GR",
    "iso3": "GRC",
    "admin_name": "Attikí",
    "capital": "",
    "population": "10137",
    "id": "1300242593"
  },
  {
    "city": "Ellinikó",
    "city_ascii": "Elliniko",
    "lat": "37.8667",
    "lng": "23.7333",
    "country": "Greece",
    "iso2": "GR",
    "iso3": "GRC",
    "admin_name": "Attikí",
    "capital": "",
    "population": "17259",
    "id": "1300674194"
  },
  {
    "city": "Ágios Ioánnis Réntis",
    "city_ascii": "Agios Ioannis Rentis",
    "lat": "37.9667",
    "lng": "23.6667",
    "country": "Greece",
    "iso2": "GR",
    "iso3": "GRC",
    "admin_name": "Attikí",
    "capital": "",
    "population": "16050",
    "id": "1300655205"
  },
  {
    "city": "Péfka",
    "city_ascii": "Pefka",
    "lat": "40.6500",
    "lng": "22.9833",
    "country": "Greece",
    "iso2": "GR",
    "iso3": "GRC",
    "admin_name": "Kentrikí Makedonía",
    "capital": "",
    "population": "13052",
    "id": "1300266645"
  },
  {
    "city": "Papágos",
    "city_ascii": "Papagos",
    "lat": "37.9900",
    "lng": "23.7933",
    "country": "Greece",
    "iso2": "GR",
    "iso3": "GRC",
    "admin_name": "Attikí",
    "capital": "",
    "population": "13699",
    "id": "1300697009"
  },
  {
    "city": "Lykóvrysi",
    "city_ascii": "Lykovrysi",
    "lat": "38.0667",
    "lng": "23.7833",
    "country": "Greece",
    "iso2": "GR",
    "iso3": "GRC",
    "admin_name": "Attikí",
    "capital": "",
    "population": "9738",
    "id": "1300868556"
  },
  {
    "city": "Zefýri",
    "city_ascii": "Zefyri",
    "lat": "38.0667",
    "lng": "23.7167",
    "country": "Greece",
    "iso2": "GR",
    "iso3": "GRC",
    "admin_name": "Attikí",
    "capital": "",
    "population": "9454",
    "id": "1300050699"
  },
  {
    "city": "Ermoúpoli",
    "city_ascii": "Ermoupoli",
    "lat": "37.4333",
    "lng": "24.9167",
    "country": "Greece",
    "iso2": "GR",
    "iso3": "GRC",
    "admin_name": "Nótio Aigaío",
    "capital": "admin",
    "population": "13737",
    "id": "1300072209"
  },
  {
    "city": "Psychikó",
    "city_ascii": "Psychiko",
    "lat": "38.0108",
    "lng": "23.7727",
    "country": "Greece",
    "iso2": "GR",
    "iso3": "GRC",
    "admin_name": "Attikí",
    "capital": "minor",
    "population": "9529",
    "id": "1300684253"
  },
  {
    "city": "Kateríni",
    "city_ascii": "Katerini",
    "lat": "40.2667",
    "lng": "22.5000",
    "country": "Greece",
    "iso2": "GR",
    "iso3": "GRC",
    "admin_name": "Kentrikí Makedonía",
    "capital": "minor",
    "population": "82971",
    "id": "1300524464"
  },
  {
    "city": "Alexandroúpoli",
    "city_ascii": "Alexandroupoli",
    "lat": "40.8500",
    "lng": "25.8667",
    "country": "Greece",
    "iso2": "GR",
    "iso3": "GRC",
    "admin_name": "Anatolikí Makedonía kai Thráki",
    "capital": "minor",
    "population": "71601",
    "id": "1300949419"
  },
  {
    "city": "Kavála",
    "city_ascii": "Kavala",
    "lat": "40.9333",
    "lng": "24.4000",
    "country": "Greece",
    "iso2": "GR",
    "iso3": "GRC",
    "admin_name": "Anatolikí Makedonía kai Thráki",
    "capital": "minor",
    "population": "65857",
    "id": "1300398756"
  },
  {
    "city": "Tríkala",
    "city_ascii": "Trikala",
    "lat": "39.5500",
    "lng": "21.7667",
    "country": "Greece",
    "iso2": "GR",
    "iso3": "GRC",
    "admin_name": "Thessalía",
    "capital": "minor",
    "population": "61653",
    "id": "1300446578"
  },
  {
    "city": "Chalkída",
    "city_ascii": "Chalkida",
    "lat": "38.4625",
    "lng": "23.5950",
    "country": "Greece",
    "iso2": "GR",
    "iso3": "GRC",
    "admin_name": "Stereá Elláda",
    "capital": "minor",
    "population": "59125",
    "id": "1300585149"
  },
  {
    "city": "Sérres",
    "city_ascii": "Serres",
    "lat": "41.0833",
    "lng": "23.5500",
    "country": "Greece",
    "iso2": "GR",
    "iso3": "GRC",
    "admin_name": "Kentrikí Makedonía",
    "capital": "minor",
    "population": "58287",
    "id": "1300726987"
  },
  {
    "city": "Xánthi",
    "city_ascii": "Xanthi",
    "lat": "41.1333",
    "lng": "24.8833",
    "country": "Greece",
    "iso2": "GR",
    "iso3": "GRC",
    "admin_name": "Anatolikí Makedonía kai Thráki",
    "capital": "minor",
    "population": "56122",
    "id": "1300051191"
  },
  {
    "city": "Pallíni",
    "city_ascii": "Pallini",
    "lat": "38.0000",
    "lng": "23.8833",
    "country": "Greece",
    "iso2": "GR",
    "iso3": "GRC",
    "admin_name": "Attikí",
    "capital": "",
    "population": "54415",
    "id": "1300243974"
  },
  {
    "city": "Thérmi",
    "city_ascii": "Thermi",
    "lat": "40.5500",
    "lng": "23.0167",
    "country": "Greece",
    "iso2": "GR",
    "iso3": "GRC",
    "admin_name": "Kentrikí Makedonía",
    "capital": "minor",
    "population": "53201",
    "id": "1300794818"
  },
  {
    "city": "Kalamáta",
    "city_ascii": "Kalamata",
    "lat": "37.0378",
    "lng": "22.1111",
    "country": "Greece",
    "iso2": "GR",
    "iso3": "GRC",
    "admin_name": "Pelopónnisos",
    "capital": "minor",
    "population": "53041",
    "id": "1300638148"
  },
  {
    "city": "Kifisiá",
    "city_ascii": "Kifisia",
    "lat": "38.0833",
    "lng": "23.8167",
    "country": "Greece",
    "iso2": "GR",
    "iso3": "GRC",
    "admin_name": "Attikí",
    "capital": "minor",
    "population": "47332",
    "id": "1300808003"
  },
  {
    "city": "Chaïdári",
    "city_ascii": "Chaidari",
    "lat": "38.0167",
    "lng": "23.6500",
    "country": "Greece",
    "iso2": "GR",
    "iso3": "GRC",
    "admin_name": "Attikí",
    "capital": "minor",
    "population": "45642",
    "id": "1300077260"
  },
  {
    "city": "Agrínio",
    "city_ascii": "Agrinio",
    "lat": "38.6167",
    "lng": "21.4000",
    "country": "Greece",
    "iso2": "GR",
    "iso3": "GRC",
    "admin_name": "Dytikí Elláda",
    "capital": "minor",
    "population": "46899",
    "id": "1300351677"
  },
  {
    "city": "Dráma",
    "city_ascii": "Drama",
    "lat": "41.1500",
    "lng": "24.1467",
    "country": "Greece",
    "iso2": "GR",
    "iso3": "GRC",
    "admin_name": "Anatolikí Makedonía kai Thráki",
    "capital": "minor",
    "population": "44823",
    "id": "1300779088"
  },
  {
    "city": "Véroia",
    "city_ascii": "Veroia",
    "lat": "40.5203",
    "lng": "22.2019",
    "country": "Greece",
    "iso2": "GR",
    "iso3": "GRC",
    "admin_name": "Kentrikí Makedonía",
    "capital": "minor",
    "population": "43158",
    "id": "1300354522"
  },
  {
    "city": "Vergína",
    "city_ascii": "Vergina",
    "lat": "40.5167",
    "lng": "22.2000",
    "country": "Greece",
    "iso2": "GR",
    "iso3": "GRC",
    "admin_name": "Kentrikí Makedonía",
    "capital": "",
    "population": "43158",
    "id": "1300807660"
  },
  {
    "city": "Oraiókastro",
    "city_ascii": "Oraiokastro",
    "lat": "40.7333",
    "lng": "22.9167",
    "country": "Greece",
    "iso2": "GR",
    "iso3": "GRC",
    "admin_name": "Kentrikí Makedonía",
    "capital": "minor",
    "population": "38317",
    "id": "1300041149"
  },
  {
    "city": "Kardítsa",
    "city_ascii": "Karditsa",
    "lat": "39.3667",
    "lng": "21.9167",
    "country": "Greece",
    "iso2": "GR",
    "iso3": "GRC",
    "admin_name": "Thessalía",
    "capital": "minor",
    "population": "38554",
    "id": "1300471729"
  },
  {
    "city": "Pylaía",
    "city_ascii": "Pylaia",
    "lat": "40.6000",
    "lng": "22.9833",
    "country": "Greece",
    "iso2": "GR",
    "iso3": "GRC",
    "admin_name": "Kentrikí Makedonía",
    "capital": "",
    "population": "34625",
    "id": "1300241123"
  },
  {
    "city": "Áno Liósia",
    "city_ascii": "Ano Liosia",
    "lat": "38.0833",
    "lng": "23.7000",
    "country": "Greece",
    "iso2": "GR",
    "iso3": "GRC",
    "admin_name": "Attikí",
    "capital": "minor",
    "population": "33565",
    "id": "1300536018"
  },
  {
    "city": "Kos",
    "city_ascii": "Kos",
    "lat": "36.8500",
    "lng": "27.2333",
    "country": "Greece",
    "iso2": "GR",
    "iso3": "GRC",
    "admin_name": "Nótio Aigaío",
    "capital": "minor",
    "population": "33387",
    "id": "1300683758"
  },
  {
    "city": "Ptolemaḯda",
    "city_ascii": "Ptolemaida",
    "lat": "40.5167",
    "lng": "21.6833",
    "country": "Greece",
    "iso2": "GR",
    "iso3": "GRC",
    "admin_name": "Dytikí Makedonía",
    "capital": "minor",
    "population": "32127",
    "id": "1300255989"
  },
  {
    "city": "Réthymno",
    "city_ascii": "Rethymno",
    "lat": "35.3689",
    "lng": "24.4739",
    "country": "Greece",
    "iso2": "GR",
    "iso3": "GRC",
    "admin_name": "Kríti",
    "capital": "minor",
    "population": "32468",
    "id": "1300036161"
  },
  {
    "city": "Salamína",
    "city_ascii": "Salamina",
    "lat": "37.9667",
    "lng": "23.5000",
    "country": "Greece",
    "iso2": "GR",
    "iso3": "GRC",
    "admin_name": "Attikí",
    "capital": "minor",
    "population": "31776",
    "id": "1300019459"
  },
  {
    "city": "Asprópyrgos",
    "city_ascii": "Aspropyrgos",
    "lat": "38.0667",
    "lng": "23.5833",
    "country": "Greece",
    "iso2": "GR",
    "iso3": "GRC",
    "admin_name": "Attikí",
    "capital": "minor",
    "population": "30251",
    "id": "1300057241"
  },
  {
    "city": "Kórinthos",
    "city_ascii": "Korinthos",
    "lat": "37.9386",
    "lng": "22.9272",
    "country": "Greece",
    "iso2": "GR",
    "iso3": "GRC",
    "admin_name": "Pelopónnisos",
    "capital": "minor",
    "population": "30176",
    "id": "1300348183"
  },
  {
    "city": "Giannitsá",
    "city_ascii": "Giannitsa",
    "lat": "40.7833",
    "lng": "22.4000",
    "country": "Greece",
    "iso2": "GR",
    "iso3": "GRC",
    "admin_name": "Kentrikí Makedonía",
    "capital": "minor",
    "population": "29789",
    "id": "1300157319"
  },
  {
    "city": "Amaliáda",
    "city_ascii": "Amaliada",
    "lat": "37.8000",
    "lng": "21.3500",
    "country": "Greece",
    "iso2": "GR",
    "iso3": "GRC",
    "admin_name": "Dytikí Elláda",
    "capital": "minor",
    "population": "28520",
    "id": "1300074645"
  },
  {
    "city": "Chíos",
    "city_ascii": "Chios",
    "lat": "38.3725",
    "lng": "26.1375",
    "country": "Greece",
    "iso2": "GR",
    "iso3": "GRC",
    "admin_name": "Vóreio Aigaío",
    "capital": "minor",
    "population": "26850",
    "id": "1300169896"
  },
  {
    "city": "Ágios Nikólaos",
    "city_ascii": "Agios Nikolaos",
    "lat": "35.1833",
    "lng": "25.7167",
    "country": "Greece",
    "iso2": "GR",
    "iso3": "GRC",
    "admin_name": "Kríti",
    "capital": "minor",
    "population": "27074",
    "id": "1300945111"
  },
  {
    "city": "Paianía",
    "city_ascii": "Paiania",
    "lat": "37.9500",
    "lng": "23.8500",
    "country": "Greece",
    "iso2": "GR",
    "iso3": "GRC",
    "admin_name": "Attikí",
    "capital": "minor",
    "population": "26668",
    "id": "1300888494"
  },
  {
    "city": "Pérama",
    "city_ascii": "Perama",
    "lat": "37.9667",
    "lng": "23.5667",
    "country": "Greece",
    "iso2": "GR",
    "iso3": "GRC",
    "admin_name": "Attikí",
    "capital": "minor",
    "population": "25389",
    "id": "1300559034"
  },
  {
    "city": "Elefsína",
    "city_ascii": "Elefsina",
    "lat": "38.0333",
    "lng": "23.5333",
    "country": "Greece",
    "iso2": "GR",
    "iso3": "GRC",
    "admin_name": "Attikí",
    "capital": "minor",
    "population": "24910",
    "id": "1300591853"
  },
  {
    "city": "Grevená",
    "city_ascii": "Grevena",
    "lat": "40.0850",
    "lng": "21.4275",
    "country": "Greece",
    "iso2": "GR",
    "iso3": "GRC",
    "admin_name": "Dytikí Makedonía",
    "capital": "minor",
    "population": "25905",
    "id": "1300453596"
  },
  {
    "city": "Pýrgos",
    "city_ascii": "Pyrgos",
    "lat": "37.6667",
    "lng": "21.4333",
    "country": "Greece",
    "iso2": "GR",
    "iso3": "GRC",
    "admin_name": "Dytikí Elláda",
    "capital": "minor",
    "population": "24359",
    "id": "1300188949"
  },
  {
    "city": "Mégara",
    "city_ascii": "Megara",
    "lat": "37.9964",
    "lng": "23.3444",
    "country": "Greece",
    "iso2": "GR",
    "iso3": "GRC",
    "admin_name": "Attikí",
    "capital": "minor",
    "population": "23456",
    "id": "1300371579"
  },
  {
    "city": "Kilkís",
    "city_ascii": "Kilkis",
    "lat": "40.9833",
    "lng": "22.8667",
    "country": "Greece",
    "iso2": "GR",
    "iso3": "GRC",
    "admin_name": "Kentrikí Makedonía",
    "capital": "minor",
    "population": "22914",
    "id": "1300726797"
  },
  {
    "city": "Thebes",
    "city_ascii": "Thebes",
    "lat": "38.3208",
    "lng": "23.3178",
    "country": "Greece",
    "iso2": "GR",
    "iso3": "GRC",
    "admin_name": "Stereá Elláda",
    "capital": "minor",
    "population": "22883",
    "id": "1300138276"
  },
  {
    "city": "Árta",
    "city_ascii": "Arta",
    "lat": "39.1650",
    "lng": "20.9875",
    "country": "Greece",
    "iso2": "GR",
    "iso3": "GRC",
    "admin_name": "Ípeiros",
    "capital": "minor",
    "population": "21895",
    "id": "1300006848"
  },
  {
    "city": "Lefkáda",
    "city_ascii": "Lefkada",
    "lat": "38.7178",
    "lng": "20.6439",
    "country": "Greece",
    "iso2": "GR",
    "iso3": "GRC",
    "admin_name": "Ionía Nísia",
    "capital": "minor",
    "population": "22652",
    "id": "1300961833"
  },
  {
    "city": "Artémida",
    "city_ascii": "Artemida",
    "lat": "37.9667",
    "lng": "24.0000",
    "country": "Greece",
    "iso2": "GR",
    "iso3": "GRC",
    "admin_name": "Attikí",
    "capital": "",
    "population": "21488",
    "id": "1300514768"
  },
  {
    "city": "Árgos",
    "city_ascii": "Argos",
    "lat": "37.6167",
    "lng": "22.7167",
    "country": "Greece",
    "iso2": "GR",
    "iso3": "GRC",
    "admin_name": "Pelopónnisos",
    "capital": "minor",
    "population": "22085",
    "id": "1300389064"
  },
  {
    "city": "Áno Sýros",
    "city_ascii": "Ano Syros",
    "lat": "37.4500",
    "lng": "24.9000",
    "country": "Greece",
    "iso2": "GR",
    "iso3": "GRC",
    "admin_name": "Nótio Aigaío",
    "capital": "minor",
    "population": "21507",
    "id": "1300291821"
  },
  {
    "city": "Livadeiá",
    "city_ascii": "Livadeia",
    "lat": "38.4333",
    "lng": "22.8667",
    "country": "Greece",
    "iso2": "GR",
    "iso3": "GRC",
    "admin_name": "Stereá Elláda",
    "capital": "minor",
    "population": "21379",
    "id": "1300871430"
  },
  {
    "city": "Aígio",
    "city_ascii": "Aigio",
    "lat": "38.2500",
    "lng": "22.0833",
    "country": "Greece",
    "iso2": "GR",
    "iso3": "GRC",
    "admin_name": "Dytikí Elláda",
    "capital": "minor",
    "population": "20422",
    "id": "1300238679"
  },
  {
    "city": "Gázi",
    "city_ascii": "Gazi",
    "lat": "35.3250",
    "lng": "25.0667",
    "country": "Greece",
    "iso2": "GR",
    "iso3": "GRC",
    "admin_name": "Kríti",
    "capital": "minor",
    "population": "19221",
    "id": "1300208558"
  },
  {
    "city": "Koropí",
    "city_ascii": "Koropi",
    "lat": "37.9000",
    "lng": "23.8733",
    "country": "Greece",
    "iso2": "GR",
    "iso3": "GRC",
    "admin_name": "Attikí",
    "capital": "minor",
    "population": "19164",
    "id": "1300178029"
  },
  {
    "city": "Préveza",
    "city_ascii": "Preveza",
    "lat": "38.9500",
    "lng": "20.7333",
    "country": "Greece",
    "iso2": "GR",
    "iso3": "GRC",
    "admin_name": "Ípeiros",
    "capital": "minor",
    "population": "19042",
    "id": "1300933723"
  },
  {
    "city": "Náousa",
    "city_ascii": "Naousa",
    "lat": "40.6333",
    "lng": "22.0667",
    "country": "Greece",
    "iso2": "GR",
    "iso3": "GRC",
    "admin_name": "Kentrikí Makedonía",
    "capital": "minor",
    "population": "18882",
    "id": "1300524747"
  },
  {
    "city": "Édessa",
    "city_ascii": "Edessa",
    "lat": "40.8000",
    "lng": "22.0500",
    "country": "Greece",
    "iso2": "GR",
    "iso3": "GRC",
    "admin_name": "Kentrikí Makedonía",
    "capital": "minor",
    "population": "18229",
    "id": "1300917524"
  },
  {
    "city": "Orestiáda",
    "city_ascii": "Orestiada",
    "lat": "41.5000",
    "lng": "26.5333",
    "country": "Greece",
    "iso2": "GR",
    "iso3": "GRC",
    "admin_name": "Anatolikí Makedonía kai Thráki",
    "capital": "minor",
    "population": "18426",
    "id": "1300874812"
  },
  {
    "city": "Flórina",
    "city_ascii": "Florina",
    "lat": "40.7833",
    "lng": "21.4000",
    "country": "Greece",
    "iso2": "GR",
    "iso3": "GRC",
    "admin_name": "Dytikí Makedonía",
    "capital": "minor",
    "population": "17686",
    "id": "1300644565"
  },
  {
    "city": "Panórama",
    "city_ascii": "Panorama",
    "lat": "40.5833",
    "lng": "23.0333",
    "country": "Greece",
    "iso2": "GR",
    "iso3": "GRC",
    "admin_name": "Kentrikí Makedonía",
    "capital": "minor",
    "population": "17444",
    "id": "1300530276"
  },
  {
    "city": "Néa Mákri",
    "city_ascii": "Nea Makri",
    "lat": "38.0833",
    "lng": "23.9833",
    "country": "Greece",
    "iso2": "GR",
    "iso3": "GRC",
    "admin_name": "Attikí",
    "capital": "",
    "population": "16670",
    "id": "1300420365"
  },
  {
    "city": "Vári",
    "city_ascii": "Vari",
    "lat": "37.8333",
    "lng": "23.8000",
    "country": "Greece",
    "iso2": "GR",
    "iso3": "GRC",
    "admin_name": "Attikí",
    "capital": "",
    "population": "15855",
    "id": "1300867950"
  },
  {
    "city": "Spárti",
    "city_ascii": "Sparti",
    "lat": "37.0739",
    "lng": "22.4294",
    "country": "Greece",
    "iso2": "GR",
    "iso3": "GRC",
    "admin_name": "Pelopónnisos",
    "capital": "minor",
    "population": "16239",
    "id": "1300989189"
  },
  {
    "city": "Néa Alikarnassós",
    "city_ascii": "Nea Alikarnassos",
    "lat": "35.3167",
    "lng": "25.1833",
    "country": "Greece",
    "iso2": "GR",
    "iso3": "GRC",
    "admin_name": "Kríti",
    "capital": "",
    "population": "14635",
    "id": "1300433837"
  },
  {
    "city": "Alexándreia",
    "city_ascii": "Alexandreia",
    "lat": "40.6333",
    "lng": "22.4500",
    "country": "Greece",
    "iso2": "GR",
    "iso3": "GRC",
    "admin_name": "Kentrikí Makedonía",
    "capital": "minor",
    "population": "14821",
    "id": "1300981589"
  },
  {
    "city": "Efkarpía",
    "city_ascii": "Efkarpia",
    "lat": "40.6833",
    "lng": "22.9500",
    "country": "Greece",
    "iso2": "GR",
    "iso3": "GRC",
    "admin_name": "Kentrikí Makedonía",
    "capital": "",
    "population": "13905",
    "id": "1300091524"
  },
  {
    "city": "Kalývia Thorikoú",
    "city_ascii": "Kalyvia Thorikou",
    "lat": "37.8333",
    "lng": "23.9167",
    "country": "Greece",
    "iso2": "GR",
    "iso3": "GRC",
    "admin_name": "Attikí",
    "capital": "minor",
    "population": "14424",
    "id": "1300423873"
  },
  {
    "city": "Náfplio",
    "city_ascii": "Nafplio",
    "lat": "37.5667",
    "lng": "22.8000",
    "country": "Greece",
    "iso2": "GR",
    "iso3": "GRC",
    "admin_name": "Pelopónnisos",
    "capital": "minor",
    "population": "14203",
    "id": "1300744950"
  },
  {
    "city": "Náfpaktos",
    "city_ascii": "Nafpaktos",
    "lat": "38.3939",
    "lng": "21.8306",
    "country": "Greece",
    "iso2": "GR",
    "iso3": "GRC",
    "admin_name": "Dytikí Elláda",
    "capital": "minor",
    "population": "13415",
    "id": "1300883211"
  },
  {
    "city": "Kastoriá",
    "city_ascii": "Kastoria",
    "lat": "40.5167",
    "lng": "21.2667",
    "country": "Greece",
    "iso2": "GR",
    "iso3": "GRC",
    "admin_name": "Dytikí Makedonía",
    "capital": "minor",
    "population": "13387",
    "id": "1300839562"
  },
  {
    "city": "Mándra",
    "city_ascii": "Mandra",
    "lat": "38.0667",
    "lng": "23.5000",
    "country": "Greece",
    "iso2": "GR",
    "iso3": "GRC",
    "admin_name": "Attikí",
    "capital": "minor",
    "population": "12888",
    "id": "1300840026"
  },
  {
    "city": "Mesolóngi",
    "city_ascii": "Mesolongi",
    "lat": "38.3692",
    "lng": "21.4278",
    "country": "Greece",
    "iso2": "GR",
    "iso3": "GRC",
    "admin_name": "Dytikí Elláda",
    "capital": "minor",
    "population": "12785",
    "id": "1300632495"
  },
  {
    "city": "Rafína",
    "city_ascii": "Rafina",
    "lat": "38.0167",
    "lng": "24.0000",
    "country": "Greece",
    "iso2": "GR",
    "iso3": "GRC",
    "admin_name": "Attikí",
    "capital": "minor",
    "population": "12168",
    "id": "1300557701"
  },
  {
    "city": "Ierápetra",
    "city_ascii": "Ierapetra",
    "lat": "35.0000",
    "lng": "25.7333",
    "country": "Greece",
    "iso2": "GR",
    "iso3": "GRC",
    "admin_name": "Kríti",
    "capital": "minor",
    "population": "12355",
    "id": "1300968251"
  },
  {
    "city": "Kálymnos",
    "city_ascii": "Kalymnos",
    "lat": "36.9900",
    "lng": "26.9850",
    "country": "Greece",
    "iso2": "GR",
    "iso3": "GRC",
    "admin_name": "Nótio Aigaío",
    "capital": "minor",
    "population": "12324",
    "id": "1300286595"
  },
  {
    "city": "Glyká Nerá",
    "city_ascii": "Glyka Nera",
    "lat": "37.9917",
    "lng": "23.8483",
    "country": "Greece",
    "iso2": "GR",
    "iso3": "GRC",
    "admin_name": "Attikí",
    "capital": "",
    "population": "11049",
    "id": "1300485873"
  },
  {
    "city": "Ialysós",
    "city_ascii": "Ialysos",
    "lat": "36.4167",
    "lng": "28.1500",
    "country": "Greece",
    "iso2": "GR",
    "iso3": "GRC",
    "admin_name": "Nótio Aigaío",
    "capital": "",
    "population": "11331",
    "id": "1300674720"
  },
  {
    "city": "Loutráki",
    "city_ascii": "Loutraki",
    "lat": "37.9750",
    "lng": "22.9767",
    "country": "Greece",
    "iso2": "GR",
    "iso3": "GRC",
    "admin_name": "Pelopónnisos",
    "capital": "minor",
    "population": "11564",
    "id": "1300702488"
  },
  {
    "city": "Anatolí",
    "city_ascii": "Anatoli",
    "lat": "39.6386",
    "lng": "20.8661",
    "country": "Greece",
    "iso2": "GR",
    "iso3": "GRC",
    "admin_name": "Ípeiros",
    "capital": "",
    "population": "9798",
    "id": "1300401701"
  },
  {
    "city": "Kiáto",
    "city_ascii": "Kiato",
    "lat": "38.0102",
    "lng": "22.7493",
    "country": "Greece",
    "iso2": "GR",
    "iso3": "GRC",
    "admin_name": "Pelopónnisos",
    "capital": "minor",
    "population": "9812",
    "id": "1300543493"
  },
  {
    "city": "Týrnavos",
    "city_ascii": "Tyrnavos",
    "lat": "39.7333",
    "lng": "22.2833",
    "country": "Greece",
    "iso2": "GR",
    "iso3": "GRC",
    "admin_name": "Thessalía",
    "capital": "minor",
    "population": "11069",
    "id": "1300449251"
  },
  {
    "city": "Lágos",
    "city_ascii": "Lagos",
    "lat": "41.0667",
    "lng": "25.0250",
    "country": "Greece",
    "iso2": "GR",
    "iso3": "GRC",
    "admin_name": "Anatolikí Makedonía kai Thráki",
    "capital": "",
    "population": "10862",
    "id": "1300461284"
  },
  {
    "city": "Diavatá",
    "city_ascii": "Diavata",
    "lat": "40.6883",
    "lng": "22.8583",
    "country": "Greece",
    "iso2": "GR",
    "iso3": "GRC",
    "admin_name": "Kentrikí Makedonía",
    "capital": "",
    "population": "9890",
    "id": "1300787037"
  },
  {
    "city": "Skilloúnta",
    "city_ascii": "Skillounta",
    "lat": "37.6167",
    "lng": "21.6333",
    "country": "Greece",
    "iso2": "GR",
    "iso3": "GRC",
    "admin_name": "Dytikí Elláda",
    "capital": "",
    "population": "10525",
    "id": "1300958571"
  },
  {
    "city": "Néa Moudaniá",
    "city_ascii": "Nea Moudania",
    "lat": "40.2386",
    "lng": "23.2814",
    "country": "Greece",
    "iso2": "GR",
    "iso3": "GRC",
    "admin_name": "Kentrikí Makedonía",
    "capital": "minor",
    "population": "9342",
    "id": "1300681996"
  },
  {
    "city": "Pórto Ráfti",
    "city_ascii": "Porto Rafti",
    "lat": "37.8844",
    "lng": "24.0125",
    "country": "Greece",
    "iso2": "GR",
    "iso3": "GRC",
    "admin_name": "Attikí",
    "capital": "",
    "population": "9686",
    "id": "1300931279"
  },
  {
    "city": "Néa Artáki",
    "city_ascii": "Nea Artaki",
    "lat": "38.5167",
    "lng": "23.6333",
    "country": "Greece",
    "iso2": "GR",
    "iso3": "GRC",
    "admin_name": "Stereá Elláda",
    "capital": "",
    "population": "9489",
    "id": "1300651375"
  },
  {
    "city": "Argostóli",
    "city_ascii": "Argostoli",
    "lat": "38.1739",
    "lng": "20.4883",
    "country": "Greece",
    "iso2": "GR",
    "iso3": "GRC",
    "admin_name": "Ionía Nísia",
    "capital": "minor",
    "population": "9748",
    "id": "1300532537"
  },
  {
    "city": "Néa Michanióna",
    "city_ascii": "Nea Michaniona",
    "lat": "40.4644",
    "lng": "22.8606",
    "country": "Greece",
    "iso2": "GR",
    "iso3": "GRC",
    "admin_name": "Kentrikí Makedonía",
    "capital": "",
    "population": "8775",
    "id": "1300851407"
  },
  {
    "city": "Síndos",
    "city_ascii": "Sindos",
    "lat": "40.6706",
    "lng": "22.8056",
    "country": "Greece",
    "iso2": "GR",
    "iso3": "GRC",
    "admin_name": "Kentrikí Makedonía",
    "capital": "minor",
    "population": "9289",
    "id": "1300637403"
  },
  {
    "city": "Fársala",
    "city_ascii": "Farsala",
    "lat": "39.2833",
    "lng": "22.3833",
    "country": "Greece",
    "iso2": "GR",
    "iso3": "GRC",
    "admin_name": "Thessalía",
    "capital": "minor",
    "population": "9298",
    "id": "1300870783"
  },
  {
    "city": "Vochaïkó",
    "city_ascii": "Vochaiko",
    "lat": "37.9333",
    "lng": "22.8000",
    "country": "Greece",
    "iso2": "GR",
    "iso3": "GRC",
    "admin_name": "Pelopónnisos",
    "capital": "",
    "population": "9258",
    "id": "1300171316"
  },
  {
    "city": "Spáta",
    "city_ascii": "Spata",
    "lat": "37.9667",
    "lng": "23.9167",
    "country": "Greece",
    "iso2": "GR",
    "iso3": "GRC",
    "admin_name": "Attikí",
    "capital": "minor",
    "population": "9198",
    "id": "1300805467"
  },
  {
    "city": "Siteía",
    "city_ascii": "Siteia",
    "lat": "35.2000",
    "lng": "26.1000",
    "country": "Greece",
    "iso2": "GR",
    "iso3": "GRC",
    "admin_name": "Kríti",
    "capital": "minor",
    "population": "9348",
    "id": "1300275780"
  },
  {
    "city": "Didymóteicho",
    "city_ascii": "Didymoteicho",
    "lat": "41.3500",
    "lng": "26.5000",
    "country": "Greece",
    "iso2": "GR",
    "iso3": "GRC",
    "admin_name": "Anatolikí Makedonía kai Thráki",
    "capital": "minor",
    "population": "9263",
    "id": "1300999441"
  },
  {
    "city": "Epanomí",
    "city_ascii": "Epanomi",
    "lat": "40.4261",
    "lng": "22.9281",
    "country": "Greece",
    "iso2": "GR",
    "iso3": "GRC",
    "admin_name": "Kentrikí Makedonía",
    "capital": "",
    "population": "8979",
    "id": "1300802037"
  },
  {
    "city": "Chrysoúpoli",
    "city_ascii": "Chrysoupoli",
    "lat": "40.9833",
    "lng": "24.7000",
    "country": "Greece",
    "iso2": "GR",
    "iso3": "GRC",
    "admin_name": "Anatolikí Makedonía kai Thráki",
    "capital": "minor",
    "population": "8885",
    "id": "1300208248"
  },
  {
    "city": "Polýgyros",
    "city_ascii": "Polygyros",
    "lat": "40.3783",
    "lng": "23.4453",
    "country": "Greece",
    "iso2": "GR",
    "iso3": "GRC",
    "admin_name": "Kentrikí Makedonía",
    "capital": "minor",
    "population": "6121",
    "id": "1300297120"
  }
]