[
  {
    "city": "Kigali",
    "city_ascii": "Kigali",
    "lat": "-1.9536",
    "lng": "30.0606",
    "country": "Rwanda",
    "iso2": "RW",
    "iso3": "RWA",
    "admin_name": "Kigali",
    "capital": "primary",
    "population": "1156663",
    "id": "1646923541"
  },
  {
    "city": "Nyanza",
    "city_ascii": "Nyanza",
    "lat": "-2.3500",
    "lng": "29.7333",
    "country": "Rwanda",
    "iso2": "RW",
    "iso3": "RWA",
    "admin_name": "Southern Province",
    "capital": "admin",
    "population": "225209",
    "id": "1646257566"
  },
  {
    "city": "Gisenyi",
    "city_ascii": "Gisenyi",
    "lat": "-1.7000",
    "lng": "29.2500",
    "country": "Rwanda",
    "iso2": "RW",
    "iso3": "RWA",
    "admin_name": "Western Province",
    "capital": "",
    "population": "136830",
    "id": "1646226936"
  },
  {
    "city": "Ruhengeri",
    "city_ascii": "Ruhengeri",
    "lat": "-1.5000",
    "lng": "29.6333",
    "country": "Rwanda",
    "iso2": "RW",
    "iso3": "RWA",
    "admin_name": "Northern Province",
    "capital": "",
    "population": "59333",
    "id": "1646793543"
  },
  {
    "city": "Byumba",
    "city_ascii": "Byumba",
    "lat": "-1.5761",
    "lng": "30.0675",
    "country": "Rwanda",
    "iso2": "RW",
    "iso3": "RWA",
    "admin_name": "Northern Province",
    "capital": "admin",
    "population": "34544",
    "id": "1646868980"
  },
  {
    "city": "Rwamagana",
    "city_ascii": "Rwamagana",
    "lat": "-1.9500",
    "lng": "30.4333",
    "country": "Rwanda",
    "iso2": "RW",
    "iso3": "RWA",
    "admin_name": "Eastern Province",
    "capital": "admin",
    "population": "18009",
    "id": "1646996571"
  },
  {
    "city": "Kibuye",
    "city_ascii": "Kibuye",
    "lat": "-2.0617",
    "lng": "29.3483",
    "country": "Rwanda",
    "iso2": "RW",
    "iso3": "RWA",
    "admin_name": "Western Province",
    "capital": "admin",
    "population": "12325",
    "id": "1646264461"
  },
  {
    "city": "Gitarama",
    "city_ascii": "Gitarama",
    "lat": "-2.0696",
    "lng": "29.7600",
    "country": "Rwanda",
    "iso2": "RW",
    "iso3": "RWA",
    "admin_name": "Southern Province",
    "capital": "",
    "population": "87613",
    "id": "1646038255"
  },
  {
    "city": "Butare",
    "city_ascii": "Butare",
    "lat": "-2.6000",
    "lng": "29.7500",
    "country": "Rwanda",
    "iso2": "RW",
    "iso3": "RWA",
    "admin_name": "Southern Province",
    "capital": "",
    "population": "50220",
    "id": "1646348441"
  },
  {
    "city": "Kabarore",
    "city_ascii": "Kabarore",
    "lat": "-1.6211",
    "lng": "30.3850",
    "country": "Rwanda",
    "iso2": "RW",
    "iso3": "RWA",
    "admin_name": "Eastern Province",
    "capital": "",
    "population": "50288",
    "id": "1646082974"
  },
  {
    "city": "Muhanga",
    "city_ascii": "Muhanga",
    "lat": "-2.0845",
    "lng": "29.7527",
    "country": "Rwanda",
    "iso2": "RW",
    "iso3": "RWA",
    "admin_name": "Southern Province",
    "capital": "",
    "population": "49038",
    "id": "1646187395"
  },
  {
    "city": "Gatunda",
    "city_ascii": "Gatunda",
    "lat": "-1.4350",
    "lng": "30.0211",
    "country": "Rwanda",
    "iso2": "RW",
    "iso3": "RWA",
    "admin_name": "Eastern Province",
    "capital": "",
    "population": "41000",
    "id": "1646499404"
  },
  {
    "city": "Kabuga",
    "city_ascii": "Kabuga",
    "lat": "-1.9667",
    "lng": "30.2167",
    "country": "Rwanda",
    "iso2": "RW",
    "iso3": "RWA",
    "admin_name": "Kigali",
    "capital": "",
    "population": "40202",
    "id": "1646271073"
  },
  {
    "city": "Nyamata",
    "city_ascii": "Nyamata",
    "lat": "-2.2050",
    "lng": "30.1450",
    "country": "Rwanda",
    "iso2": "RW",
    "iso3": "RWA",
    "admin_name": "Eastern Province",
    "capital": "",
    "population": "34922",
    "id": "1646130280"
  },
  {
    "city": "Ngororero",
    "city_ascii": "Ngororero",
    "lat": "-1.8650",
    "lng": "29.6250",
    "country": "Rwanda",
    "iso2": "RW",
    "iso3": "RWA",
    "admin_name": "Western Province",
    "capital": "",
    "population": "34559",
    "id": "1646903610"
  },
  {
    "city": "Rubengera",
    "city_ascii": "Rubengera",
    "lat": "-2.0519",
    "lng": "29.4144",
    "country": "Rwanda",
    "iso2": "RW",
    "iso3": "RWA",
    "admin_name": "Western Province",
    "capital": "",
    "population": "33019",
    "id": "1646153886"
  },
  {
    "city": "Bugarama",
    "city_ascii": "Bugarama",
    "lat": "-2.6972",
    "lng": "29.0083",
    "country": "Rwanda",
    "iso2": "RW",
    "iso3": "RWA",
    "admin_name": "Western Province",
    "capital": "",
    "population": "28810",
    "id": "1646110055"
  },
  {
    "city": "Cyangugu",
    "city_ascii": "Cyangugu",
    "lat": "-2.4833",
    "lng": "28.8967",
    "country": "Rwanda",
    "iso2": "RW",
    "iso3": "RWA",
    "admin_name": "Western Province",
    "capital": "",
    "population": "27416",
    "id": "1646073091"
  },
  {
    "city": "Ndora",
    "city_ascii": "Ndora",
    "lat": "-2.6033",
    "lng": "29.8336",
    "country": "Rwanda",
    "iso2": "RW",
    "iso3": "RWA",
    "admin_name": "Southern Province",
    "capital": "",
    "population": "23813",
    "id": "1646457755"
  },
  {
    "city": "Kibeho",
    "city_ascii": "Kibeho",
    "lat": "-2.6333",
    "lng": "29.5500",
    "country": "Rwanda",
    "iso2": "RW",
    "iso3": "RWA",
    "admin_name": "Southern Province",
    "capital": "",
    "population": "21456",
    "id": "1646397419"
  },
  {
    "city": "Murambi",
    "city_ascii": "Murambi",
    "lat": "-1.8133",
    "lng": "30.0456",
    "country": "Rwanda",
    "iso2": "RW",
    "iso3": "RWA",
    "admin_name": "Northern Province",
    "capital": "",
    "population": "17892",
    "id": "1646072975"
  },
  {
    "city": "Gikongoro",
    "city_ascii": "Gikongoro",
    "lat": "-2.4697",
    "lng": "29.5814",
    "country": "Rwanda",
    "iso2": "RW",
    "iso3": "RWA",
    "admin_name": "Southern Province",
    "capital": "",
    "population": "16695",
    "id": "1646632562"
  },
  {
    "city": "Ruhango",
    "city_ascii": "Ruhango",
    "lat": "-2.2325",
    "lng": "29.7803",
    "country": "Rwanda",
    "iso2": "RW",
    "iso3": "RWA",
    "admin_name": "Southern Province",
    "capital": "",
    "population": "17051",
    "id": "1646180341"
  },
  {
    "city": "Busogo",
    "city_ascii": "Busogo",
    "lat": "-1.5572",
    "lng": "29.5442",
    "country": "Rwanda",
    "iso2": "RW",
    "iso3": "RWA",
    "admin_name": "Northern Province",
    "capital": "",
    "population": "12460",
    "id": "1646386740"
  },
  {
    "city": "Kibungo",
    "city_ascii": "Kibungo",
    "lat": "-2.1608",
    "lng": "30.5442",
    "country": "Rwanda",
    "iso2": "RW",
    "iso3": "RWA",
    "admin_name": "Eastern Province",
    "capital": "",
    "population": "11537",
    "id": "1646746155"
  }
]