[
  {
    "city": "Juba",
    "city_ascii": "Juba",
    "lat": "4.8500",
    "lng": "31.6000",
    "country": "South Sudan",
    "iso2": "SS",
    "iso3": "SSD",
    "admin_name": "Central Equatoria",
    "capital": "primary",
    "population": "525953",
    "id": "1728444337"
  },
  {
    "city": "Bor",
    "city_ascii": "Bor",
    "lat": "6.2125",
    "lng": "31.5608",
    "country": "South Sudan",
    "iso2": "SS",
    "iso3": "SSD",
    "admin_name": "Jonglei",
    "capital": "admin",
    "population": "315351",
    "id": "1728186782"
  },
  {
    "city": "Kajo Kaji",
    "city_ascii": "Kajo Kaji",
    "lat": "3.8492",
    "lng": "31.6578",
    "country": "South Sudan",
    "iso2": "SS",
    "iso3": "SSD",
    "admin_name": "Central Equatoria",
    "capital": "",
    "population": "196000",
    "id": "1728764691"
  },
  {
    "city": "Yei",
    "city_ascii": "Yei",
    "lat": "4.0904",
    "lng": "30.6800",
    "country": "South Sudan",
    "iso2": "SS",
    "iso3": "SSD",
    "admin_name": "Central Equatoria",
    "capital": "",
    "population": "185000",
    "id": "1728607274"
  },
  {
    "city": "Magwe",
    "city_ascii": "Magwe",
    "lat": "4.1333",
    "lng": "32.3000",
    "country": "South Sudan",
    "iso2": "SS",
    "iso3": "SSD",
    "admin_name": "Eastern Equatoria",
    "capital": "",
    "population": "169826",
    "id": "1728085840"
  },
  {
    "city": "Wau",
    "city_ascii": "Wau",
    "lat": "7.7000",
    "lng": "28.0000",
    "country": "South Sudan",
    "iso2": "SS",
    "iso3": "SSD",
    "admin_name": "Western Bahr el Ghazal",
    "capital": "admin",
    "population": "163442",
    "id": "1728877501"
  },
  {
    "city": "Malakal",
    "city_ascii": "Malakal",
    "lat": "9.5500",
    "lng": "31.6500",
    "country": "South Sudan",
    "iso2": "SS",
    "iso3": "SSD",
    "admin_name": "Upper Nile",
    "capital": "admin",
    "population": "147450",
    "id": "1728299711"
  },
  {
    "city": "Leer",
    "city_ascii": "Leer",
    "lat": "8.2979",
    "lng": "30.1475",
    "country": "South Sudan",
    "iso2": "SS",
    "iso3": "SSD",
    "admin_name": "Unity",
    "capital": "",
    "population": "100722",
    "id": "1728110399"
  },
  {
    "city": "Kuacjok",
    "city_ascii": "Kuacjok",
    "lat": "8.3100",
    "lng": "27.9900",
    "country": "South Sudan",
    "iso2": "SS",
    "iso3": "SSD",
    "admin_name": "Warrap",
    "capital": "admin",
    "population": "78111",
    "id": "1728713745"
  },
  {
    "city": "Aweil",
    "city_ascii": "Aweil",
    "lat": "8.7800",
    "lng": "27.4000",
    "country": "South Sudan",
    "iso2": "SS",
    "iso3": "SSD",
    "admin_name": "Northern Bahr el Ghazal",
    "capital": "admin",
    "population": "46705",
    "id": "1728097802"
  },
  {
    "city": "Yambio",
    "city_ascii": "Yambio",
    "lat": "4.5650",
    "lng": "28.3750",
    "country": "South Sudan",
    "iso2": "SS",
    "iso3": "SSD",
    "admin_name": "Western Equatoria",
    "capital": "admin",
    "population": "45685",
    "id": "1728463035"
  },
  {
    "city": "Rumbek",
    "city_ascii": "Rumbek",
    "lat": "6.8060",
    "lng": "29.6760",
    "country": "South Sudan",
    "iso2": "SS",
    "iso3": "SSD",
    "admin_name": "Lakes",
    "capital": "admin",
    "population": "32100",
    "id": "1728842249"
  },
  {
    "city": "Torit",
    "city_ascii": "Torit",
    "lat": "4.4081",
    "lng": "32.5750",
    "country": "South Sudan",
    "iso2": "SS",
    "iso3": "SSD",
    "admin_name": "Eastern Equatoria",
    "capital": "admin",
    "population": "17957",
    "id": "1728698486"
  },
  {
    "city": "Bentiu",
    "city_ascii": "Bentiu",
    "lat": "9.2600",
    "lng": "29.8000",
    "country": "South Sudan",
    "iso2": "SS",
    "iso3": "SSD",
    "admin_name": "Unity",
    "capital": "admin",
    "population": "7781",
    "id": "1728684421"
  },
  {
    "city": "Renk",
    "city_ascii": "Renk",
    "lat": "11.8300",
    "lng": "32.8000",
    "country": "South Sudan",
    "iso2": "SS",
    "iso3": "SSD",
    "admin_name": "Upper Nile",
    "capital": "",
    "population": "69079",
    "id": "1728415189"
  },
  {
    "city": "Gogrial",
    "city_ascii": "Gogrial",
    "lat": "8.5300",
    "lng": "28.1000",
    "country": "South Sudan",
    "iso2": "SS",
    "iso3": "SSD",
    "admin_name": "Warrap",
    "capital": "",
    "population": "50065",
    "id": "1728342889"
  },
  {
    "city": "Farajok",
    "city_ascii": "Farajok",
    "lat": "3.8724",
    "lng": "32.4792",
    "country": "South Sudan",
    "iso2": "SS",
    "iso3": "SSD",
    "admin_name": "Eastern Equatoria",
    "capital": "",
    "population": "49000",
    "id": "1728346194"
  },
  {
    "city": "Nimule",
    "city_ascii": "Nimule",
    "lat": "3.5961",
    "lng": "32.0636",
    "country": "South Sudan",
    "iso2": "SS",
    "iso3": "SSD",
    "admin_name": "Eastern Equatoria",
    "capital": "",
    "population": "45000",
    "id": "1728476966"
  },
  {
    "city": "Ikoto",
    "city_ascii": "Ikoto",
    "lat": "4.0783",
    "lng": "33.1089",
    "country": "South Sudan",
    "iso2": "SS",
    "iso3": "SSD",
    "admin_name": "Eastern Equatoria",
    "capital": "",
    "population": "30000",
    "id": "1728694229"
  },
  {
    "city": "Maridi",
    "city_ascii": "Maridi",
    "lat": "4.9100",
    "lng": "29.4500",
    "country": "South Sudan",
    "iso2": "SS",
    "iso3": "SSD",
    "admin_name": "Western Equatoria",
    "capital": "",
    "population": "18000",
    "id": "1728685965"
  },
  {
    "city": "Tonj",
    "city_ascii": "Tonj",
    "lat": "7.2800",
    "lng": "28.6800",
    "country": "South Sudan",
    "iso2": "SS",
    "iso3": "SSD",
    "admin_name": "Warrap",
    "capital": "",
    "population": "17340",
    "id": "1728183836"
  },
  {
    "city": "Kafia Kingi",
    "city_ascii": "Kafia Kingi",
    "lat": "9.2731",
    "lng": "24.4174",
    "country": "South Sudan",
    "iso2": "SS",
    "iso3": "SSD",
    "admin_name": "Western Bahr el Ghazal",
    "capital": "",
    "population": "16000",
    "id": "1728934320"
  },
  {
    "city": "Yirol",
    "city_ascii": "Yirol",
    "lat": "6.5600",
    "lng": "30.5100",
    "country": "South Sudan",
    "iso2": "SS",
    "iso3": "SSD",
    "admin_name": "Lakes",
    "capital": "",
    "population": "11650",
    "id": "1728880750"
  },
  {
    "city": "Tambura",
    "city_ascii": "Tambura",
    "lat": "5.5900",
    "lng": "27.4700",
    "country": "South Sudan",
    "iso2": "SS",
    "iso3": "SSD",
    "admin_name": "Western Equatoria",
    "capital": "",
    "population": "9500",
    "id": "1728480135"
  },
  {
    "city": "Kapoeta",
    "city_ascii": "Kapoeta",
    "lat": "4.7750",
    "lng": "33.5900",
    "country": "South Sudan",
    "iso2": "SS",
    "iso3": "SSD",
    "admin_name": "Eastern Equatoria",
    "capital": "",
    "population": "7042",
    "id": "1728483282"
  },
  {
    "city": "Melut",
    "city_ascii": "Melut",
    "lat": "10.4404",
    "lng": "32.2015",
    "country": "South Sudan",
    "iso2": "SS",
    "iso3": "SSD",
    "admin_name": "Upper Nile",
    "capital": "",
    "population": "6407",
    "id": "1728493346"
  },
  {
    "city": "Nasir",
    "city_ascii": "Nasir",
    "lat": "8.6000",
    "lng": "33.0667",
    "country": "South Sudan",
    "iso2": "SS",
    "iso3": "SSD",
    "admin_name": "Upper Nile",
    "capital": "",
    "population": "1741",
    "id": "1728210480"
  }
]