[
  {
    "city": "Algiers",
    "city_ascii": "Algiers",
    "lat": "36.7539",
    "lng": "3.0589",
    "country": "Algeria",
    "iso2": "DZ",
    "iso3": "DZA",
    "admin_name": "Alger",
    "capital": "primary",
    "population": "3415811",
    "id": "1012973369"
  },
  {
    "city": "Oran",
    "city_ascii": "Oran",
    "lat": "35.6969",
    "lng": "-0.6331",
    "country": "Algeria",
    "iso2": "DZ",
    "iso3": "DZA",
    "admin_name": "Oran",
    "capital": "admin",
    "population": "852000",
    "id": "1012126319"
  },
  {
    "city": "Constantine",
    "city_ascii": "Constantine",
    "lat": "36.3650",
    "lng": "6.6147",
    "country": "Algeria",
    "iso2": "DZ",
    "iso3": "DZA",
    "admin_name": "Constantine",
    "capital": "admin",
    "population": "448374",
    "id": "1012275076"
  },
  {
    "city": "Blida",
    "city_ascii": "Blida",
    "lat": "36.4722",
    "lng": "2.8333",
    "country": "Algeria",
    "iso2": "DZ",
    "iso3": "DZA",
    "admin_name": "Blida",
    "capital": "admin",
    "population": "331779",
    "id": "1012045589"
  },
  {
    "city": "Batna",
    "city_ascii": "Batna",
    "lat": "35.5500",
    "lng": "6.1667",
    "country": "Algeria",
    "iso2": "DZ",
    "iso3": "DZA",
    "admin_name": "Batna",
    "capital": "admin",
    "population": "290645",
    "id": "1012093229"
  },
  {
    "city": "Sétif",
    "city_ascii": "Setif",
    "lat": "36.1900",
    "lng": "5.4100",
    "country": "Algeria",
    "iso2": "DZ",
    "iso3": "DZA",
    "admin_name": "Sétif",
    "capital": "admin",
    "population": "288461",
    "id": "1012981116"
  },
  {
    "city": "Djelfa",
    "city_ascii": "Djelfa",
    "lat": "34.6667",
    "lng": "3.2500",
    "country": "Algeria",
    "iso2": "DZ",
    "iso3": "DZA",
    "admin_name": "Djelfa",
    "capital": "admin",
    "population": "265833",
    "id": "1012268984"
  },
  {
    "city": "Annaba",
    "city_ascii": "Annaba",
    "lat": "36.9000",
    "lng": "7.7667",
    "country": "Algeria",
    "iso2": "DZ",
    "iso3": "DZA",
    "admin_name": "Annaba",
    "capital": "admin",
    "population": "257359",
    "id": "1012600001"
  },
  {
    "city": "Sidi Bel Abbès",
    "city_ascii": "Sidi Bel Abbes",
    "lat": "35.2000",
    "lng": "-0.6333",
    "country": "Algeria",
    "iso2": "DZ",
    "iso3": "DZA",
    "admin_name": "Sidi Bel Abbès",
    "capital": "admin",
    "population": "212935",
    "id": "1012123414"
  },
  {
    "city": "Biskra",
    "city_ascii": "Biskra",
    "lat": "34.8500",
    "lng": "5.7333",
    "country": "Algeria",
    "iso2": "DZ",
    "iso3": "DZA",
    "admin_name": "Biskra",
    "capital": "admin",
    "population": "204661",
    "id": "1012947247"
  },
  {
    "city": "Tébessa",
    "city_ascii": "Tebessa",
    "lat": "35.4000",
    "lng": "8.1167",
    "country": "Algeria",
    "iso2": "DZ",
    "iso3": "DZA",
    "admin_name": "Tébessa",
    "capital": "admin",
    "population": "194461",
    "id": "1012196375"
  },
  {
    "city": "Tiaret",
    "city_ascii": "Tiaret",
    "lat": "35.3667",
    "lng": "1.3167",
    "country": "Algeria",
    "iso2": "DZ",
    "iso3": "DZA",
    "admin_name": "Tiaret",
    "capital": "admin",
    "population": "178915",
    "id": "1012785868"
  },
  {
    "city": "Bejaïa",
    "city_ascii": "Bejaia",
    "lat": "36.7511",
    "lng": "5.0642",
    "country": "Algeria",
    "iso2": "DZ",
    "iso3": "DZA",
    "admin_name": "Bejaïa",
    "capital": "admin",
    "population": "176139",
    "id": "1012140298"
  },
  {
    "city": "Tlemcen",
    "city_ascii": "Tlemcen",
    "lat": "34.8828",
    "lng": "-1.3167",
    "country": "Algeria",
    "iso2": "DZ",
    "iso3": "DZA",
    "admin_name": "Tlemcen",
    "capital": "admin",
    "population": "173531",
    "id": "1012978325"
  },
  {
    "city": "Bordj Bou Arreridj",
    "city_ascii": "Bordj Bou Arreridj",
    "lat": "36.0667",
    "lng": "4.7667",
    "country": "Algeria",
    "iso2": "DZ",
    "iso3": "DZA",
    "admin_name": "Bordj Bou Arréridj",
    "capital": "admin",
    "population": "168346",
    "id": "1012016677"
  },
  {
    "city": "Skikda",
    "city_ascii": "Skikda",
    "lat": "36.8667",
    "lng": "6.9000",
    "country": "Algeria",
    "iso2": "DZ",
    "iso3": "DZA",
    "admin_name": "Skikda",
    "capital": "admin",
    "population": "163318",
    "id": "1012619903"
  },
  {
    "city": "Béchar",
    "city_ascii": "Bechar",
    "lat": "31.6333",
    "lng": "-2.2000",
    "country": "Algeria",
    "iso2": "DZ",
    "iso3": "DZA",
    "admin_name": "Béchar",
    "capital": "admin",
    "population": "165627",
    "id": "1012371820"
  },
  {
    "city": "El Eulma",
    "city_ascii": "El Eulma",
    "lat": "36.1528",
    "lng": "5.6900",
    "country": "Algeria",
    "iso2": "DZ",
    "iso3": "DZA",
    "admin_name": "Sétif",
    "capital": "",
    "population": "155038",
    "id": "1012292620"
  },
  {
    "city": "Chlef",
    "city_ascii": "Chlef",
    "lat": "36.1647",
    "lng": "1.3317",
    "country": "Algeria",
    "iso2": "DZ",
    "iso3": "DZA",
    "admin_name": "Chlef",
    "capital": "admin",
    "population": "155134",
    "id": "1012772239"
  },
  {
    "city": "Souk Ahras",
    "city_ascii": "Souk Ahras",
    "lat": "36.2864",
    "lng": "7.9511",
    "country": "Algeria",
    "iso2": "DZ",
    "iso3": "DZA",
    "admin_name": "Souk Ahras",
    "capital": "admin",
    "population": "155259",
    "id": "1012419619"
  },
  {
    "city": "M’Sila",
    "city_ascii": "M'Sila",
    "lat": "35.7058",
    "lng": "4.5419",
    "country": "Algeria",
    "iso2": "DZ",
    "iso3": "DZA",
    "admin_name": "M’sila",
    "capital": "admin",
    "population": "150000",
    "id": "1012857730"
  },
  {
    "city": "Mostaganem",
    "city_ascii": "Mostaganem",
    "lat": "35.9333",
    "lng": "0.0833",
    "country": "Algeria",
    "iso2": "DZ",
    "iso3": "DZA",
    "admin_name": "Mostaganem",
    "capital": "admin",
    "population": "145696",
    "id": "1012061703"
  },
  {
    "city": "Médéa",
    "city_ascii": "Medea",
    "lat": "36.2675",
    "lng": "2.7500",
    "country": "Algeria",
    "iso2": "DZ",
    "iso3": "DZA",
    "admin_name": "Médéa",
    "capital": "admin",
    "population": "138355",
    "id": "1012758282"
  },
  {
    "city": "Tizi Ouzou",
    "city_ascii": "Tizi Ouzou",
    "lat": "36.7169",
    "lng": "4.0497",
    "country": "Algeria",
    "iso2": "DZ",
    "iso3": "DZA",
    "admin_name": "Tizi Ouzou",
    "capital": "admin",
    "population": "135088",
    "id": "1012126997"
  },
  {
    "city": "El Oued",
    "city_ascii": "El Oued",
    "lat": "33.3683",
    "lng": "6.8675",
    "country": "Algeria",
    "iso2": "DZ",
    "iso3": "DZA",
    "admin_name": "El Oued",
    "capital": "admin",
    "population": "134699",
    "id": "1012148937"
  },
  {
    "city": "Laghouat",
    "city_ascii": "Laghouat",
    "lat": "33.8000",
    "lng": "2.8650",
    "country": "Algeria",
    "iso2": "DZ",
    "iso3": "DZA",
    "admin_name": "Laghouat",
    "capital": "admin",
    "population": "134372",
    "id": "1012233848"
  },
  {
    "city": "Jijel",
    "city_ascii": "Jijel",
    "lat": "36.8206",
    "lng": "5.7667",
    "country": "Algeria",
    "iso2": "DZ",
    "iso3": "DZA",
    "admin_name": "Jijel",
    "capital": "admin",
    "population": "131513",
    "id": "1012782547"
  },
  {
    "city": "Ouargla",
    "city_ascii": "Ouargla",
    "lat": "31.9500",
    "lng": "5.3167",
    "country": "Algeria",
    "iso2": "DZ",
    "iso3": "DZA",
    "admin_name": "Ouargla",
    "capital": "admin",
    "population": "133024",
    "id": "1012425687"
  },
  {
    "city": "Relizane",
    "city_ascii": "Relizane",
    "lat": "35.7372",
    "lng": "0.5558",
    "country": "Algeria",
    "iso2": "DZ",
    "iso3": "DZA",
    "admin_name": "Relizane",
    "capital": "admin",
    "population": "130094",
    "id": "1012939885"
  },
  {
    "city": "Saïda",
    "city_ascii": "Saida",
    "lat": "34.8303",
    "lng": "0.1517",
    "country": "Algeria",
    "iso2": "DZ",
    "iso3": "DZA",
    "admin_name": "Saïda",
    "capital": "admin",
    "population": "128413",
    "id": "1012285874"
  },
  {
    "city": "Guelma",
    "city_ascii": "Guelma",
    "lat": "36.4619",
    "lng": "7.4258",
    "country": "Algeria",
    "iso2": "DZ",
    "iso3": "DZA",
    "admin_name": "Guelma",
    "capital": "admin",
    "population": "120004",
    "id": "1012266321"
  },
  {
    "city": "Ghardaïa",
    "city_ascii": "Ghardaia",
    "lat": "32.4833",
    "lng": "3.6667",
    "country": "Algeria",
    "iso2": "DZ",
    "iso3": "DZA",
    "admin_name": "Ghardaïa",
    "capital": "admin",
    "population": "120000",
    "id": "1012074690"
  },
  {
    "city": "Aïn Beïda",
    "city_ascii": "Ain Beida",
    "lat": "35.7964",
    "lng": "7.3928",
    "country": "Algeria",
    "iso2": "DZ",
    "iso3": "DZA",
    "admin_name": "Oum el Bouaghi",
    "capital": "",
    "population": "116064",
    "id": "1012021090"
  },
  {
    "city": "Khenchela",
    "city_ascii": "Khenchela",
    "lat": "35.4167",
    "lng": "7.1333",
    "country": "Algeria",
    "iso2": "DZ",
    "iso3": "DZA",
    "admin_name": "Khenchela",
    "capital": "admin",
    "population": "108580",
    "id": "1012495148"
  },
  {
    "city": "Bou Saâda",
    "city_ascii": "Bou Saada",
    "lat": "35.2083",
    "lng": "4.1739",
    "country": "Algeria",
    "iso2": "DZ",
    "iso3": "DZA",
    "admin_name": "M’sila",
    "capital": "",
    "population": "111787",
    "id": "1012931222"
  },
  {
    "city": "Mascara",
    "city_ascii": "Mascara",
    "lat": "35.4000",
    "lng": "0.1333",
    "country": "Algeria",
    "iso2": "DZ",
    "iso3": "DZA",
    "admin_name": "Mascara",
    "capital": "admin",
    "population": "108587",
    "id": "1012738269"
  },
  {
    "city": "Messaad",
    "city_ascii": "Messaad",
    "lat": "34.1542",
    "lng": "3.4969",
    "country": "Algeria",
    "iso2": "DZ",
    "iso3": "DZA",
    "admin_name": "Djelfa",
    "capital": "",
    "population": "102453",
    "id": "1012278908"
  },
  {
    "city": "Aïn Oussera",
    "city_ascii": "Ain Oussera",
    "lat": "35.4489",
    "lng": "2.9044",
    "country": "Algeria",
    "iso2": "DZ",
    "iso3": "DZA",
    "admin_name": "Djelfa",
    "capital": "",
    "population": "101239",
    "id": "1012469007"
  },
  {
    "city": "Oum el Bouaghi",
    "city_ascii": "Oum el Bouaghi",
    "lat": "35.8706",
    "lng": "7.1150",
    "country": "Algeria",
    "iso2": "DZ",
    "iso3": "DZA",
    "admin_name": "Oum el Bouaghi",
    "capital": "admin",
    "population": "100821",
    "id": "1012958880"
  },
  {
    "city": "El Bayadh",
    "city_ascii": "El Bayadh",
    "lat": "33.6831",
    "lng": "1.0192",
    "country": "Algeria",
    "iso2": "DZ",
    "iso3": "DZA",
    "admin_name": "El Bayadh",
    "capital": "admin",
    "population": "85577",
    "id": "1012906892"
  },
  {
    "city": "Dar el Beïda",
    "city_ascii": "Dar el Beida",
    "lat": "36.7142",
    "lng": "3.2125",
    "country": "Algeria",
    "iso2": "DZ",
    "iso3": "DZA",
    "admin_name": "Alger",
    "capital": "",
    "population": "81509",
    "id": "1012987727"
  },
  {
    "city": "Aïn Temouchent",
    "city_ascii": "Ain Temouchent",
    "lat": "35.3044",
    "lng": "-1.1400",
    "country": "Algeria",
    "iso2": "DZ",
    "iso3": "DZA",
    "admin_name": "Aïn Temouchent",
    "capital": "admin",
    "population": "75558",
    "id": "1012763655"
  },
  {
    "city": "Tamanrasset",
    "city_ascii": "Tamanrasset",
    "lat": "22.7850",
    "lng": "5.5228",
    "country": "Algeria",
    "iso2": "DZ",
    "iso3": "DZA",
    "admin_name": "Tamanrasset",
    "capital": "admin",
    "population": "76000",
    "id": "1012765474"
  },
  {
    "city": "Tissemsilt",
    "city_ascii": "Tissemsilt",
    "lat": "35.6072",
    "lng": "1.8106",
    "country": "Algeria",
    "iso2": "DZ",
    "iso3": "DZA",
    "admin_name": "Tissemsilt",
    "capital": "admin",
    "population": "75197",
    "id": "1012743339"
  },
  {
    "city": "Bouira",
    "city_ascii": "Bouira",
    "lat": "36.3800",
    "lng": "3.9014",
    "country": "Algeria",
    "iso2": "DZ",
    "iso3": "DZA",
    "admin_name": "Bouira",
    "capital": "admin",
    "population": "68545",
    "id": "1012006499"
  },
  {
    "city": "Adrar",
    "city_ascii": "Adrar",
    "lat": "27.8742",
    "lng": "-0.2939",
    "country": "Algeria",
    "iso2": "DZ",
    "iso3": "DZA",
    "admin_name": "Adrar",
    "capital": "admin",
    "population": "68276",
    "id": "1012462113"
  },
  {
    "city": "Boudouaou",
    "city_ascii": "Boudouaou",
    "lat": "36.7300",
    "lng": "3.4100",
    "country": "Algeria",
    "iso2": "DZ",
    "iso3": "DZA",
    "admin_name": "Boumerdes",
    "capital": "",
    "population": "56398",
    "id": "1012554481"
  },
  {
    "city": "Tindouf",
    "city_ascii": "Tindouf",
    "lat": "27.6753",
    "lng": "-8.1286",
    "country": "Algeria",
    "iso2": "DZ",
    "iso3": "DZA",
    "admin_name": "Tindouf",
    "capital": "admin",
    "population": "45610",
    "id": "1012450434"
  },
  {
    "city": "Boumerdes",
    "city_ascii": "Boumerdes",
    "lat": "36.7603",
    "lng": "3.4724",
    "country": "Algeria",
    "iso2": "DZ",
    "iso3": "DZA",
    "admin_name": "Boumerdes",
    "capital": "admin",
    "population": "41685",
    "id": "1012627486"
  },
  {
    "city": "El Golea",
    "city_ascii": "El Golea",
    "lat": "30.6000",
    "lng": "2.9000",
    "country": "Algeria",
    "iso2": "DZ",
    "iso3": "DZA",
    "admin_name": "El Meniaa",
    "capital": "admin",
    "population": "40195",
    "id": "1012834851"
  },
  {
    "city": "Touggourt",
    "city_ascii": "Touggourt",
    "lat": "33.1000",
    "lng": "6.0667",
    "country": "Algeria",
    "iso2": "DZ",
    "iso3": "DZA",
    "admin_name": "Touggourt",
    "capital": "admin",
    "population": "39409",
    "id": "1012546670"
  },
  {
    "city": "Timimoun",
    "city_ascii": "Timimoun",
    "lat": "29.2500",
    "lng": "0.2333",
    "country": "Algeria",
    "iso2": "DZ",
    "iso3": "DZA",
    "admin_name": "Timimoun",
    "capital": "admin",
    "population": "33060",
    "id": "1012351010"
  },
  {
    "city": "I-n-Salah",
    "city_ascii": "I-n-Salah",
    "lat": "27.1936",
    "lng": "2.4606",
    "country": "Algeria",
    "iso2": "DZ",
    "iso3": "DZA",
    "admin_name": "In Salah",
    "capital": "admin",
    "population": "32518",
    "id": "1012201146"
  },
  {
    "city": "El Tarf",
    "city_ascii": "El Tarf",
    "lat": "36.7669",
    "lng": "8.3136",
    "country": "Algeria",
    "iso2": "DZ",
    "iso3": "DZA",
    "admin_name": "El Tarf",
    "capital": "admin",
    "population": "25594",
    "id": "1012205687"
  },
  {
    "city": "Tipasa",
    "city_ascii": "Tipasa",
    "lat": "36.5942",
    "lng": "2.4430",
    "country": "Algeria",
    "iso2": "DZ",
    "iso3": "DZA",
    "admin_name": "Tipaza",
    "capital": "admin",
    "population": "25225",
    "id": "1012866308"
  },
  {
    "city": "Illizi",
    "city_ascii": "Illizi",
    "lat": "26.5080",
    "lng": "8.4829",
    "country": "Algeria",
    "iso2": "DZ",
    "iso3": "DZA",
    "admin_name": "Illizi",
    "capital": "admin",
    "population": "17252",
    "id": "1012499058"
  },
  {
    "city": "Bordj Mokhtar",
    "city_ascii": "Bordj Mokhtar",
    "lat": "21.3289",
    "lng": "0.9542",
    "country": "Algeria",
    "iso2": "DZ",
    "iso3": "DZA",
    "admin_name": "Bordj Badji Mokhtar",
    "capital": "admin",
    "population": "16437",
    "id": "1012945794"
  },
  {
    "city": "Naama",
    "city_ascii": "Naama",
    "lat": "33.2678",
    "lng": "-0.3111",
    "country": "Algeria",
    "iso2": "DZ",
    "iso3": "DZA",
    "admin_name": "Naama",
    "capital": "admin",
    "population": "16251",
    "id": "1012850542"
  },
  {
    "city": "Djanet",
    "city_ascii": "Djanet",
    "lat": "24.5550",
    "lng": "9.4853",
    "country": "Algeria",
    "iso2": "DZ",
    "iso3": "DZA",
    "admin_name": "Djanet",
    "capital": "admin",
    "population": "14655",
    "id": "1012827195"
  },
  {
    "city": "Beni Abbès",
    "city_ascii": "Beni Abbes",
    "lat": "30.0800",
    "lng": "-2.1000",
    "country": "Algeria",
    "iso2": "DZ",
    "iso3": "DZA",
    "admin_name": "Béni Abbès",
    "capital": "admin",
    "population": "10885",
    "id": "1012633792"
  },
  {
    "city": "In Guezzam",
    "city_ascii": "In Guezzam",
    "lat": "19.5686",
    "lng": "5.7722",
    "country": "Algeria",
    "iso2": "DZ",
    "iso3": "DZA",
    "admin_name": "In Guezzam",
    "capital": "admin",
    "population": "7045",
    "id": "1012000031"
  },
  {
    "city": "Aïn Defla",
    "city_ascii": "Ain Defla",
    "lat": "36.2583",
    "lng": "1.9583",
    "country": "Algeria",
    "iso2": "DZ",
    "iso3": "DZA",
    "admin_name": "Aïn Defla",
    "capital": "admin",
    "population": "",
    "id": "1012656497"
  },
  {
    "city": "Mila",
    "city_ascii": "Mila",
    "lat": "36.4481",
    "lng": "6.2622",
    "country": "Algeria",
    "iso2": "DZ",
    "iso3": "DZA",
    "admin_name": "Mila",
    "capital": "admin",
    "population": "",
    "id": "1012656063"
  },
  {
    "city": "Ouled Djellal",
    "city_ascii": "Ouled Djellal",
    "lat": "34.4167",
    "lng": "5.0667",
    "country": "Algeria",
    "iso2": "DZ",
    "iso3": "DZA",
    "admin_name": "Ouled Djellal",
    "capital": "admin",
    "population": "",
    "id": "1012109892"
  },
  {
    "city": "El Meghaïer",
    "city_ascii": "El Meghaier",
    "lat": "33.9506",
    "lng": "5.9242",
    "country": "Algeria",
    "iso2": "DZ",
    "iso3": "DZA",
    "admin_name": "El Meghaier",
    "capital": "admin",
    "population": "",
    "id": "1012153214"
  },
  {
    "city": "Es Senia",
    "city_ascii": "Es Senia",
    "lat": "35.6478",
    "lng": "-0.6239",
    "country": "Algeria",
    "iso2": "DZ",
    "iso3": "DZA",
    "admin_name": "Oran",
    "capital": "",
    "population": "96928",
    "id": "1012779789"
  },
  {
    "city": "Aïn M’Lila",
    "city_ascii": "Ain M'Lila",
    "lat": "36.0367",
    "lng": "6.5719",
    "country": "Algeria",
    "iso2": "DZ",
    "iso3": "DZA",
    "admin_name": "Oum el Bouaghi",
    "capital": "",
    "population": "88441",
    "id": "1012438002"
  },
  {
    "city": "Khemis Miliana",
    "city_ascii": "Khemis Miliana",
    "lat": "36.2600",
    "lng": "2.2000",
    "country": "Algeria",
    "iso2": "DZ",
    "iso3": "DZA",
    "admin_name": "Aïn Defla",
    "capital": "",
    "population": "84574",
    "id": "1012116292"
  },
  {
    "city": "El Milia",
    "city_ascii": "El Milia",
    "lat": "36.7500",
    "lng": "6.2667",
    "country": "Algeria",
    "iso2": "DZ",
    "iso3": "DZA",
    "admin_name": "Jijel",
    "capital": "",
    "population": "83931",
    "id": "1012706826"
  },
  {
    "city": "Chelghoum el Aïd",
    "city_ascii": "Chelghoum el Aid",
    "lat": "36.1667",
    "lng": "6.1667",
    "country": "Algeria",
    "iso2": "DZ",
    "iso3": "DZA",
    "admin_name": "Mila",
    "capital": "",
    "population": "82560",
    "id": "1012048079"
  },
  {
    "city": "Khemis el Khechna",
    "city_ascii": "Khemis el Khechna",
    "lat": "36.6500",
    "lng": "3.3306",
    "country": "Algeria",
    "iso2": "DZ",
    "iso3": "DZA",
    "admin_name": "Boumerdes",
    "capital": "",
    "population": "76474",
    "id": "1012679229"
  },
  {
    "city": "Bordj Menaïel",
    "city_ascii": "Bordj Menaiel",
    "lat": "36.7417",
    "lng": "3.7231",
    "country": "Algeria",
    "iso2": "DZ",
    "iso3": "DZA",
    "admin_name": "Boumerdes",
    "capital": "",
    "population": "64820",
    "id": "1012287430"
  },
  {
    "city": "Mecheria",
    "city_ascii": "Mecheria",
    "lat": "33.5500",
    "lng": "-0.2833",
    "country": "Algeria",
    "iso2": "DZ",
    "iso3": "DZA",
    "admin_name": "Naama",
    "capital": "",
    "population": "65043",
    "id": "1012958256"
  },
  {
    "city": "Aïn Sefra",
    "city_ascii": "Ain Sefra",
    "lat": "32.7500",
    "lng": "-0.5833",
    "country": "Algeria",
    "iso2": "DZ",
    "iso3": "DZA",
    "admin_name": "Naama",
    "capital": "",
    "population": "63420",
    "id": "1012884513"
  },
  {
    "city": "Rouiba",
    "city_ascii": "Rouiba",
    "lat": "36.7333",
    "lng": "3.2833",
    "country": "Algeria",
    "iso2": "DZ",
    "iso3": "DZA",
    "admin_name": "Alger",
    "capital": "",
    "population": "61984",
    "id": "1012334934"
  },
  {
    "city": "Tighenif",
    "city_ascii": "Tighenif",
    "lat": "35.4167",
    "lng": "0.3330",
    "country": "Algeria",
    "iso2": "DZ",
    "iso3": "DZA",
    "admin_name": "Mascara",
    "capital": "",
    "population": "62210",
    "id": "1012981905"
  },
  {
    "city": "Lakhdaria",
    "city_ascii": "Lakhdaria",
    "lat": "36.5622",
    "lng": "3.5944",
    "country": "Algeria",
    "iso2": "DZ",
    "iso3": "DZA",
    "admin_name": "Bouira",
    "capital": "",
    "population": "59746",
    "id": "1012284313"
  },
  {
    "city": "Boufarik",
    "city_ascii": "Boufarik",
    "lat": "36.5750",
    "lng": "2.9097",
    "country": "Algeria",
    "iso2": "DZ",
    "iso3": "DZA",
    "admin_name": "Blida",
    "capital": "",
    "population": "57162",
    "id": "1012512259"
  },
  {
    "city": "Azzaba",
    "city_ascii": "Azzaba",
    "lat": "36.7333",
    "lng": "7.1000",
    "country": "Algeria",
    "iso2": "DZ",
    "iso3": "DZA",
    "admin_name": "Skikda",
    "capital": "",
    "population": "56922",
    "id": "1012969588"
  },
  {
    "city": "Akbou",
    "city_ascii": "Akbou",
    "lat": "36.4667",
    "lng": "4.5333",
    "country": "Algeria",
    "iso2": "DZ",
    "iso3": "DZA",
    "admin_name": "Bejaïa",
    "capital": "",
    "population": "52282",
    "id": "1012950888"
  },
  {
    "city": "’Aïn Azel",
    "city_ascii": "'Ain Azel",
    "lat": "35.8433",
    "lng": "5.5219",
    "country": "Algeria",
    "iso2": "DZ",
    "iso3": "DZA",
    "admin_name": "Sétif",
    "capital": "",
    "population": "48487",
    "id": "1012746080"
  },
  {
    "city": "Ouled Moussa",
    "city_ascii": "Ouled Moussa",
    "lat": "36.6831",
    "lng": "3.3681",
    "country": "Algeria",
    "iso2": "DZ",
    "iso3": "DZA",
    "admin_name": "Boumerdes",
    "capital": "",
    "population": "45770",
    "id": "1012623458"
  },
  {
    "city": "Hassi Messaoud",
    "city_ascii": "Hassi Messaoud",
    "lat": "31.7000",
    "lng": "6.0667",
    "country": "Algeria",
    "iso2": "DZ",
    "iso3": "DZA",
    "admin_name": "Ouargla",
    "capital": "",
    "population": "45147",
    "id": "1012339655"
  },
  {
    "city": "’Aïn Arnat",
    "city_ascii": "'Ain Arnat",
    "lat": "36.1833",
    "lng": "5.3167",
    "country": "Algeria",
    "iso2": "DZ",
    "iso3": "DZA",
    "admin_name": "Sétif",
    "capital": "",
    "population": "43551",
    "id": "1012453452"
  },
  {
    "city": "Draa el Mizan",
    "city_ascii": "Draa el Mizan",
    "lat": "36.5333",
    "lng": "3.8333",
    "country": "Algeria",
    "iso2": "DZ",
    "iso3": "DZA",
    "admin_name": "Bouira",
    "capital": "",
    "population": "38886",
    "id": "1012563094"
  },
  {
    "city": "Souma",
    "city_ascii": "Souma",
    "lat": "36.5183",
    "lng": "2.9053",
    "country": "Algeria",
    "iso2": "DZ",
    "iso3": "DZA",
    "admin_name": "Blida",
    "capital": "",
    "population": "37461",
    "id": "1012378735"
  },
  {
    "city": "Bougara",
    "city_ascii": "Bougara",
    "lat": "36.5333",
    "lng": "3.0833",
    "country": "Algeria",
    "iso2": "DZ",
    "iso3": "DZA",
    "admin_name": "Blida",
    "capital": "",
    "population": "38352",
    "id": "1012764987"
  },
  {
    "city": "Azazga",
    "city_ascii": "Azazga",
    "lat": "36.7453",
    "lng": "4.3711",
    "country": "Algeria",
    "iso2": "DZ",
    "iso3": "DZA",
    "admin_name": "Tizi Ouzou",
    "capital": "",
    "population": "34683",
    "id": "1012087552"
  },
  {
    "city": "Didouche Mourad",
    "city_ascii": "Didouche Mourad",
    "lat": "36.4484",
    "lng": "6.6339",
    "country": "Algeria",
    "iso2": "DZ",
    "iso3": "DZA",
    "admin_name": "Constantine",
    "capital": "",
    "population": "33266",
    "id": "1012151355"
  },
  {
    "city": "Dellys",
    "city_ascii": "Dellys",
    "lat": "36.9133",
    "lng": "3.9141",
    "country": "Algeria",
    "iso2": "DZ",
    "iso3": "DZA",
    "admin_name": "Boumerdes",
    "capital": "",
    "population": "32954",
    "id": "1012717910"
  },
  {
    "city": "Draa Ben Khedda",
    "city_ascii": "Draa Ben Khedda",
    "lat": "36.7349",
    "lng": "3.9556",
    "country": "Algeria",
    "iso2": "DZ",
    "iso3": "DZA",
    "admin_name": "Boumerdes",
    "capital": "",
    "population": "31382",
    "id": "1012011041"
  },
  {
    "city": "Boghni",
    "city_ascii": "Boghni",
    "lat": "36.5437",
    "lng": "3.9523",
    "country": "Algeria",
    "iso2": "DZ",
    "iso3": "DZA",
    "admin_name": "Tizi Ouzou",
    "capital": "",
    "population": "31263",
    "id": "1012740129"
  },
  {
    "city": "’Aïn Abid",
    "city_ascii": "'Ain Abid",
    "lat": "36.2325",
    "lng": "6.9440",
    "country": "Algeria",
    "iso2": "DZ",
    "iso3": "DZA",
    "admin_name": "Constantine",
    "capital": "",
    "population": "31743",
    "id": "1012017837"
  },
  {
    "city": "Tizi Gheniff",
    "city_ascii": "Tizi Gheniff",
    "lat": "36.5891",
    "lng": "3.7678",
    "country": "Algeria",
    "iso2": "DZ",
    "iso3": "DZA",
    "admin_name": "Boumerdes",
    "capital": "",
    "population": "29409",
    "id": "1012794312"
  },
  {
    "city": "El Kseur",
    "city_ascii": "El Kseur",
    "lat": "36.6844",
    "lng": "4.8522",
    "country": "Algeria",
    "iso2": "DZ",
    "iso3": "DZA",
    "admin_name": "Bejaïa",
    "capital": "",
    "population": "29842",
    "id": "1012893043"
  },
  {
    "city": "L’Arbaa Naït Irathen",
    "city_ascii": "L'Arbaa Nait Irathen",
    "lat": "36.6367",
    "lng": "4.2067",
    "country": "Algeria",
    "iso2": "DZ",
    "iso3": "DZA",
    "admin_name": "Tizi Ouzou",
    "capital": "",
    "population": "29376",
    "id": "1012117061"
  },
  {
    "city": "N’Gaous",
    "city_ascii": "N'Gaous",
    "lat": "35.5550",
    "lng": "5.6106",
    "country": "Algeria",
    "iso2": "DZ",
    "iso3": "DZA",
    "admin_name": "Batna",
    "capital": "",
    "population": "29504",
    "id": "1012978553"
  },
  {
    "city": "Timizart",
    "city_ascii": "Timizart",
    "lat": "36.8000",
    "lng": "4.2667",
    "country": "Algeria",
    "iso2": "DZ",
    "iso3": "DZA",
    "admin_name": "Tizi Ouzou",
    "capital": "",
    "population": "28996",
    "id": "1012767619"
  },
  {
    "city": "Babar",
    "city_ascii": "Babar",
    "lat": "35.1692",
    "lng": "7.1013",
    "country": "Algeria",
    "iso2": "DZ",
    "iso3": "DZA",
    "admin_name": "Khenchela",
    "capital": "",
    "population": "28182",
    "id": "1012018384"
  },
  {
    "city": "Freha",
    "city_ascii": "Freha",
    "lat": "36.7620",
    "lng": "4.3163",
    "country": "Algeria",
    "iso2": "DZ",
    "iso3": "DZA",
    "admin_name": "Tizi Ouzou",
    "capital": "",
    "population": "24228",
    "id": "1012372550"
  },
  {
    "city": "Mekla",
    "city_ascii": "Mekla",
    "lat": "36.6876",
    "lng": "4.2681",
    "country": "Algeria",
    "iso2": "DZ",
    "iso3": "DZA",
    "admin_name": "Tizi Ouzou",
    "capital": "",
    "population": "24237",
    "id": "1012384530"
  },
  {
    "city": "Tadjmout",
    "city_ascii": "Tadjmout",
    "lat": "33.8667",
    "lng": "2.5167",
    "country": "Algeria",
    "iso2": "DZ",
    "iso3": "DZA",
    "admin_name": "Laghouat",
    "capital": "",
    "population": "24320",
    "id": "1012533662"
  },
  {
    "city": "Beni Amrane",
    "city_ascii": "Beni Amrane",
    "lat": "36.6686",
    "lng": "3.5922",
    "country": "Algeria",
    "iso2": "DZ",
    "iso3": "DZA",
    "admin_name": "Boumerdes",
    "capital": "",
    "population": "23621",
    "id": "1012420167"
  },
  {
    "city": "Makouda",
    "city_ascii": "Makouda",
    "lat": "36.7909",
    "lng": "4.0669",
    "country": "Algeria",
    "iso2": "DZ",
    "iso3": "DZA",
    "admin_name": "Boumerdes",
    "capital": "",
    "population": "23388",
    "id": "1012786926"
  },
  {
    "city": "Tadmaït",
    "city_ascii": "Tadmait",
    "lat": "36.7427",
    "lng": "3.9019",
    "country": "Algeria",
    "iso2": "DZ",
    "iso3": "DZA",
    "admin_name": "Boumerdes",
    "capital": "",
    "population": "22838",
    "id": "1012245949"
  },
  {
    "city": "Amoucha",
    "city_ascii": "Amoucha",
    "lat": "36.3880",
    "lng": "5.4108",
    "country": "Algeria",
    "iso2": "DZ",
    "iso3": "DZA",
    "admin_name": "Sétif",
    "capital": "",
    "population": "22767",
    "id": "1012766595"
  },
  {
    "city": "Naciria",
    "city_ascii": "Naciria",
    "lat": "36.7500",
    "lng": "3.8333",
    "country": "Algeria",
    "iso2": "DZ",
    "iso3": "DZA",
    "admin_name": "Boumerdes",
    "capital": "",
    "population": "22431",
    "id": "1012065880"
  },
  {
    "city": "Kadiria",
    "city_ascii": "Kadiria",
    "lat": "36.5333",
    "lng": "3.6833",
    "country": "Algeria",
    "iso2": "DZ",
    "iso3": "DZA",
    "admin_name": "Bouira",
    "capital": "",
    "population": "22327",
    "id": "1012278992"
  },
  {
    "city": "Djinet",
    "city_ascii": "Djinet",
    "lat": "36.8770",
    "lng": "3.7231",
    "country": "Algeria",
    "iso2": "DZ",
    "iso3": "DZA",
    "admin_name": "Boumerdes",
    "capital": "",
    "population": "21966",
    "id": "1012989318"
  },
  {
    "city": "Beni Douala",
    "city_ascii": "Beni Douala",
    "lat": "36.6167",
    "lng": "4.0667",
    "country": "Algeria",
    "iso2": "DZ",
    "iso3": "DZA",
    "admin_name": "Tizi Ouzou",
    "capital": "",
    "population": "21551",
    "id": "1012742443"
  },
  {
    "city": "Thenia",
    "city_ascii": "Thenia",
    "lat": "36.7278",
    "lng": "3.5539",
    "country": "Algeria",
    "iso2": "DZ",
    "iso3": "DZA",
    "admin_name": "Boumerdes",
    "capital": "",
    "population": "21439",
    "id": "1012908635"
  },
  {
    "city": "Tizi-n-Bechar",
    "city_ascii": "Tizi-n-Bechar",
    "lat": "36.4311",
    "lng": "5.3600",
    "country": "Algeria",
    "iso2": "DZ",
    "iso3": "DZA",
    "admin_name": "Bejaïa",
    "capital": "",
    "population": "21086",
    "id": "1012925118"
  },
  {
    "city": "’Aïn el Hammam",
    "city_ascii": "'Ain el Hammam",
    "lat": "36.5714",
    "lng": "4.3097",
    "country": "Algeria",
    "iso2": "DZ",
    "iso3": "DZA",
    "admin_name": "Tizi Ouzou",
    "capital": "",
    "population": "20401",
    "id": "1012595495"
  },
  {
    "city": "Aomar",
    "city_ascii": "Aomar",
    "lat": "36.5000",
    "lng": "3.7833",
    "country": "Algeria",
    "iso2": "DZ",
    "iso3": "DZA",
    "admin_name": "Bouira",
    "capital": "",
    "population": "20532",
    "id": "1012376964"
  },
  {
    "city": "Tala Yfassene",
    "city_ascii": "Tala Yfassene",
    "lat": "36.4583",
    "lng": "5.0889",
    "country": "Algeria",
    "iso2": "DZ",
    "iso3": "DZA",
    "admin_name": "Sétif",
    "capital": "",
    "population": "20337",
    "id": "1012098651"
  },
  {
    "city": "Reggane",
    "city_ascii": "Reggane",
    "lat": "26.7000",
    "lng": "0.1667",
    "country": "Algeria",
    "iso2": "DZ",
    "iso3": "DZA",
    "admin_name": "Adrar",
    "capital": "",
    "population": "20402",
    "id": "1012709576"
  },
  {
    "city": "Arbaoun",
    "city_ascii": "Arbaoun",
    "lat": "36.4667",
    "lng": "5.6500",
    "country": "Algeria",
    "iso2": "DZ",
    "iso3": "DZA",
    "admin_name": "Sétif",
    "capital": "",
    "population": "19383",
    "id": "1012971347"
  },
  {
    "city": "Tirmitine",
    "city_ascii": "Tirmitine",
    "lat": "36.6618",
    "lng": "3.9848",
    "country": "Algeria",
    "iso2": "DZ",
    "iso3": "DZA",
    "admin_name": "Tizi Ouzou",
    "capital": "",
    "population": "19027",
    "id": "1012932001"
  },
  {
    "city": "Timoktene",
    "city_ascii": "Timoktene",
    "lat": "27.0217",
    "lng": "1.0150",
    "country": "Algeria",
    "iso2": "DZ",
    "iso3": "DZA",
    "admin_name": "Adrar",
    "capital": "",
    "population": "18598",
    "id": "1012254407"
  },
  {
    "city": "Bettioua",
    "city_ascii": "Bettioua",
    "lat": "35.8000",
    "lng": "-0.2667",
    "country": "Algeria",
    "iso2": "DZ",
    "iso3": "DZA",
    "admin_name": "Oran",
    "capital": "",
    "population": "18215",
    "id": "1012337546"
  },
  {
    "city": "Beni Fouda",
    "city_ascii": "Beni Fouda",
    "lat": "36.2861",
    "lng": "5.6071",
    "country": "Algeria",
    "iso2": "DZ",
    "iso3": "DZA",
    "admin_name": "Sétif",
    "capital": "",
    "population": "17667",
    "id": "1012660842"
  },
  {
    "city": "Tizi Rached",
    "city_ascii": "Tizi Rached",
    "lat": "36.6718",
    "lng": "4.1918",
    "country": "Algeria",
    "iso2": "DZ",
    "iso3": "DZA",
    "admin_name": "Tizi Ouzou",
    "capital": "",
    "population": "17161",
    "id": "1012966884"
  },
  {
    "city": "Aïn Zaouïa",
    "city_ascii": "Ain Zaouia",
    "lat": "36.5483",
    "lng": "3.8942",
    "country": "Algeria",
    "iso2": "DZ",
    "iso3": "DZA",
    "admin_name": "Tizi Ouzou",
    "capital": "",
    "population": "17320",
    "id": "1012695288"
  },
  {
    "city": "Sidi Daoud",
    "city_ascii": "Sidi Daoud",
    "lat": "36.8500",
    "lng": "3.8500",
    "country": "Algeria",
    "iso2": "DZ",
    "iso3": "DZA",
    "admin_name": "Boumerdes",
    "capital": "",
    "population": "16900",
    "id": "1012618002"
  },
  {
    "city": "Azeffoun",
    "city_ascii": "Azeffoun",
    "lat": "36.8961",
    "lng": "4.4204",
    "country": "Algeria",
    "iso2": "DZ",
    "iso3": "DZA",
    "admin_name": "Tizi Ouzou",
    "capital": "",
    "population": "16847",
    "id": "1012290725"
  },
  {
    "city": "Tichi",
    "city_ascii": "Tichi",
    "lat": "36.6675",
    "lng": "5.1601",
    "country": "Algeria",
    "iso2": "DZ",
    "iso3": "DZA",
    "admin_name": "Bejaïa",
    "capital": "",
    "population": "16546",
    "id": "1012798792"
  },
  {
    "city": "’Aïn Abessa",
    "city_ascii": "'Ain Abessa",
    "lat": "36.3000",
    "lng": "5.2950",
    "country": "Algeria",
    "iso2": "DZ",
    "iso3": "DZA",
    "admin_name": "Sétif",
    "capital": "",
    "population": "16770",
    "id": "1012074116"
  },
  {
    "city": "Chorfa",
    "city_ascii": "Chorfa",
    "lat": "36.3617",
    "lng": "4.3307",
    "country": "Algeria",
    "iso2": "DZ",
    "iso3": "DZA",
    "admin_name": "Bouira",
    "capital": "",
    "population": "16173",
    "id": "1012035343"
  },
  {
    "city": "Ouadhia",
    "city_ascii": "Ouadhia",
    "lat": "36.5500",
    "lng": "4.0833",
    "country": "Algeria",
    "iso2": "DZ",
    "iso3": "DZA",
    "admin_name": "Tizi Ouzou",
    "capital": "",
    "population": "15771",
    "id": "1012312650"
  },
  {
    "city": "Boudjima",
    "city_ascii": "Boudjima",
    "lat": "36.8140",
    "lng": "4.1588",
    "country": "Algeria",
    "iso2": "DZ",
    "iso3": "DZA",
    "admin_name": "Tizi Ouzou",
    "capital": "",
    "population": "15628",
    "id": "1012379618"
  },
  {
    "city": "Tizi-n-Tleta",
    "city_ascii": "Tizi-n-Tleta",
    "lat": "36.5457",
    "lng": "4.0571",
    "country": "Algeria",
    "iso2": "DZ",
    "iso3": "DZA",
    "admin_name": "Tizi Ouzou",
    "capital": "",
    "population": "15479",
    "id": "1012925920"
  },
  {
    "city": "Aït Yaïch",
    "city_ascii": "Ait Yaich",
    "lat": "36.5811",
    "lng": "4.3303",
    "country": "Algeria",
    "iso2": "DZ",
    "iso3": "DZA",
    "admin_name": "Tizi Ouzou",
    "capital": "",
    "population": "14439",
    "id": "1012677951"
  },
  {
    "city": "Ouled Sidi Brahim",
    "city_ascii": "Ouled Sidi Brahim",
    "lat": "36.3667",
    "lng": "3.7167",
    "country": "Algeria",
    "iso2": "DZ",
    "iso3": "DZA",
    "admin_name": "Bouira",
    "capital": "",
    "population": "14499",
    "id": "1012821401"
  },
  {
    "city": "Iflissen",
    "city_ascii": "Iflissen",
    "lat": "36.8636",
    "lng": "4.2203",
    "country": "Algeria",
    "iso2": "DZ",
    "iso3": "DZA",
    "admin_name": "Tizi Ouzou",
    "capital": "",
    "population": "14311",
    "id": "1012326451"
  },
  {
    "city": "Abadla",
    "city_ascii": "Abadla",
    "lat": "31.0167",
    "lng": "-2.7333",
    "country": "Algeria",
    "iso2": "DZ",
    "iso3": "DZA",
    "admin_name": "Béchar",
    "capital": "",
    "population": "14364",
    "id": "1012262770"
  },
  {
    "city": "Takerbouzt",
    "city_ascii": "Takerbouzt",
    "lat": "36.4180",
    "lng": "4.3428",
    "country": "Algeria",
    "iso2": "DZ",
    "iso3": "DZA",
    "admin_name": "Bouira",
    "capital": "",
    "population": "14000",
    "id": "1012858445"
  },
  {
    "city": "Moudjbara",
    "city_ascii": "Moudjbara",
    "lat": "34.5037",
    "lng": "3.4704",
    "country": "Algeria",
    "iso2": "DZ",
    "iso3": "DZA",
    "admin_name": "Djelfa",
    "capital": "",
    "population": "14052",
    "id": "1012667528"
  },
  {
    "city": "Afir",
    "city_ascii": "Afir",
    "lat": "36.7676",
    "lng": "3.7029",
    "country": "Algeria",
    "iso2": "DZ",
    "iso3": "DZA",
    "admin_name": "Boumerdes",
    "capital": "",
    "population": "13223",
    "id": "1012675026"
  },
  {
    "city": "Mechtras",
    "city_ascii": "Mechtras",
    "lat": "36.5448",
    "lng": "4.0049",
    "country": "Algeria",
    "iso2": "DZ",
    "iso3": "DZA",
    "admin_name": "Tizi Ouzou",
    "capital": "",
    "population": "12683",
    "id": "1012201497"
  },
  {
    "city": "Sali",
    "city_ascii": "Sali",
    "lat": "26.9833",
    "lng": "-0.0333",
    "country": "Algeria",
    "iso2": "DZ",
    "iso3": "DZA",
    "admin_name": "Adrar",
    "capital": "",
    "population": "13138",
    "id": "1012996789"
  },
  {
    "city": "El Marsa",
    "city_ascii": "El Marsa",
    "lat": "36.8111",
    "lng": "3.2556",
    "country": "Algeria",
    "iso2": "DZ",
    "iso3": "DZA",
    "admin_name": "Alger",
    "capital": "",
    "population": "12100",
    "id": "1012716943"
  },
  {
    "city": "Arhribs",
    "city_ascii": "Arhribs",
    "lat": "36.8022",
    "lng": "4.3227",
    "country": "Algeria",
    "iso2": "DZ",
    "iso3": "DZA",
    "admin_name": "Tizi Ouzou",
    "capital": "",
    "population": "12474",
    "id": "1012696122"
  },
  {
    "city": "Si Mustapha",
    "city_ascii": "Si Mustapha",
    "lat": "36.7247",
    "lng": "3.6153",
    "country": "Algeria",
    "iso2": "DZ",
    "iso3": "DZA",
    "admin_name": "Boumerdes",
    "capital": "",
    "population": "12087",
    "id": "1012130143"
  },
  {
    "city": "Iferhounene",
    "city_ascii": "Iferhounene",
    "lat": "36.5338",
    "lng": "4.3701",
    "country": "Algeria",
    "iso2": "DZ",
    "iso3": "DZA",
    "admin_name": "Tizi Ouzou",
    "capital": "",
    "population": "12460",
    "id": "1012745524"
  },
  {
    "city": "El Adjiba",
    "city_ascii": "El Adjiba",
    "lat": "36.3333",
    "lng": "4.1500",
    "country": "Algeria",
    "iso2": "DZ",
    "iso3": "DZA",
    "admin_name": "Bouira",
    "capital": "",
    "population": "12486",
    "id": "1012383350"
  },
  {
    "city": "Yakouren",
    "city_ascii": "Yakouren",
    "lat": "36.7348",
    "lng": "4.4386",
    "country": "Algeria",
    "iso2": "DZ",
    "iso3": "DZA",
    "admin_name": "Tizi Ouzou",
    "capital": "",
    "population": "12203",
    "id": "1012612535"
  },
  {
    "city": "Tigzirt",
    "city_ascii": "Tigzirt",
    "lat": "36.8931",
    "lng": "4.1225",
    "country": "Algeria",
    "iso2": "DZ",
    "iso3": "DZA",
    "admin_name": "Tizi Ouzou",
    "capital": "",
    "population": "11962",
    "id": "1012150824"
  },
  {
    "city": "Bechloul",
    "city_ascii": "Bechloul",
    "lat": "36.3167",
    "lng": "4.0667",
    "country": "Algeria",
    "iso2": "DZ",
    "iso3": "DZA",
    "admin_name": "Bouira",
    "capital": "",
    "population": "11775",
    "id": "1012563877"
  },
  {
    "city": "El Ançor",
    "city_ascii": "El Ancor",
    "lat": "35.6833",
    "lng": "-0.8667",
    "country": "Algeria",
    "iso2": "DZ",
    "iso3": "DZA",
    "admin_name": "Oran",
    "capital": "",
    "population": "11469",
    "id": "1012598945"
  },
  {
    "city": "’Aïn Roua",
    "city_ascii": "'Ain Roua",
    "lat": "36.3344",
    "lng": "5.1806",
    "country": "Algeria",
    "iso2": "DZ",
    "iso3": "DZA",
    "admin_name": "Sétif",
    "capital": "",
    "population": "11499",
    "id": "1012529757"
  },
  {
    "city": "Charouine",
    "city_ascii": "Charouine",
    "lat": "29.0167",
    "lng": "-0.2667",
    "country": "Algeria",
    "iso2": "DZ",
    "iso3": "DZA",
    "admin_name": "Adrar",
    "capital": "",
    "population": "11347",
    "id": "1012755999"
  },
  {
    "city": "Bir Ghbalou",
    "city_ascii": "Bir Ghbalou",
    "lat": "36.2642",
    "lng": "3.5836",
    "country": "Algeria",
    "iso2": "DZ",
    "iso3": "DZA",
    "admin_name": "Médéa",
    "capital": "",
    "population": "11016",
    "id": "1012249358"
  },
  {
    "city": "Sidi Namane",
    "city_ascii": "Sidi Namane",
    "lat": "36.7581",
    "lng": "3.9839",
    "country": "Algeria",
    "iso2": "DZ",
    "iso3": "DZA",
    "admin_name": "Boumerdes",
    "capital": "",
    "population": "10688",
    "id": "1012820383"
  },
  {
    "city": "Sidi Brahim",
    "city_ascii": "Sidi Brahim",
    "lat": "35.2606",
    "lng": "-0.5675",
    "country": "Algeria",
    "iso2": "DZ",
    "iso3": "DZA",
    "admin_name": "Sidi Bel Abbès",
    "capital": "",
    "population": "10371",
    "id": "1012460249"
  },
  {
    "city": "Ben N’Choud",
    "city_ascii": "Ben N'Choud",
    "lat": "36.8624",
    "lng": "3.8806",
    "country": "Algeria",
    "iso2": "DZ",
    "iso3": "DZA",
    "admin_name": "Boumerdes",
    "capital": "",
    "population": "9985",
    "id": "1012044380"
  },
  {
    "city": "Bordj Okhriss",
    "city_ascii": "Bordj Okhriss",
    "lat": "36.0833",
    "lng": "3.9667",
    "country": "Algeria",
    "iso2": "DZ",
    "iso3": "DZA",
    "admin_name": "Bouira",
    "capital": "",
    "population": "10467",
    "id": "1012057188"
  },
  {
    "city": "Ben Nasseur",
    "city_ascii": "Ben Nasseur",
    "lat": "33.1107",
    "lng": "6.4410",
    "country": "Algeria",
    "iso2": "DZ",
    "iso3": "DZA",
    "admin_name": "Ouargla",
    "capital": "",
    "population": "10330",
    "id": "1012048018"
  },
  {
    "city": "Souama",
    "city_ascii": "Souama",
    "lat": "36.6417",
    "lng": "4.3416",
    "country": "Algeria",
    "iso2": "DZ",
    "iso3": "DZA",
    "admin_name": "Tizi Ouzou",
    "capital": "",
    "population": "9954",
    "id": "1012240654"
  },
  {
    "city": "Bou Nouh",
    "city_ascii": "Bou Nouh",
    "lat": "36.5000",
    "lng": "3.9333",
    "country": "Algeria",
    "iso2": "DZ",
    "iso3": "DZA",
    "admin_name": "Tizi Ouzou",
    "capital": "",
    "population": "9731",
    "id": "1012718665"
  },
  {
    "city": "Toudja",
    "city_ascii": "Toudja",
    "lat": "36.7586",
    "lng": "4.8933",
    "country": "Algeria",
    "iso2": "DZ",
    "iso3": "DZA",
    "admin_name": "Bejaïa",
    "capital": "",
    "population": "9827",
    "id": "1012114797"
  },
  {
    "city": "Ifigha",
    "city_ascii": "Ifigha",
    "lat": "36.6667",
    "lng": "4.4167",
    "country": "Algeria",
    "iso2": "DZ",
    "iso3": "DZA",
    "admin_name": "Tizi Ouzou",
    "capital": "",
    "population": "9160",
    "id": "1012938624"
  },
  {
    "city": "Ouled Rached",
    "city_ascii": "Ouled Rached",
    "lat": "36.2119",
    "lng": "4.1106",
    "country": "Algeria",
    "iso2": "DZ",
    "iso3": "DZA",
    "admin_name": "Bouira",
    "capital": "",
    "population": "9311",
    "id": "1012727170"
  },
  {
    "city": "Seddouk Oufella",
    "city_ascii": "Seddouk Oufella",
    "lat": "36.6061",
    "lng": "4.6389",
    "country": "Algeria",
    "iso2": "DZ",
    "iso3": "DZA",
    "admin_name": "Bejaïa",
    "capital": "",
    "population": "8931",
    "id": "1012348181"
  },
  {
    "city": "I-n-Amenas",
    "city_ascii": "I-n-Amenas",
    "lat": "28.0500",
    "lng": "9.5500",
    "country": "Algeria",
    "iso2": "DZ",
    "iso3": "DZA",
    "admin_name": "Illizi",
    "capital": "",
    "population": "9225",
    "id": "1012221429"
  },
  {
    "city": "Abalessa",
    "city_ascii": "Abalessa",
    "lat": "22.8900",
    "lng": "4.8472",
    "country": "Algeria",
    "iso2": "DZ",
    "iso3": "DZA",
    "admin_name": "Tamanrasset",
    "capital": "",
    "population": "9163",
    "id": "1012479386"
  },
  {
    "city": "Boukhralfa",
    "city_ascii": "Boukhralfa",
    "lat": "36.6144",
    "lng": "5.0872",
    "country": "Algeria",
    "iso2": "DZ",
    "iso3": "DZA",
    "admin_name": "Bejaïa",
    "capital": "",
    "population": "8766",
    "id": "1012066745"
  },
  {
    "city": "Tifra",
    "city_ascii": "Tifra",
    "lat": "36.6664",
    "lng": "4.6972",
    "country": "Algeria",
    "iso2": "DZ",
    "iso3": "DZA",
    "admin_name": "Bejaïa",
    "capital": "",
    "population": "8547",
    "id": "1012591585"
  },
  {
    "city": "Amalou",
    "city_ascii": "Amalou",
    "lat": "36.4778",
    "lng": "4.6333",
    "country": "Algeria",
    "iso2": "DZ",
    "iso3": "DZA",
    "admin_name": "Bejaïa",
    "capital": "",
    "population": "8602",
    "id": "1012045463"
  },
  {
    "city": "Beni Ounif",
    "city_ascii": "Beni Ounif",
    "lat": "32.0500",
    "lng": "-1.2500",
    "country": "Algeria",
    "iso2": "DZ",
    "iso3": "DZA",
    "admin_name": "Béchar",
    "capital": "",
    "population": "5628",
    "id": "1012327989"
  },
  {
    "city": "I-n-Amguel",
    "city_ascii": "I-n-Amguel",
    "lat": "23.6936",
    "lng": "5.1647",
    "country": "Algeria",
    "iso2": "DZ",
    "iso3": "DZA",
    "admin_name": "Tamanrasset",
    "capital": "",
    "population": "3030",
    "id": "1012162135"
  }
]